<?xml version="1.0" encoding="utf-8"?>
<route><routes><airline_iata>A3</airline_iata><departure_airport_iata>ATH</departure_airport_iata><departure_name_airport>Athens International Airport "Eleftherios Venizelos"</departure_name_airport><departure_coordinates_lon>23.946486</departure_coordinates_lon><departure_coordinates_lat>37.93635</departure_coordinates_lat><departure_country_code>GR</departure_country_code><departure_country_name>Greece</departure_country_name><departure_city_code>ATH</departure_city_code><departure_city_name>Athens</departure_city_name><arrival_airport_iata>TIA</arrival_airport_iata><arrival_name_airport>Rinas Mother Teresa</arrival_name_airport><arrival_coordinates_lon>19.71328</arrival_coordinates_lon><arrival_coordinates_lat>41.419132</arrival_coordinates_lat><arrival_country_code>AL</arrival_country_code><arrival_country_name>Albania</arrival_country_name><arrival_city_code>TIA</arrival_city_code><arrival_city_name>Tirana</arrival_city_name><planes>DH4</planes><plane_name>De Havilland Canada DHC-8-400 Dash 8/8Q</plane_name></routes><routes><airline_iata>AP</airline_iata><departure_airport_iata>MXP</departure_airport_iata><departure_name_airport>Milano Malpensa</departure_name_airport><departure_coordinates_lon>8.71237</departure_coordinates_lon><departure_coordinates_lat>45.627403</departure_coordinates_lat><departure_country_code>IT</departure_country_code><departure_country_name>Italy</departure_country_name><departure_city_code>MIL</departure_city_code><departure_city_name>Milan</departure_city_name><arrival_airport_iata>TIA</arrival_airport_iata><arrival_name_airport>Rinas Mother Teresa</arrival_name_airport><arrival_coordinates_lon>19.71328</arrival_coordinates_lon><arrival_coordinates_lat>41.419132</arrival_coordinates_lat><arrival_country_code>AL</arrival_country_code><arrival_country_name>Albania</arrival_country_name><arrival_city_code>TIA</arrival_city_code><arrival_city_name>Tirana</arrival_city_name><planes>320</planes><plane_name>Airbus Industrie A320</plane_name></routes><routes><airline_iata>AP</airline_iata><departure_airport_iata>PSA</departure_airport_iata><departure_name_airport>Galileo Galilei</departure_name_airport><departure_coordinates_lon>10.399915</departure_coordinates_lon><departure_coordinates_lat>43.69871</departure_coordinates_lat><departure_country_code>IT</departure_country_code><departure_country_name>Italy</departure_country_name><departure_city_code>PSA</departure_city_code><departure_city_name>Pisa</departure_city_name><arrival_airport_iata>TIA</arrival_airport_iata><arrival_name_airport>Rinas Mother Teresa</arrival_name_airport><arrival_coordinates_lon>19.71328</arrival_coordinates_lon><arrival_coordinates_lat>41.419132</arrival_coordinates_lat><arrival_country_code>AL</arrival_country_code><arrival_country_name>Albania</arrival_country_name><arrival_city_code>TIA</arrival_city_code><arrival_city_name>Tirana</arrival_city_name><planes>32S</planes><plane_name>Airbus Industrie A318/319/320/321</plane_name></routes><routes><airline_iata>AZ</airline_iata><departure_airport_iata>FCO</departure_airport_iata><departure_name_airport>Leonardo Da Vinci (Fiumicino)</departure_name_airport><departure_coordinates_lon>12.250346</departure_coordinates_lon><departure_coordinates_lat>41.794594</departure_coordinates_lat><departure_country_code>IT</departure_country_code><departure_country_name>Italy</departure_country_name><departure_city_code>ROM</departure_city_code><departure_city_name>Rome</departure_city_name><arrival_airport_iata>TIA</arrival_airport_iata><arrival_name_airport>Rinas Mother Teresa</arrival_name_airport><arrival_coordinates_lon>19.71328</arrival_coordinates_lon><arrival_coordinates_lat>41.419132</arrival_coordinates_lat><arrival_country_code>AL</arrival_country_code><arrival_country_name>Albania</arrival_country_name><arrival_city_code>TIA</arrival_city_code><arrival_city_name>Tirana</arrival_city_name><planes>32S</planes><plane_name>Airbus Industrie A318/319/320/321</plane_name></routes><routes><airline_iata>AZ</airline_iata><departure_airport_iata>MXP</departure_airport_iata><departure_name_airport>Milano Malpensa</departure_name_airport><departure_coordinates_lon>8.71237</departure_coordinates_lon><departure_coordinates_lat>45.627403</departure_coordinates_lat><departure_country_code>IT</departure_country_code><departure_country_name>Italy</departure_country_name><departure_city_code>MIL</departure_city_code><departure_city_name>Milan</departure_city_name><arrival_airport_iata>TIA</arrival_airport_iata><arrival_name_airport>Rinas Mother Teresa</arrival_name_airport><arrival_coordinates_lon>19.71328</arrival_coordinates_lon><arrival_coordinates_lat>41.419132</arrival_coordinates_lat><arrival_country_code>AL</arrival_country_code><arrival_country_name>Albania</arrival_country_name><arrival_city_code>TIA</arrival_city_code><arrival_city_name>Tirana</arrival_city_name><planes>320</planes><plane_name>Airbus Industrie A320</plane_name></routes><routes><airline_iata>AZ</airline_iata><departure_airport_iata>PSA</departure_airport_iata><departure_name_airport>Galileo Galilei</departure_name_airport><departure_coordinates_lon>10.399915</departure_coordinates_lon><departure_coordinates_lat>43.69871</departure_coordinates_lat><departure_country_code>IT</departure_country_code><departure_country_name>Italy</departure_country_name><departure_city_code>PSA</departure_city_code><departure_city_name>Pisa</departure_city_name><arrival_airport_iata>TIA</arrival_airport_iata><arrival_name_airport>Rinas Mother Teresa</arrival_name_airport><arrival_coordinates_lon>19.71328</arrival_coordinates_lon><arrival_coordinates_lat>41.419132</arrival_coordinates_lat><arrival_country_code>AL</arrival_country_code><arrival_country_name>Albania</arrival_country_name><arrival_city_code>TIA</arrival_city_code><arrival_city_name>Tirana</arrival_city_name><planes>32S</planes><plane_name>Airbus Industrie A318/319/320/321</plane_name></routes><routes><airline_iata>BA</airline_iata><departure_airport_iata>LGW</departure_airport_iata><departure_name_airport>Gatwick</departure_name_airport><departure_coordinates_lon>-0.161863</departure_coordinates_lon><departure_coordinates_lat>51.156807</departure_coordinates_lat><departure_country_code>GB</departure_country_code><departure_country_name>United Kingdom</departure_country_name><departure_city_code>LON</departure_city_code><departure_city_name>London</departure_city_name><arrival_airport_iata>TIA</arrival_airport_iata><arrival_name_airport>Rinas Mother Teresa</arrival_name_airport><arrival_coordinates_lon>19.71328</arrival_coordinates_lon><arrival_coordinates_lat>41.419132</arrival_coordinates_lat><arrival_country_code>AL</arrival_country_code><arrival_country_name>Albania</arrival_country_name><arrival_city_code>TIA</arrival_city_code><arrival_city_name>Tirana</arrival_city_name><planes>734</planes><plane_name>Boeing 737-400</plane_name></routes><routes><airline_iata>CY</airline_iata><departure_airport_iata>ATH</departure_airport_iata><departure_name_airport>Athens International Airport "Eleftherios Venizelos"</departure_name_airport><departure_coordinates_lon>23.946486</departure_coordinates_lon><departure_coordinates_lat>37.93635</departure_coordinates_lat><departure_country_code>GR</departure_country_code><departure_country_name>Greece</departure_country_name><departure_city_code>ATH</departure_city_code><departure_city_name>Athens</departure_city_name><arrival_airport_iata>TIA</arrival_airport_iata><arrival_name_airport>Rinas Mother Teresa</arrival_name_airport><arrival_coordinates_lon>19.71328</arrival_coordinates_lon><arrival_coordinates_lat>41.419132</arrival_coordinates_lat><arrival_country_code>AL</arrival_country_code><arrival_country_name>Albania</arrival_country_name><arrival_city_code>TIA</arrival_city_code><arrival_city_name>Tirana</arrival_city_name><planes>DH4</planes><plane_name>De Havilland Canada DHC-8-400 Dash 8/8Q</plane_name></routes><routes><airline_iata>JP</airline_iata><departure_airport_iata>LJU</departure_airport_iata><departure_name_airport>Brnik</departure_name_airport><departure_coordinates_lon>14.454972</departure_coordinates_lon><departure_coordinates_lat>46.23102</departure_coordinates_lat><departure_country_code>SI</departure_country_code><departure_country_name>Slovenia</departure_country_name><departure_city_code>LJU</departure_city_code><departure_city_name>Ljubljana</departure_city_name><arrival_airport_iata>TIA</arrival_airport_iata><arrival_name_airport>Rinas Mother Teresa</arrival_name_airport><arrival_coordinates_lon>19.71328</arrival_coordinates_lon><arrival_coordinates_lat>41.419132</arrival_coordinates_lat><arrival_country_code>AL</arrival_country_code><arrival_country_name>Albania</arrival_country_name><arrival_city_code>TIA</arrival_city_code><arrival_city_name>Tirana</arrival_city_name><planes>CR9</planes><plane_name>Canadair Regional Jet 900</plane_name></routes><routes><airline_iata>L9</airline_iata><departure_airport_iata>AOI</departure_airport_iata><departure_name_airport>Falconara</departure_name_airport><departure_coordinates_lon>13.355723</departure_coordinates_lon><departure_coordinates_lat>43.60691</departure_coordinates_lat><departure_country_code>IT</departure_country_code><departure_country_name>Italy</departure_country_name><departure_city_code>AOI</departure_city_code><departure_city_name>Ancona</departure_city_name><arrival_airport_iata>TIA</arrival_airport_iata><arrival_name_airport>Rinas Mother Teresa</arrival_name_airport><arrival_coordinates_lon>19.71328</arrival_coordinates_lon><arrival_coordinates_lat>41.419132</arrival_coordinates_lat><arrival_country_code>AL</arrival_country_code><arrival_country_name>Albania</arrival_country_name><arrival_city_code>TIA</arrival_city_code><arrival_city_name>Tirana</arrival_city_name><planes>AT7</planes><plane_name>Aerospatiale/Alenia ATR 72</plane_name></routes><routes><airline_iata>L9</airline_iata><departure_airport_iata>PRG</departure_airport_iata><departure_name_airport>Prague Vaclav Havel Airport</departure_name_airport><departure_coordinates_lon>14.266638</departure_coordinates_lon><departure_coordinates_lat>50.10619</departure_coordinates_lat><departure_country_code>CZ</departure_country_code><departure_country_name>Czech Republic</departure_country_name><departure_city_code>PRG</departure_city_code><departure_city_name>Prague</departure_city_name><arrival_airport_iata>TIA</arrival_airport_iata><arrival_name_airport>Rinas Mother Teresa</arrival_name_airport><arrival_coordinates_lon>19.71328</arrival_coordinates_lon><arrival_coordinates_lat>41.419132</arrival_coordinates_lat><arrival_country_code>AL</arrival_country_code><arrival_country_name>Albania</arrival_country_name><arrival_city_code>TIA</arrival_city_code><arrival_city_name>Tirana</arrival_city_name><planes>735</planes><plane_name>Boeing 737-500</plane_name></routes><routes><airline_iata>L9</airline_iata><departure_airport_iata>VRN</departure_airport_iata><departure_name_airport>Valerio Catullo</departure_name_airport><departure_coordinates_lon>10.906796</departure_coordinates_lon><departure_coordinates_lat>45.40233</departure_coordinates_lat><departure_country_code>IT</departure_country_code><departure_country_name>Italy</departure_country_name><departure_city_code>VRN</departure_city_code><departure_city_name>Verona</departure_city_name><arrival_airport_iata>TIA</arrival_airport_iata><arrival_name_airport>Rinas Mother Teresa</arrival_name_airport><arrival_coordinates_lon>19.71328</arrival_coordinates_lon><arrival_coordinates_lat>41.419132</arrival_coordinates_lat><arrival_country_code>AL</arrival_country_code><arrival_country_name>Albania</arrival_country_name><arrival_city_code>TIA</arrival_city_code><arrival_city_name>Tirana</arrival_city_name><planes>319</planes><plane_name>Airbus Industrie A319</plane_name></routes><routes><airline_iata>LH</airline_iata><departure_airport_iata>MUC</departure_airport_iata><departure_name_airport>Franz Josef Strauss</departure_name_airport><departure_coordinates_lon>11.790143</departure_coordinates_lon><departure_coordinates_lat>48.353004</departure_coordinates_lat><departure_country_code>DE</departure_country_code><departure_country_name>Germany</departure_country_name><departure_city_code>MUC</departure_city_code><departure_city_name>Munich</departure_city_name><arrival_airport_iata>TIA</arrival_airport_iata><arrival_name_airport>Rinas Mother Teresa</arrival_name_airport><arrival_coordinates_lon>19.71328</arrival_coordinates_lon><arrival_coordinates_lat>41.419132</arrival_coordinates_lat><arrival_country_code>AL</arrival_country_code><arrival_country_name>Albania</arrival_country_name><arrival_city_code>TIA</arrival_city_code><arrival_city_name>Tirana</arrival_city_name><planes>E95</planes><plane_name>Embraer ERJ-195</plane_name></routes><routes><airline_iata>LZ</airline_iata><departure_airport_iata>AOI</departure_airport_iata><departure_name_airport>Falconara</departure_name_airport><departure_coordinates_lon>13.355723</departure_coordinates_lon><departure_coordinates_lat>43.60691</departure_coordinates_lat><departure_country_code>IT</departure_country_code><departure_country_name>Italy</departure_country_name><departure_city_code>AOI</departure_city_code><departure_city_name>Ancona</departure_city_name><arrival_airport_iata>TIA</arrival_airport_iata><arrival_name_airport>Rinas Mother Teresa</arrival_name_airport><arrival_coordinates_lon>19.71328</arrival_coordinates_lon><arrival_coordinates_lat>41.419132</arrival_coordinates_lat><arrival_country_code>AL</arrival_country_code><arrival_country_name>Albania</arrival_country_name><arrival_city_code>TIA</arrival_city_code><arrival_city_name>Tirana</arrival_city_name><planes>AT7</planes><plane_name>Aerospatiale/Alenia ATR 72</plane_name></routes><routes><airline_iata>LZ</airline_iata><departure_airport_iata>ATH</departure_airport_iata><departure_name_airport>Athens International Airport "Eleftherios Venizelos"</departure_name_airport><departure_coordinates_lon>23.946486</departure_coordinates_lon><departure_coordinates_lat>37.93635</departure_coordinates_lat><departure_country_code>GR</departure_country_code><departure_country_name>Greece</departure_country_name><departure_city_code>ATH</departure_city_code><departure_city_name>Athens</departure_city_name><arrival_airport_iata>TIA</arrival_airport_iata><arrival_name_airport>Rinas Mother Teresa</arrival_name_airport><arrival_coordinates_lon>19.71328</arrival_coordinates_lon><arrival_coordinates_lat>41.419132</arrival_coordinates_lat><arrival_country_code>AL</arrival_country_code><arrival_country_name>Albania</arrival_country_name><arrival_city_code>TIA</arrival_city_code><arrival_city_name>Tirana</arrival_city_name><planes>AT7</planes><plane_name>Aerospatiale/Alenia ATR 72</plane_name></routes><routes><airline_iata>LZ</airline_iata><departure_airport_iata>BGY</departure_airport_iata><departure_name_airport>Bergamo - Orio al Serio</departure_name_airport><departure_coordinates_lon>9.698713</departure_coordinates_lon><departure_coordinates_lat>45.665314</departure_coordinates_lat><departure_country_code>IT</departure_country_code><departure_country_name>Italy</departure_country_name><departure_city_code>MIL</departure_city_code><departure_city_name>Milan</departure_city_name><arrival_airport_iata>TIA</arrival_airport_iata><arrival_name_airport>Rinas Mother Teresa</arrival_name_airport><arrival_coordinates_lon>19.71328</arrival_coordinates_lon><arrival_coordinates_lat>41.419132</arrival_coordinates_lat><arrival_country_code>AL</arrival_country_code><arrival_country_name>Albania</arrival_country_name><arrival_city_code>TIA</arrival_city_code><arrival_city_name>Tirana</arrival_city_name><planes>319</planes><plane_name>Airbus Industrie A319</plane_name></routes><routes><airline_iata>LZ</airline_iata><departure_airport_iata>BLQ</departure_airport_iata><departure_name_airport>Guglielmo Marconi</departure_name_airport><departure_coordinates_lon>11.293289</departure_coordinates_lon><departure_coordinates_lat>44.529266</departure_coordinates_lat><departure_country_code>IT</departure_country_code><departure_country_name>Italy</departure_country_name><departure_city_code>BLQ</departure_city_code><departure_city_name>Bologna</departure_city_name><arrival_airport_iata>TIA</arrival_airport_iata><arrival_name_airport>Rinas Mother Teresa</arrival_name_airport><arrival_coordinates_lon>19.71328</arrival_coordinates_lon><arrival_coordinates_lat>41.419132</arrival_coordinates_lat><arrival_country_code>AL</arrival_country_code><arrival_country_name>Albania</arrival_country_name><arrival_city_code>TIA</arrival_city_code><arrival_city_name>Tirana</arrival_city_name><planes>735</planes><plane_name>Boeing 737-500</plane_name></routes><routes><airline_iata>LZ</airline_iata><departure_airport_iata>BRI</departure_airport_iata><departure_name_airport>Palese</departure_name_airport><departure_coordinates_lon>16.76391</departure_coordinates_lon><departure_coordinates_lat>41.13388</departure_coordinates_lat><departure_country_code>IT</departure_country_code><departure_country_name>Italy</departure_country_name><departure_city_code>BRI</departure_city_code><departure_city_name>Bari</departure_city_name><arrival_airport_iata>TIA</arrival_airport_iata><arrival_name_airport>Rinas Mother Teresa</arrival_name_airport><arrival_coordinates_lon>19.71328</arrival_coordinates_lon><arrival_coordinates_lat>41.419132</arrival_coordinates_lat><arrival_country_code>AL</arrival_country_code><arrival_country_name>Albania</arrival_country_name><arrival_city_code>TIA</arrival_city_code><arrival_city_name>Tirana</arrival_city_name><planes>AT7</planes><plane_name>Aerospatiale/Alenia ATR 72</plane_name></routes><routes><airline_iata>LZ</airline_iata><departure_airport_iata>BRU</departure_airport_iata><departure_name_airport>Brussels Airport</departure_name_airport><departure_coordinates_lon>4.483602</departure_coordinates_lon><departure_coordinates_lat>50.89717</departure_coordinates_lat><departure_country_code>BE</departure_country_code><departure_country_name>Belgium</departure_country_name><departure_city_code>BRU</departure_city_code><departure_city_name>Brussels</departure_city_name><arrival_airport_iata>TIA</arrival_airport_iata><arrival_name_airport>Rinas Mother Teresa</arrival_name_airport><arrival_coordinates_lon>19.71328</arrival_coordinates_lon><arrival_coordinates_lat>41.419132</arrival_coordinates_lat><arrival_country_code>AL</arrival_country_code><arrival_country_name>Albania</arrival_country_name><arrival_city_code>TIA</arrival_city_code><arrival_city_name>Tirana</arrival_city_name><planes>319</planes><plane_name>Airbus Industrie A319</plane_name></routes><routes><airline_iata>LZ</airline_iata><departure_airport_iata>CUF</departure_airport_iata><departure_name_airport>Levaldigi</departure_name_airport><departure_coordinates_lon>7.6175</departure_coordinates_lon><departure_coordinates_lat>44.53528</departure_coordinates_lat><departure_country_code>IT</departure_country_code><departure_country_name>Italy</departure_country_name><departure_city_code>CUF</departure_city_code><departure_city_name>Cuneo</departure_city_name><arrival_airport_iata>TIA</arrival_airport_iata><arrival_name_airport>Rinas Mother Teresa</arrival_name_airport><arrival_coordinates_lon>19.71328</arrival_coordinates_lon><arrival_coordinates_lat>41.419132</arrival_coordinates_lat><arrival_country_code>AL</arrival_country_code><arrival_country_name>Albania</arrival_country_name><arrival_city_code>TIA</arrival_city_code><arrival_city_name>Tirana</arrival_city_name><planes>319</planes><plane_name>Airbus Industrie A319</plane_name></routes><routes><airline_iata>LZ</airline_iata><departure_airport_iata>FCO</departure_airport_iata><departure_name_airport>Leonardo Da Vinci (Fiumicino)</departure_name_airport><departure_coordinates_lon>12.250346</departure_coordinates_lon><departure_coordinates_lat>41.794594</departure_coordinates_lat><departure_country_code>IT</departure_country_code><departure_country_name>Italy</departure_country_name><departure_city_code>ROM</departure_city_code><departure_city_name>Rome</departure_city_name><arrival_airport_iata>TIA</arrival_airport_iata><arrival_name_airport>Rinas Mother Teresa</arrival_name_airport><arrival_coordinates_lon>19.71328</arrival_coordinates_lon><arrival_coordinates_lat>41.419132</arrival_coordinates_lat><arrival_country_code>AL</arrival_country_code><arrival_country_name>Albania</arrival_country_name><arrival_city_code>TIA</arrival_city_code><arrival_city_name>Tirana</arrival_city_name><planes>320</planes><plane_name>Airbus Industrie A320</plane_name></routes><routes><airline_iata>LZ</airline_iata><departure_airport_iata>FLR</departure_airport_iata><departure_name_airport>Peretola</departure_name_airport><departure_coordinates_lon>11.201989</departure_coordinates_lon><departure_coordinates_lat>43.802128</departure_coordinates_lat><departure_country_code>IT</departure_country_code><departure_country_name>Italy</departure_country_name><departure_city_code>FLR</departure_city_code><departure_city_name>Florence</departure_city_name><arrival_airport_iata>TIA</arrival_airport_iata><arrival_name_airport>Rinas Mother Teresa</arrival_name_airport><arrival_coordinates_lon>19.71328</arrival_coordinates_lon><arrival_coordinates_lat>41.419132</arrival_coordinates_lat><arrival_country_code>AL</arrival_country_code><arrival_country_name>Albania</arrival_country_name><arrival_city_code>TIA</arrival_city_code><arrival_city_name>Tirana</arrival_city_name><planes>319</planes><plane_name>Airbus Industrie A319</plane_name></routes><routes><airline_iata>LZ</airline_iata><departure_airport_iata>FRL</departure_airport_iata><departure_name_airport>Luigi Ridolfi</departure_name_airport><departure_coordinates_lon>12.07076</departure_coordinates_lon><departure_coordinates_lat>44.19857</departure_coordinates_lat><departure_country_code>IT</departure_country_code><departure_country_name>Italy</departure_country_name><departure_city_code>FRL</departure_city_code><departure_city_name>Forli</departure_city_name><arrival_airport_iata>TIA</arrival_airport_iata><arrival_name_airport>Rinas Mother Teresa</arrival_name_airport><arrival_coordinates_lon>19.71328</arrival_coordinates_lon><arrival_coordinates_lat>41.419132</arrival_coordinates_lat><arrival_country_code>AL</arrival_country_code><arrival_country_name>Albania</arrival_country_name><arrival_city_code>TIA</arrival_city_code><arrival_city_name>Tirana</arrival_city_name><planes>AT7</planes><plane_name>Aerospatiale/Alenia ATR 72</plane_name></routes><routes><airline_iata>LZ</airline_iata><departure_airport_iata>GOA</departure_airport_iata><departure_name_airport>Cristoforo Colombo</departure_name_airport><departure_coordinates_lon>8.85081</departure_coordinates_lon><departure_coordinates_lat>44.415066</departure_coordinates_lat><departure_country_code>IT</departure_country_code><departure_country_name>Italy</departure_country_name><departure_city_code>GOA</departure_city_code><departure_city_name>Genova</departure_city_name><arrival_airport_iata>TIA</arrival_airport_iata><arrival_name_airport>Rinas Mother Teresa</arrival_name_airport><arrival_coordinates_lon>19.71328</arrival_coordinates_lon><arrival_coordinates_lat>41.419132</arrival_coordinates_lat><arrival_country_code>AL</arrival_country_code><arrival_country_name>Albania</arrival_country_name><arrival_city_code>TIA</arrival_city_code><arrival_city_name>Tirana</arrival_city_name><planes>320</planes><plane_name>Airbus Industrie A320</plane_name></routes><routes><airline_iata>LZ</airline_iata><departure_airport_iata>HER</departure_airport_iata><departure_name_airport>Nikos Kazantzakis Airport</departure_name_airport><departure_coordinates_lon>25.174192</departure_coordinates_lon><departure_coordinates_lat>35.33663</departure_coordinates_lat><departure_country_code>GR</departure_country_code><departure_country_name>Greece</departure_country_name><departure_city_code>HER</departure_city_code><departure_city_name>Heraklion</departure_city_name><arrival_airport_iata>TIA</arrival_airport_iata><arrival_name_airport>Rinas Mother Teresa</arrival_name_airport><arrival_coordinates_lon>19.71328</arrival_coordinates_lon><arrival_coordinates_lat>41.419132</arrival_coordinates_lat><arrival_country_code>AL</arrival_country_code><arrival_country_name>Albania</arrival_country_name><arrival_city_code>TIA</arrival_city_code><arrival_city_name>Tirana</arrival_city_name><planes>735</planes><plane_name>Boeing 737-500</plane_name></routes><routes><airline_iata>LZ</airline_iata><departure_airport_iata>MXP</departure_airport_iata><departure_name_airport>Milano Malpensa</departure_name_airport><departure_coordinates_lon>8.71237</departure_coordinates_lon><departure_coordinates_lat>45.627403</departure_coordinates_lat><departure_country_code>IT</departure_country_code><departure_country_name>Italy</departure_country_name><departure_city_code>MIL</departure_city_code><departure_city_name>Milan</departure_city_name><arrival_airport_iata>TIA</arrival_airport_iata><arrival_name_airport>Rinas Mother Teresa</arrival_name_airport><arrival_coordinates_lon>19.71328</arrival_coordinates_lon><arrival_coordinates_lat>41.419132</arrival_coordinates_lat><arrival_country_code>AL</arrival_country_code><arrival_country_name>Albania</arrival_country_name><arrival_city_code>TIA</arrival_city_code><arrival_city_name>Tirana</arrival_city_name><planes>320</planes><plane_name>Airbus Industrie A320</plane_name></routes><routes><airline_iata>LZ</airline_iata><departure_airport_iata>PEG</departure_airport_iata><departure_name_airport>Sant Egidio</departure_name_airport><departure_coordinates_lon>12.366667</departure_coordinates_lon><departure_coordinates_lat>43.13333</departure_coordinates_lat><departure_country_code>IT</departure_country_code><departure_country_name>Italy</departure_country_name><departure_city_code>PEG</departure_city_code><departure_city_name>Perugia</departure_city_name><arrival_airport_iata>TIA</arrival_airport_iata><arrival_name_airport>Rinas Mother Teresa</arrival_name_airport><arrival_coordinates_lon>19.71328</arrival_coordinates_lon><arrival_coordinates_lat>41.419132</arrival_coordinates_lat><arrival_country_code>AL</arrival_country_code><arrival_country_name>Albania</arrival_country_name><arrival_city_code>TIA</arrival_city_code><arrival_city_name>Tirana</arrival_city_name><planes>AT7</planes><plane_name>Aerospatiale/Alenia ATR 72</plane_name></routes><routes><airline_iata>LZ</airline_iata><departure_airport_iata>PRG</departure_airport_iata><departure_name_airport>Prague Vaclav Havel Airport</departure_name_airport><departure_coordinates_lon>14.266638</departure_coordinates_lon><departure_coordinates_lat>50.10619</departure_coordinates_lat><departure_country_code>CZ</departure_country_code><departure_country_name>Czech Republic</departure_country_name><departure_city_code>PRG</departure_city_code><departure_city_name>Prague</departure_city_name><arrival_airport_iata>TIA</arrival_airport_iata><arrival_name_airport>Rinas Mother Teresa</arrival_name_airport><arrival_coordinates_lon>19.71328</arrival_coordinates_lon><arrival_coordinates_lat>41.419132</arrival_coordinates_lat><arrival_country_code>AL</arrival_country_code><arrival_country_name>Albania</arrival_country_name><arrival_city_code>TIA</arrival_city_code><arrival_city_name>Tirana</arrival_city_name><planes>735</planes><plane_name>Boeing 737-500</plane_name></routes><routes><airline_iata>LZ</airline_iata><departure_airport_iata>PSA</departure_airport_iata><departure_name_airport>Galileo Galilei</departure_name_airport><departure_coordinates_lon>10.399915</departure_coordinates_lon><departure_coordinates_lat>43.69871</departure_coordinates_lat><departure_country_code>IT</departure_country_code><departure_country_name>Italy</departure_country_name><departure_city_code>PSA</departure_city_code><departure_city_name>Pisa</departure_city_name><arrival_airport_iata>TIA</arrival_airport_iata><arrival_name_airport>Rinas Mother Teresa</arrival_name_airport><arrival_coordinates_lon>19.71328</arrival_coordinates_lon><arrival_coordinates_lat>41.419132</arrival_coordinates_lat><arrival_country_code>AL</arrival_country_code><arrival_country_name>Albania</arrival_country_name><arrival_city_code>TIA</arrival_city_code><arrival_city_name>Tirana</arrival_city_name><planes>320</planes><plane_name>Airbus Industrie A320</plane_name></routes><routes><airline_iata>LZ</airline_iata><departure_airport_iata>PSR</departure_airport_iata><departure_name_airport>Liberi</departure_name_airport><departure_coordinates_lon>14.187222</departure_coordinates_lon><departure_coordinates_lat>42.43722</departure_coordinates_lat><departure_country_code>IT</departure_country_code><departure_country_name>Italy</departure_country_name><departure_city_code>PSR</departure_city_code><departure_city_name>Pescara</departure_city_name><arrival_airport_iata>TIA</arrival_airport_iata><arrival_name_airport>Rinas Mother Teresa</arrival_name_airport><arrival_coordinates_lon>19.71328</arrival_coordinates_lon><arrival_coordinates_lat>41.419132</arrival_coordinates_lat><arrival_country_code>AL</arrival_country_code><arrival_country_name>Albania</arrival_country_name><arrival_city_code>TIA</arrival_city_code><arrival_city_name>Tirana</arrival_city_name><planes>AT7</planes><plane_name>Aerospatiale/Alenia ATR 72</plane_name></routes><routes><airline_iata>LZ</airline_iata><departure_airport_iata>RHO</departure_airport_iata><departure_name_airport>Diagoras</departure_name_airport><departure_coordinates_lon>28.090677</departure_coordinates_lon><departure_coordinates_lat>36.401867</departure_coordinates_lat><departure_country_code>GR</departure_country_code><departure_country_name>Greece</departure_country_name><departure_city_code>RHO</departure_city_code><departure_city_name>Rhodes</departure_city_name><arrival_airport_iata>TIA</arrival_airport_iata><arrival_name_airport>Rinas Mother Teresa</arrival_name_airport><arrival_coordinates_lon>19.71328</arrival_coordinates_lon><arrival_coordinates_lat>41.419132</arrival_coordinates_lat><arrival_country_code>AL</arrival_country_code><arrival_country_name>Albania</arrival_country_name><arrival_city_code>TIA</arrival_city_code><arrival_city_name>Tirana</arrival_city_name><planes>319</planes><plane_name>Airbus Industrie A319</plane_name></routes><routes><airline_iata>LZ</airline_iata><departure_airport_iata>RMI</departure_airport_iata><departure_name_airport>Miramare</departure_name_airport><departure_coordinates_lon>12.619594</departure_coordinates_lon><departure_coordinates_lat>44.022953</departure_coordinates_lat><departure_country_code>IT</departure_country_code><departure_country_name>Italy</departure_country_name><departure_city_code>RMI</departure_city_code><departure_city_name>Rimini</departure_city_name><arrival_airport_iata>TIA</arrival_airport_iata><arrival_name_airport>Rinas Mother Teresa</arrival_name_airport><arrival_coordinates_lon>19.71328</arrival_coordinates_lon><arrival_coordinates_lat>41.419132</arrival_coordinates_lat><arrival_country_code>AL</arrival_country_code><arrival_country_name>Albania</arrival_country_name><arrival_city_code>TIA</arrival_city_code><arrival_city_name>Tirana</arrival_city_name><planes>AT7</planes><plane_name>Aerospatiale/Alenia ATR 72</plane_name></routes><routes><airline_iata>LZ</airline_iata><departure_airport_iata>STN</departure_airport_iata><departure_name_airport>Stansted</departure_name_airport><departure_coordinates_lon>0.262703</departure_coordinates_lon><departure_coordinates_lat>51.889267</departure_coordinates_lat><departure_country_code>GB</departure_country_code><departure_country_name>United Kingdom</departure_country_name><departure_city_code>LON</departure_city_code><departure_city_name>London</departure_city_name><arrival_airport_iata>TIA</arrival_airport_iata><arrival_name_airport>Rinas Mother Teresa</arrival_name_airport><arrival_coordinates_lon>19.71328</arrival_coordinates_lon><arrival_coordinates_lat>41.419132</arrival_coordinates_lat><arrival_country_code>AL</arrival_country_code><arrival_country_name>Albania</arrival_country_name><arrival_city_code>TIA</arrival_city_code><arrival_city_name>Tirana</arrival_city_name><planes>320</planes><plane_name>Airbus Industrie A320</plane_name></routes><routes><airline_iata>LZ</airline_iata><departure_airport_iata>TRN</departure_airport_iata><departure_name_airport>Sandro Pertini (caselle)</departure_name_airport><departure_coordinates_lon>7.643049</departure_coordinates_lon><departure_coordinates_lat>45.191456</departure_coordinates_lat><departure_country_code>IT</departure_country_code><departure_country_name>Italy</departure_country_name><departure_city_code>TRN</departure_city_code><departure_city_name>Turin</departure_city_name><arrival_airport_iata>TIA</arrival_airport_iata><arrival_name_airport>Rinas Mother Teresa</arrival_name_airport><arrival_coordinates_lon>19.71328</arrival_coordinates_lon><arrival_coordinates_lat>41.419132</arrival_coordinates_lat><arrival_country_code>AL</arrival_country_code><arrival_country_name>Albania</arrival_country_name><arrival_city_code>TIA</arrival_city_code><arrival_city_name>Tirana</arrival_city_name><planes>319</planes><plane_name>Airbus Industrie A319</plane_name></routes><routes><airline_iata>LZ</airline_iata><departure_airport_iata>TRS</departure_airport_iata><departure_name_airport>Ronchi Dei Legionari</departure_name_airport><departure_coordinates_lon>13.485678</departure_coordinates_lon><departure_coordinates_lat>45.82078</departure_coordinates_lat><departure_country_code>IT</departure_country_code><departure_country_name>Italy</departure_country_name><departure_city_code>TRS</departure_city_code><departure_city_name>Trieste</departure_city_name><arrival_airport_iata>TIA</arrival_airport_iata><arrival_name_airport>Rinas Mother Teresa</arrival_name_airport><arrival_coordinates_lon>19.71328</arrival_coordinates_lon><arrival_coordinates_lat>41.419132</arrival_coordinates_lat><arrival_country_code>AL</arrival_country_code><arrival_country_name>Albania</arrival_country_name><arrival_city_code>TIA</arrival_city_code><arrival_city_name>Tirana</arrival_city_name><planes>AT7</planes><plane_name>Aerospatiale/Alenia ATR 72</plane_name></routes><routes><airline_iata>LZ</airline_iata><departure_airport_iata>VCE</departure_airport_iata><departure_name_airport>Marco Polo</departure_name_airport><departure_coordinates_lon>12.337947</departure_coordinates_lon><departure_coordinates_lat>45.502285</departure_coordinates_lat><departure_country_code>IT</departure_country_code><departure_country_name>Italy</departure_country_name><departure_city_code>VCE</departure_city_code><departure_city_name>Venice</departure_city_name><arrival_airport_iata>TIA</arrival_airport_iata><arrival_name_airport>Rinas Mother Teresa</arrival_name_airport><arrival_coordinates_lon>19.71328</arrival_coordinates_lon><arrival_coordinates_lat>41.419132</arrival_coordinates_lat><arrival_country_code>AL</arrival_country_code><arrival_country_name>Albania</arrival_country_name><arrival_city_code>TIA</arrival_city_code><arrival_city_name>Tirana</arrival_city_name><planes>319</planes><plane_name>Airbus Industrie A319</plane_name></routes><routes><airline_iata>LZ</airline_iata><departure_airport_iata>VIE</departure_airport_iata><departure_name_airport>Vienna International</departure_name_airport><departure_coordinates_lon>16.563583</departure_coordinates_lon><departure_coordinates_lat>48.11972</departure_coordinates_lat><departure_country_code>AT</departure_country_code><departure_country_name>Austria</departure_country_name><departure_city_code>VIE</departure_city_code><departure_city_name>Vienna</departure_city_name><arrival_airport_iata>TIA</arrival_airport_iata><arrival_name_airport>Rinas Mother Teresa</arrival_name_airport><arrival_coordinates_lon>19.71328</arrival_coordinates_lon><arrival_coordinates_lat>41.419132</arrival_coordinates_lat><arrival_country_code>AL</arrival_country_code><arrival_country_name>Albania</arrival_country_name><arrival_city_code>TIA</arrival_city_code><arrival_city_name>Tirana</arrival_city_name><planes>AT7</planes><plane_name>Aerospatiale/Alenia ATR 72</plane_name></routes><routes><airline_iata>LZ</airline_iata><departure_airport_iata>VRN</departure_airport_iata><departure_name_airport>Valerio Catullo</departure_name_airport><departure_coordinates_lon>10.906796</departure_coordinates_lon><departure_coordinates_lat>45.40233</departure_coordinates_lat><departure_country_code>IT</departure_country_code><departure_country_name>Italy</departure_country_name><departure_city_code>VRN</departure_city_code><departure_city_name>Verona</departure_city_name><arrival_airport_iata>TIA</arrival_airport_iata><arrival_name_airport>Rinas Mother Teresa</arrival_name_airport><arrival_coordinates_lon>19.71328</arrival_coordinates_lon><arrival_coordinates_lat>41.419132</arrival_coordinates_lat><arrival_country_code>AL</arrival_country_code><arrival_country_name>Albania</arrival_country_name><arrival_city_code>TIA</arrival_city_code><arrival_city_name>Tirana</arrival_city_name><planes>319</planes><plane_name>Airbus Industrie A319</plane_name></routes><routes><airline_iata>OA</airline_iata><departure_airport_iata>ATH</departure_airport_iata><departure_name_airport>Athens International Airport "Eleftherios Venizelos"</departure_name_airport><departure_coordinates_lon>23.946486</departure_coordinates_lon><departure_coordinates_lat>37.93635</departure_coordinates_lat><departure_country_code>GR</departure_country_code><departure_country_name>Greece</departure_country_name><departure_city_code>ATH</departure_city_code><departure_city_name>Athens</departure_city_name><arrival_airport_iata>TIA</arrival_airport_iata><arrival_name_airport>Rinas Mother Teresa</arrival_name_airport><arrival_coordinates_lon>19.71328</arrival_coordinates_lon><arrival_coordinates_lat>41.419132</arrival_coordinates_lat><arrival_country_code>AL</arrival_country_code><arrival_country_name>Albania</arrival_country_name><arrival_city_code>TIA</arrival_city_code><arrival_city_name>Tirana</arrival_city_name><planes>DH4</planes><plane_name>De Havilland Canada DHC-8-400 Dash 8/8Q</plane_name></routes><routes><airline_iata>OK</airline_iata><departure_airport_iata>PRG</departure_airport_iata><departure_name_airport>Prague Vaclav Havel Airport</departure_name_airport><departure_coordinates_lon>14.266638</departure_coordinates_lon><departure_coordinates_lat>50.10619</departure_coordinates_lat><departure_country_code>CZ</departure_country_code><departure_country_name>Czech Republic</departure_country_name><departure_city_code>PRG</departure_city_code><departure_city_name>Prague</departure_city_name><arrival_airport_iata>TIA</arrival_airport_iata><arrival_name_airport>Rinas Mother Teresa</arrival_name_airport><arrival_coordinates_lon>19.71328</arrival_coordinates_lon><arrival_coordinates_lat>41.419132</arrival_coordinates_lat><arrival_country_code>AL</arrival_country_code><arrival_country_name>Albania</arrival_country_name><arrival_city_code>TIA</arrival_city_code><arrival_city_name>Tirana</arrival_city_name><planes>735</planes><plane_name>Boeing 737-500</plane_name></routes><routes><airline_iata>OS</airline_iata><departure_airport_iata>VIE</departure_airport_iata><departure_name_airport>Vienna International</departure_name_airport><departure_coordinates_lon>16.563583</departure_coordinates_lon><departure_coordinates_lat>48.11972</departure_coordinates_lat><departure_country_code>AT</departure_country_code><departure_country_name>Austria</departure_country_name><departure_city_code>VIE</departure_city_code><departure_city_name>Vienna</departure_city_name><arrival_airport_iata>TIA</arrival_airport_iata><arrival_name_airport>Rinas Mother Teresa</arrival_name_airport><arrival_coordinates_lon>19.71328</arrival_coordinates_lon><arrival_coordinates_lat>41.419132</arrival_coordinates_lat><arrival_country_code>AL</arrival_country_code><arrival_country_name>Albania</arrival_country_name><arrival_city_code>TIA</arrival_city_code><arrival_city_name>Tirana</arrival_city_name><planes>738</planes><plane_name>Boeing 737-800</plane_name></routes><routes><airline_iata>TK</airline_iata><departure_airport_iata>IST</departure_airport_iata><departure_name_airport>Ataturk</departure_name_airport><departure_coordinates_lon>28.815277</departure_coordinates_lon><departure_coordinates_lat>40.976665</departure_coordinates_lat><departure_country_code>TR</departure_country_code><departure_country_name>Turkey</departure_country_name><departure_city_code>IST</departure_city_code><departure_city_name>Istanbul</departure_city_name><arrival_airport_iata>TIA</arrival_airport_iata><arrival_name_airport>Rinas Mother Teresa</arrival_name_airport><arrival_coordinates_lon>19.71328</arrival_coordinates_lon><arrival_coordinates_lat>41.419132</arrival_coordinates_lat><arrival_country_code>AL</arrival_country_code><arrival_country_name>Albania</arrival_country_name><arrival_city_code>TIA</arrival_city_code><arrival_city_name>Tirana</arrival_city_name><planes>319</planes><plane_name>Airbus Industrie A319</plane_name></routes></route>
