<?xml version="1.0" encoding="utf-8"?>
<route><routes><airline_iata>AC</airline_iata><departure_airport_iata>BRU</departure_airport_iata><departure_name_airport>Brussels Airport</departure_name_airport><departure_coordinates_lon>4.483602</departure_coordinates_lon><departure_coordinates_lat>50.89717</departure_coordinates_lat><departure_country_code>BE</departure_country_code><departure_country_name>Belgium</departure_country_name><departure_city_code>BRU</departure_city_code><departure_city_name>Brussels</departure_city_name><arrival_airport_iata>LAD</arrival_airport_iata><arrival_name_airport>4 de Fevereiro</arrival_name_airport><arrival_coordinates_lon>13.234862</arrival_coordinates_lon><arrival_coordinates_lat>-8.847951</arrival_coordinates_lat><arrival_country_code>AO</arrival_country_code><arrival_country_name>Angola</arrival_country_name><arrival_city_code>LAD</arrival_city_code><arrival_city_name>Luanda</arrival_city_name><planes>333</planes><plane_name>Airbus Industrie A330-300</plane_name></routes><routes><airline_iata>AF</airline_iata><departure_airport_iata>CDG</departure_airport_iata><departure_name_airport>Charles De Gaulle</departure_name_airport><departure_coordinates_lon>2.567023</departure_coordinates_lon><departure_coordinates_lat>49.003197</departure_coordinates_lat><departure_country_code>FR</departure_country_code><departure_country_name>France</departure_country_name><departure_city_code>PAR</departure_city_code><departure_city_name>Paris</departure_city_name><arrival_airport_iata>LAD</arrival_airport_iata><arrival_name_airport>4 de Fevereiro</arrival_name_airport><arrival_coordinates_lon>13.234862</arrival_coordinates_lon><arrival_coordinates_lat>-8.847951</arrival_coordinates_lat><arrival_country_code>AO</arrival_country_code><arrival_country_name>Angola</arrival_country_name><arrival_city_code>LAD</arrival_city_code><arrival_city_name>Luanda</arrival_city_name><planes>77W</planes><plane_name>Boeing 777-300ER</plane_name></routes><routes><airline_iata>AT</airline_iata><departure_airport_iata>LBV</departure_airport_iata><departure_name_airport>Libreville</departure_name_airport><departure_coordinates_lon>9.409852</departure_coordinates_lon><departure_coordinates_lat>0.456963</departure_coordinates_lat><departure_country_code>GA</departure_country_code><departure_country_name>Gabon</departure_country_name><departure_city_code>LBV</departure_city_code><departure_city_name>Libreville</departure_city_name><arrival_airport_iata>LAD</arrival_airport_iata><arrival_name_airport>4 de Fevereiro</arrival_name_airport><arrival_coordinates_lon>13.234862</arrival_coordinates_lon><arrival_coordinates_lat>-8.847951</arrival_coordinates_lat><arrival_country_code>AO</arrival_country_code><arrival_country_name>Angola</arrival_country_name><arrival_city_code>LAD</arrival_city_code><arrival_city_name>Luanda</arrival_city_name><planes>738</planes><plane_name>Boeing 737-800</plane_name></routes><routes><airline_iata>BA</airline_iata><departure_airport_iata>LHR</departure_airport_iata><departure_name_airport>Heathrow</departure_name_airport><departure_coordinates_lon>-0.453566</departure_coordinates_lon><departure_coordinates_lat>51.469604</departure_coordinates_lat><departure_country_code>GB</departure_country_code><departure_country_name>United Kingdom</departure_country_name><departure_city_code>LON</departure_city_code><departure_city_name>London</departure_city_name><arrival_airport_iata>LAD</arrival_airport_iata><arrival_name_airport>4 de Fevereiro</arrival_name_airport><arrival_coordinates_lon>13.234862</arrival_coordinates_lon><arrival_coordinates_lat>-8.847951</arrival_coordinates_lat><arrival_country_code>AO</arrival_country_code><arrival_country_name>Angola</arrival_country_name><arrival_city_code>LAD</arrival_city_code><arrival_city_name>Luanda</arrival_city_name><planes>777</planes><plane_name>Boeing 777</plane_name></routes><routes><airline_iata>DT</airline_iata><departure_airport_iata>BZV</departure_airport_iata><departure_name_airport>Maya Maya</departure_name_airport><departure_coordinates_lon>15.251139</departure_coordinates_lon><departure_coordinates_lat>-4.258899</departure_coordinates_lat><departure_country_code>CG</departure_country_code><departure_country_name>Republic of the Congo</departure_country_name><departure_city_code>BZV</departure_city_code><departure_city_name>Brazzaville</departure_city_name><arrival_airport_iata>LAD</arrival_airport_iata><arrival_name_airport>4 de Fevereiro</arrival_name_airport><arrival_coordinates_lon>13.234862</arrival_coordinates_lon><arrival_coordinates_lat>-8.847951</arrival_coordinates_lat><arrival_country_code>AO</arrival_country_code><arrival_country_name>Angola</arrival_country_name><arrival_city_code>LAD</arrival_city_code><arrival_city_name>Luanda</arrival_city_name><planes>73G</planes><plane_name>Boeing 737-700</plane_name></routes><routes><airline_iata>DT</airline_iata><departure_airport_iata>CAB</departure_airport_iata><departure_name_airport>Cabinda</departure_name_airport><departure_coordinates_lon>12.2</departure_coordinates_lon><departure_coordinates_lat>-5.583333</departure_coordinates_lat><departure_country_code>AO</departure_country_code><departure_country_name>Angola</departure_country_name><departure_city_code>CAB</departure_city_code><departure_city_name>Cabinda</departure_city_name><arrival_airport_iata>LAD</arrival_airport_iata><arrival_name_airport>4 de Fevereiro</arrival_name_airport><arrival_coordinates_lon>13.234862</arrival_coordinates_lon><arrival_coordinates_lat>-8.847951</arrival_coordinates_lat><arrival_country_code>AO</arrival_country_code><arrival_country_name>Angola</arrival_country_name><arrival_city_code>LAD</arrival_city_code><arrival_city_name>Luanda</arrival_city_name><planes>732</planes><plane_name>Boeing 737-200</plane_name></routes><routes><airline_iata>DT</airline_iata><departure_airport_iata>CBT</departure_airport_iata><departure_name_airport>Catumbela</departure_name_airport><departure_coordinates_lon>13.483333</departure_coordinates_lon><departure_coordinates_lat>-12.483333</departure_coordinates_lat><departure_country_code>AO</departure_country_code><departure_country_name>Angola</departure_country_name><departure_city_code>CBT</departure_city_code><departure_city_name>Catumbela</departure_city_name><arrival_airport_iata>LAD</arrival_airport_iata><arrival_name_airport>4 de Fevereiro</arrival_name_airport><arrival_coordinates_lon>13.234862</arrival_coordinates_lon><arrival_coordinates_lat>-8.847951</arrival_coordinates_lat><arrival_country_code>AO</arrival_country_code><arrival_country_name>Angola</arrival_country_name><arrival_city_code>LAD</arrival_city_code><arrival_city_name>Luanda</arrival_city_name><planes>732</planes><plane_name>Boeing 737-200</plane_name></routes><routes><airline_iata>DT</airline_iata><departure_airport_iata>CBT</departure_airport_iata><departure_name_airport>Catumbela</departure_name_airport><departure_coordinates_lon>13.483333</departure_coordinates_lon><departure_coordinates_lat>-12.483333</departure_coordinates_lat><departure_country_code>AO</departure_country_code><departure_country_name>Angola</departure_country_name><departure_city_code>CBT</departure_city_code><departure_city_name>Catumbela</departure_city_name><arrival_airport_iata>SDD</arrival_airport_iata><arrival_name_airport>Lubango</arrival_name_airport><arrival_coordinates_lon>13.576667</arrival_coordinates_lon><arrival_coordinates_lat>-14.924444</arrival_coordinates_lat><arrival_country_code>AO</arrival_country_code><arrival_country_name>Angola</arrival_country_name><arrival_city_code>SDD</arrival_city_code><arrival_city_name>Lubango</arrival_city_name><planes>732</planes><plane_name>Boeing 737-200</plane_name></routes><routes><airline_iata>DT</airline_iata><departure_airport_iata>CBT</departure_airport_iata><departure_name_airport>Catumbela</departure_name_airport><departure_coordinates_lon>13.483333</departure_coordinates_lon><departure_coordinates_lat>-12.483333</departure_coordinates_lat><departure_country_code>AO</departure_country_code><departure_country_name>Angola</departure_country_name><departure_city_code>CBT</departure_city_code><departure_city_name>Catumbela</departure_city_name><arrival_airport_iata>VPE</arrival_airport_iata><arrival_name_airport>Ondjiva</arrival_name_airport><arrival_coordinates_lon>15.7</arrival_coordinates_lon><arrival_coordinates_lat>-17.05</arrival_coordinates_lat><arrival_country_code>AO</arrival_country_code><arrival_country_name>Angola</arrival_country_name><arrival_city_code>VPE</arrival_city_code><arrival_city_name>Ondjiva</arrival_city_name><planes>73G</planes><plane_name>Boeing 737-700</plane_name></routes><routes><airline_iata>DT</airline_iata><departure_airport_iata>CPT</departure_airport_iata><departure_name_airport>Cape Town International</departure_name_airport><departure_coordinates_lon>18.596489</departure_coordinates_lon><departure_coordinates_lat>-33.968906</departure_coordinates_lat><departure_country_code>ZA</departure_country_code><departure_country_name>South Africa</departure_country_name><departure_city_code>CPT</departure_city_code><departure_city_name>Cape Town</departure_city_name><arrival_airport_iata>LAD</arrival_airport_iata><arrival_name_airport>4 de Fevereiro</arrival_name_airport><arrival_coordinates_lon>13.234862</arrival_coordinates_lon><arrival_coordinates_lat>-8.847951</arrival_coordinates_lat><arrival_country_code>AO</arrival_country_code><arrival_country_name>Angola</arrival_country_name><arrival_city_code>LAD</arrival_city_code><arrival_city_name>Luanda</arrival_city_name><planes>73G</planes><plane_name>Boeing 737-700</plane_name></routes><routes><airline_iata>DT</airline_iata><departure_airport_iata>DXB</departure_airport_iata><departure_name_airport>Dubai</departure_name_airport><departure_coordinates_lon>55.352917</departure_coordinates_lon><departure_coordinates_lat>25.248665</departure_coordinates_lat><departure_country_code>AE</departure_country_code><departure_country_name>United Arab Emirates</departure_country_name><departure_city_code>DXB</departure_city_code><departure_city_name>Dubai</departure_city_name><arrival_airport_iata>LAD</arrival_airport_iata><arrival_name_airport>4 de Fevereiro</arrival_name_airport><arrival_coordinates_lon>13.234862</arrival_coordinates_lon><arrival_coordinates_lat>-8.847951</arrival_coordinates_lat><arrival_country_code>AO</arrival_country_code><arrival_country_name>Angola</arrival_country_name><arrival_city_code>LAD</arrival_city_code><arrival_city_name>Luanda</arrival_city_name><planes>772</planes><plane_name>Boeing 777-200/200ER</plane_name></routes><routes><airline_iata>DT</airline_iata><departure_airport_iata>GIG</departure_airport_iata><departure_name_airport>Galeao Antonio Carlos Jobim</departure_name_airport><departure_coordinates_lon>-43.24651</departure_coordinates_lon><departure_coordinates_lat>-22.814653</departure_coordinates_lat><departure_country_code>BR</departure_country_code><departure_country_name>Brazil</departure_country_name><departure_city_code>RIO</departure_city_code><departure_city_name>Rio de Janeiro</departure_city_name><arrival_airport_iata>LAD</arrival_airport_iata><arrival_name_airport>4 de Fevereiro</arrival_name_airport><arrival_coordinates_lon>13.234862</arrival_coordinates_lon><arrival_coordinates_lat>-8.847951</arrival_coordinates_lat><arrival_country_code>AO</arrival_country_code><arrival_country_name>Angola</arrival_country_name><arrival_city_code>LAD</arrival_city_code><arrival_city_name>Luanda</arrival_city_name><planes>77W</planes><plane_name>Boeing 777-300ER</plane_name></routes><routes><airline_iata>DT</airline_iata><departure_airport_iata>GRU</departure_airport_iata><departure_name_airport>Aeroporto Internacional Guarulhos</departure_name_airport><departure_coordinates_lon>-46.481926</departure_coordinates_lon><departure_coordinates_lat>-23.425669</departure_coordinates_lat><departure_country_code>BR</departure_country_code><departure_country_name>Brazil</departure_country_name><departure_city_code>SAO</departure_city_code><departure_city_name>Sao Paulo</departure_city_name><arrival_airport_iata>LAD</arrival_airport_iata><arrival_name_airport>4 de Fevereiro</arrival_name_airport><arrival_coordinates_lon>13.234862</arrival_coordinates_lon><arrival_coordinates_lat>-8.847951</arrival_coordinates_lat><arrival_country_code>AO</arrival_country_code><arrival_country_name>Angola</arrival_country_name><arrival_city_code>LAD</arrival_city_code><arrival_city_name>Luanda</arrival_city_name><planes>77W</planes><plane_name>Boeing 777-300ER</plane_name></routes><routes><airline_iata>DT</airline_iata><departure_airport_iata>HAV</departure_airport_iata><departure_name_airport>Jose Marti International</departure_name_airport><departure_coordinates_lon>-82.40818</departure_coordinates_lon><departure_coordinates_lat>22.99845</departure_coordinates_lat><departure_country_code>CU</departure_country_code><departure_country_name>Cuba</departure_country_name><departure_city_code>HAV</departure_city_code><departure_city_name>Havana</departure_city_name><arrival_airport_iata>LAD</arrival_airport_iata><arrival_name_airport>4 de Fevereiro</arrival_name_airport><arrival_coordinates_lon>13.234862</arrival_coordinates_lon><arrival_coordinates_lat>-8.847951</arrival_coordinates_lat><arrival_country_code>AO</arrival_country_code><arrival_country_name>Angola</arrival_country_name><arrival_city_code>LAD</arrival_city_code><arrival_city_name>Luanda</arrival_city_name><planes>772</planes><plane_name>Boeing 777-200/200ER</plane_name></routes><routes><airline_iata>DT</airline_iata><departure_airport_iata>JNB</departure_airport_iata><departure_name_airport>Oliver Reginald Tambo International (Jan Smuts International)</departure_name_airport><departure_coordinates_lon>28.231314</departure_coordinates_lon><departure_coordinates_lat>-26.132664</departure_coordinates_lat><departure_country_code>ZA</departure_country_code><departure_country_name>South Africa</departure_country_name><departure_city_code>JNB</departure_city_code><departure_city_name>Johannesburg</departure_city_name><arrival_airport_iata>LAD</arrival_airport_iata><arrival_name_airport>4 de Fevereiro</arrival_name_airport><arrival_coordinates_lon>13.234862</arrival_coordinates_lon><arrival_coordinates_lat>-8.847951</arrival_coordinates_lat><arrival_country_code>AO</arrival_country_code><arrival_country_name>Angola</arrival_country_name><arrival_city_code>LAD</arrival_city_code><arrival_city_name>Luanda</arrival_city_name><planes>772</planes><plane_name>Boeing 777-200/200ER</plane_name></routes><routes><airline_iata>DT</airline_iata><departure_airport_iata>LAD</departure_airport_iata><departure_name_airport>4 de Fevereiro</departure_name_airport><departure_coordinates_lon>13.234862</departure_coordinates_lon><departure_coordinates_lat>-8.847951</departure_coordinates_lat><departure_country_code>AO</departure_country_code><departure_country_name>Angola</departure_country_name><departure_city_code>LAD</departure_city_code><departure_city_name>Luanda</departure_city_name><arrival_airport_iata>CAB</arrival_airport_iata><arrival_name_airport>Cabinda</arrival_name_airport><arrival_coordinates_lon>12.2</arrival_coordinates_lon><arrival_coordinates_lat>-5.583333</arrival_coordinates_lat><arrival_country_code>AO</arrival_country_code><arrival_country_name>Angola</arrival_country_name><arrival_city_code>CAB</arrival_city_code><arrival_city_name>Cabinda</arrival_city_name><planes>732</planes><plane_name>Boeing 737-200</plane_name></routes><routes><airline_iata>DT</airline_iata><departure_airport_iata>LAD</departure_airport_iata><departure_name_airport>4 de Fevereiro</departure_name_airport><departure_coordinates_lon>13.234862</departure_coordinates_lon><departure_coordinates_lat>-8.847951</departure_coordinates_lat><departure_country_code>AO</departure_country_code><departure_country_name>Angola</departure_country_name><departure_city_code>LAD</departure_city_code><departure_city_name>Luanda</departure_city_name><arrival_airport_iata>CBT</arrival_airport_iata><arrival_name_airport>Catumbela</arrival_name_airport><arrival_coordinates_lon>13.483333</arrival_coordinates_lon><arrival_coordinates_lat>-12.483333</arrival_coordinates_lat><arrival_country_code>AO</arrival_country_code><arrival_country_name>Angola</arrival_country_name><arrival_city_code>CBT</arrival_city_code><arrival_city_name>Catumbela</arrival_city_name><planes>73G</planes><plane_name>Boeing 737-700</plane_name></routes><routes><airline_iata>DT</airline_iata><departure_airport_iata>LAD</departure_airport_iata><departure_name_airport>4 de Fevereiro</departure_name_airport><departure_coordinates_lon>13.234862</departure_coordinates_lon><departure_coordinates_lat>-8.847951</departure_coordinates_lat><departure_country_code>AO</departure_country_code><departure_country_name>Angola</departure_country_name><departure_city_code>LAD</departure_city_code><departure_city_name>Luanda</departure_city_name><arrival_airport_iata>LUO</arrival_airport_iata><arrival_name_airport>Luena</arrival_name_airport><arrival_coordinates_lon>20.166668</arrival_coordinates_lon><arrival_coordinates_lat>-11.5</arrival_coordinates_lat><arrival_country_code>AO</arrival_country_code><arrival_country_name>Angola</arrival_country_name><arrival_city_code>LUO</arrival_city_code><arrival_city_name>Luena</arrival_city_name><planes>73G</planes><plane_name>Boeing 737-700</plane_name></routes><routes><airline_iata>DT</airline_iata><departure_airport_iata>LAD</departure_airport_iata><departure_name_airport>4 de Fevereiro</departure_name_airport><departure_coordinates_lon>13.234862</departure_coordinates_lon><departure_coordinates_lat>-8.847951</departure_coordinates_lat><departure_country_code>AO</departure_country_code><departure_country_name>Angola</departure_country_name><departure_city_code>LAD</departure_city_code><departure_city_name>Luanda</departure_city_name><arrival_airport_iata>MEG</arrival_airport_iata><arrival_name_airport>Malange</arrival_name_airport><arrival_coordinates_lon>16.333332</arrival_coordinates_lon><arrival_coordinates_lat>-9.533333</arrival_coordinates_lat><arrival_country_code>AO</arrival_country_code><arrival_country_name>Angola</arrival_country_name><arrival_city_code>MEG</arrival_city_code><arrival_city_name>Melanje</arrival_city_name><planes>732</planes><plane_name>Boeing 737-200</plane_name></routes><routes><airline_iata>DT</airline_iata><departure_airport_iata>LAD</departure_airport_iata><departure_name_airport>4 de Fevereiro</departure_name_airport><departure_coordinates_lon>13.234862</departure_coordinates_lon><departure_coordinates_lat>-8.847951</departure_coordinates_lat><departure_country_code>AO</departure_country_code><departure_country_name>Angola</departure_country_name><departure_city_code>LAD</departure_city_code><departure_city_name>Luanda</departure_city_name><arrival_airport_iata>MSZ</arrival_airport_iata><arrival_name_airport>Namibe</arrival_name_airport><arrival_coordinates_lon>12.160833</arrival_coordinates_lon><arrival_coordinates_lat>-15.208611</arrival_coordinates_lat><arrival_country_code>AO</arrival_country_code><arrival_country_name>Angola</arrival_country_name><arrival_city_code>MSZ</arrival_city_code><arrival_city_name>Namibe</arrival_city_name><planes>73G</planes><plane_name>Boeing 737-700</plane_name></routes><routes><airline_iata>DT</airline_iata><departure_airport_iata>LAD</departure_airport_iata><departure_name_airport>4 de Fevereiro</departure_name_airport><departure_coordinates_lon>13.234862</departure_coordinates_lon><departure_coordinates_lat>-8.847951</departure_coordinates_lat><departure_country_code>AO</departure_country_code><departure_country_name>Angola</departure_country_name><departure_city_code>LAD</departure_city_code><departure_city_name>Luanda</departure_city_name><arrival_airport_iata>NOV</arrival_airport_iata><arrival_name_airport>Huambo</arrival_name_airport><arrival_coordinates_lon>15.757222</arrival_coordinates_lon><arrival_coordinates_lat>-12.805556</arrival_coordinates_lat><arrival_country_code>AO</arrival_country_code><arrival_country_name>Angola</arrival_country_name><arrival_city_code>NOV</arrival_city_code><arrival_city_name>Huambo</arrival_city_name><planes>732</planes><plane_name>Boeing 737-200</plane_name></routes><routes><airline_iata>DT</airline_iata><departure_airport_iata>LAD</departure_airport_iata><departure_name_airport>4 de Fevereiro</departure_name_airport><departure_coordinates_lon>13.234862</departure_coordinates_lon><departure_coordinates_lat>-8.847951</departure_coordinates_lat><departure_country_code>AO</departure_country_code><departure_country_name>Angola</departure_country_name><departure_city_code>LAD</departure_city_code><departure_city_name>Luanda</departure_city_name><arrival_airport_iata>SDD</arrival_airport_iata><arrival_name_airport>Lubango</arrival_name_airport><arrival_coordinates_lon>13.576667</arrival_coordinates_lon><arrival_coordinates_lat>-14.924444</arrival_coordinates_lat><arrival_country_code>AO</arrival_country_code><arrival_country_name>Angola</arrival_country_name><arrival_city_code>SDD</arrival_city_code><arrival_city_name>Lubango</arrival_city_name><planes>732</planes><plane_name>Boeing 737-200</plane_name></routes><routes><airline_iata>DT</airline_iata><departure_airport_iata>LAD</departure_airport_iata><departure_name_airport>4 de Fevereiro</departure_name_airport><departure_coordinates_lon>13.234862</departure_coordinates_lon><departure_coordinates_lat>-8.847951</departure_coordinates_lat><departure_country_code>AO</departure_country_code><departure_country_name>Angola</departure_country_name><departure_city_code>LAD</departure_city_code><departure_city_name>Luanda</departure_city_name><arrival_airport_iata>SVP</arrival_airport_iata><arrival_name_airport>Kuito (Silva Porto)</arrival_name_airport><arrival_coordinates_lon>16.956667</arrival_coordinates_lon><arrival_coordinates_lat>-12.404167</arrival_coordinates_lat><arrival_country_code>AO</arrival_country_code><arrival_country_name>Angola</arrival_country_name><arrival_city_code>SVP</arrival_city_code><arrival_city_name>Kuito</arrival_city_name><planes>73G</planes><plane_name>Boeing 737-700</plane_name></routes><routes><airline_iata>DT</airline_iata><departure_airport_iata>LAD</departure_airport_iata><departure_name_airport>4 de Fevereiro</departure_name_airport><departure_coordinates_lon>13.234862</departure_coordinates_lon><departure_coordinates_lat>-8.847951</departure_coordinates_lat><departure_country_code>AO</departure_country_code><departure_country_name>Angola</departure_country_name><departure_city_code>LAD</departure_city_code><departure_city_name>Luanda</departure_city_name><arrival_airport_iata>VHC</arrival_airport_iata><arrival_name_airport>Saurimo</arrival_name_airport><arrival_coordinates_lon>20.55</arrival_coordinates_lon><arrival_coordinates_lat>-9.75</arrival_coordinates_lat><arrival_country_code>AO</arrival_country_code><arrival_country_name>Angola</arrival_country_name><arrival_city_code>VHC</arrival_city_code><arrival_city_name>Saurimo</arrival_city_name><planes>73G</planes><plane_name>Boeing 737-700</plane_name></routes><routes><airline_iata>DT</airline_iata><departure_airport_iata>LAD</departure_airport_iata><departure_name_airport>4 de Fevereiro</departure_name_airport><departure_coordinates_lon>13.234862</departure_coordinates_lon><departure_coordinates_lat>-8.847951</departure_coordinates_lat><departure_country_code>AO</departure_country_code><departure_country_name>Angola</departure_country_name><departure_city_code>LAD</departure_city_code><departure_city_name>Luanda</departure_city_name><arrival_airport_iata>VPE</arrival_airport_iata><arrival_name_airport>Ondjiva</arrival_name_airport><arrival_coordinates_lon>15.7</arrival_coordinates_lon><arrival_coordinates_lat>-17.05</arrival_coordinates_lat><arrival_country_code>AO</arrival_country_code><arrival_country_name>Angola</arrival_country_name><arrival_city_code>VPE</arrival_city_code><arrival_city_name>Ondjiva</arrival_city_name><planes>73G</planes><plane_name>Boeing 737-700</plane_name></routes><routes><airline_iata>DT</airline_iata><departure_airport_iata>LIS</departure_airport_iata><departure_name_airport>Lisbon Portela</departure_name_airport><departure_coordinates_lon>-9.128165</departure_coordinates_lon><departure_coordinates_lat>38.770042</departure_coordinates_lat><departure_country_code>PT</departure_country_code><departure_country_name>Portugal</departure_country_name><departure_city_code>LIS</departure_city_code><departure_city_name>Lisbon</departure_city_name><arrival_airport_iata>LAD</arrival_airport_iata><arrival_name_airport>4 de Fevereiro</arrival_name_airport><arrival_coordinates_lon>13.234862</arrival_coordinates_lon><arrival_coordinates_lat>-8.847951</arrival_coordinates_lat><arrival_country_code>AO</arrival_country_code><arrival_country_name>Angola</arrival_country_name><arrival_city_code>LAD</arrival_city_code><arrival_city_name>Luanda</arrival_city_name><planes>772</planes><plane_name>Boeing 777-200/200ER</plane_name></routes><routes><airline_iata>DT</airline_iata><departure_airport_iata>LUN</departure_airport_iata><departure_name_airport>Lusaka</departure_name_airport><departure_coordinates_lon>28.445747</departure_coordinates_lon><departure_coordinates_lat>-15.325017</departure_coordinates_lat><departure_country_code>ZM</departure_country_code><departure_country_name>Zambia</departure_country_name><departure_city_code>LUN</departure_city_code><departure_city_name>Lusaka</departure_city_name><arrival_airport_iata>LAD</arrival_airport_iata><arrival_name_airport>4 de Fevereiro</arrival_name_airport><arrival_coordinates_lon>13.234862</arrival_coordinates_lon><arrival_coordinates_lat>-8.847951</arrival_coordinates_lat><arrival_country_code>AO</arrival_country_code><arrival_country_name>Angola</arrival_country_name><arrival_city_code>LAD</arrival_city_code><arrival_city_name>Luanda</arrival_city_name><planes>73G</planes><plane_name>Boeing 737-700</plane_name></routes><routes><airline_iata>DT</airline_iata><departure_airport_iata>LUO</departure_airport_iata><departure_name_airport>Luena</departure_name_airport><departure_coordinates_lon>20.166668</departure_coordinates_lon><departure_coordinates_lat>-11.5</departure_coordinates_lat><departure_country_code>AO</departure_country_code><departure_country_name>Angola</departure_country_name><departure_city_code>LUO</departure_city_code><departure_city_name>Luena</departure_city_name><arrival_airport_iata>LAD</arrival_airport_iata><arrival_name_airport>4 de Fevereiro</arrival_name_airport><arrival_coordinates_lon>13.234862</arrival_coordinates_lon><arrival_coordinates_lat>-8.847951</arrival_coordinates_lat><arrival_country_code>AO</arrival_country_code><arrival_country_name>Angola</arrival_country_name><arrival_city_code>LAD</arrival_city_code><arrival_city_name>Luanda</arrival_city_name><planes>73G</planes><plane_name>Boeing 737-700</plane_name></routes><routes><airline_iata>DT</airline_iata><departure_airport_iata>MEG</departure_airport_iata><departure_name_airport>Malange</departure_name_airport><departure_coordinates_lon>16.333332</departure_coordinates_lon><departure_coordinates_lat>-9.533333</departure_coordinates_lat><departure_country_code>AO</departure_country_code><departure_country_name>Angola</departure_country_name><departure_city_code>MEG</departure_city_code><departure_city_name>Melanje</departure_city_name><arrival_airport_iata>LAD</arrival_airport_iata><arrival_name_airport>4 de Fevereiro</arrival_name_airport><arrival_coordinates_lon>13.234862</arrival_coordinates_lon><arrival_coordinates_lat>-8.847951</arrival_coordinates_lat><arrival_country_code>AO</arrival_country_code><arrival_country_name>Angola</arrival_country_name><arrival_city_code>LAD</arrival_city_code><arrival_city_name>Luanda</arrival_city_name><planes>73G</planes><plane_name>Boeing 737-700</plane_name></routes><routes><airline_iata>DT</airline_iata><departure_airport_iata>MEG</departure_airport_iata><departure_name_airport>Malange</departure_name_airport><departure_coordinates_lon>16.333332</departure_coordinates_lon><departure_coordinates_lat>-9.533333</departure_coordinates_lat><departure_country_code>AO</departure_country_code><departure_country_name>Angola</departure_country_name><departure_city_code>MEG</departure_city_code><departure_city_name>Melanje</departure_city_name><arrival_airport_iata>VHC</arrival_airport_iata><arrival_name_airport>Saurimo</arrival_name_airport><arrival_coordinates_lon>20.55</arrival_coordinates_lon><arrival_coordinates_lat>-9.75</arrival_coordinates_lat><arrival_country_code>AO</arrival_country_code><arrival_country_name>Angola</arrival_country_name><arrival_city_code>VHC</arrival_city_code><arrival_city_name>Saurimo</arrival_city_name><planes>732</planes><plane_name>Boeing 737-200</plane_name></routes><routes><airline_iata>DT</airline_iata><departure_airport_iata>MSZ</departure_airport_iata><departure_name_airport>Namibe</departure_name_airport><departure_coordinates_lon>12.160833</departure_coordinates_lon><departure_coordinates_lat>-15.208611</departure_coordinates_lat><departure_country_code>AO</departure_country_code><departure_country_name>Angola</departure_country_name><departure_city_code>MSZ</departure_city_code><departure_city_name>Namibe</departure_city_name><arrival_airport_iata>LAD</arrival_airport_iata><arrival_name_airport>4 de Fevereiro</arrival_name_airport><arrival_coordinates_lon>13.234862</arrival_coordinates_lon><arrival_coordinates_lat>-8.847951</arrival_coordinates_lat><arrival_country_code>AO</arrival_country_code><arrival_country_name>Angola</arrival_country_name><arrival_city_code>LAD</arrival_city_code><arrival_city_name>Luanda</arrival_city_name><planes>73G</planes><plane_name>Boeing 737-700</plane_name></routes><routes><airline_iata>DT</airline_iata><departure_airport_iata>NOV</departure_airport_iata><departure_name_airport>Huambo</departure_name_airport><departure_coordinates_lon>15.757222</departure_coordinates_lon><departure_coordinates_lat>-12.805556</departure_coordinates_lat><departure_country_code>AO</departure_country_code><departure_country_name>Angola</departure_country_name><departure_city_code>NOV</departure_city_code><departure_city_name>Huambo</departure_city_name><arrival_airport_iata>LAD</arrival_airport_iata><arrival_name_airport>4 de Fevereiro</arrival_name_airport><arrival_coordinates_lon>13.234862</arrival_coordinates_lon><arrival_coordinates_lat>-8.847951</arrival_coordinates_lat><arrival_country_code>AO</arrival_country_code><arrival_country_name>Angola</arrival_country_name><arrival_city_code>LAD</arrival_city_code><arrival_city_name>Luanda</arrival_city_name><planes>732</planes><plane_name>Boeing 737-200</plane_name></routes><routes><airline_iata>DT</airline_iata><departure_airport_iata>NOV</departure_airport_iata><departure_name_airport>Huambo</departure_name_airport><departure_coordinates_lon>15.757222</departure_coordinates_lon><departure_coordinates_lat>-12.805556</departure_coordinates_lat><departure_country_code>AO</departure_country_code><departure_country_name>Angola</departure_country_name><departure_city_code>NOV</departure_city_code><departure_city_name>Huambo</departure_city_name><arrival_airport_iata>VPE</arrival_airport_iata><arrival_name_airport>Ondjiva</arrival_name_airport><arrival_coordinates_lon>15.7</arrival_coordinates_lon><arrival_coordinates_lat>-17.05</arrival_coordinates_lat><arrival_country_code>AO</arrival_country_code><arrival_country_name>Angola</arrival_country_name><arrival_city_code>VPE</arrival_city_code><arrival_city_name>Ondjiva</arrival_city_name><planes>73G</planes><plane_name>Boeing 737-700</plane_name></routes><routes><airline_iata>DT</airline_iata><departure_airport_iata>OPO</departure_airport_iata><departure_name_airport>Francisco SÃ¡ Carneiro</departure_name_airport><departure_coordinates_lon>-8.670272</departure_coordinates_lon><departure_coordinates_lat>41.237774</departure_coordinates_lat><departure_country_code>PT</departure_country_code><departure_country_name>Portugal</departure_country_name><departure_city_code>OPO</departure_city_code><departure_city_name>Porto</departure_city_name><arrival_airport_iata>LAD</arrival_airport_iata><arrival_name_airport>4 de Fevereiro</arrival_name_airport><arrival_coordinates_lon>13.234862</arrival_coordinates_lon><arrival_coordinates_lat>-8.847951</arrival_coordinates_lat><arrival_country_code>AO</arrival_country_code><arrival_country_name>Angola</arrival_country_name><arrival_city_code>LAD</arrival_city_code><arrival_city_name>Luanda</arrival_city_name><planes>772</planes><plane_name>Boeing 777-200/200ER</plane_name></routes><routes><airline_iata>DT</airline_iata><departure_airport_iata>PEK</departure_airport_iata><departure_name_airport>Beijing Capital International</departure_name_airport><departure_coordinates_lon>116.5871</departure_coordinates_lon><departure_coordinates_lat>40.078537</departure_coordinates_lat><departure_country_code>CN</departure_country_code><departure_country_name>China</departure_country_name><departure_city_code>BJS</departure_city_code><departure_city_name>Beijing</departure_city_name><arrival_airport_iata>LAD</arrival_airport_iata><arrival_name_airport>4 de Fevereiro</arrival_name_airport><arrival_coordinates_lon>13.234862</arrival_coordinates_lon><arrival_coordinates_lat>-8.847951</arrival_coordinates_lat><arrival_country_code>AO</arrival_country_code><arrival_country_name>Angola</arrival_country_name><arrival_city_code>LAD</arrival_city_code><arrival_city_name>Luanda</arrival_city_name><planes>772</planes><plane_name>Boeing 777-200/200ER</plane_name></routes><routes><airline_iata>DT</airline_iata><departure_airport_iata>SDD</departure_airport_iata><departure_name_airport>Lubango</departure_name_airport><departure_coordinates_lon>13.576667</departure_coordinates_lon><departure_coordinates_lat>-14.924444</departure_coordinates_lat><departure_country_code>AO</departure_country_code><departure_country_name>Angola</departure_country_name><departure_city_code>SDD</departure_city_code><departure_city_name>Lubango</departure_city_name><arrival_airport_iata>CBT</arrival_airport_iata><arrival_name_airport>Catumbela</arrival_name_airport><arrival_coordinates_lon>13.483333</arrival_coordinates_lon><arrival_coordinates_lat>-12.483333</arrival_coordinates_lat><arrival_country_code>AO</arrival_country_code><arrival_country_name>Angola</arrival_country_name><arrival_city_code>CBT</arrival_city_code><arrival_city_name>Catumbela</arrival_city_name><planes>732</planes><plane_name>Boeing 737-200</plane_name></routes><routes><airline_iata>DT</airline_iata><departure_airport_iata>SDD</departure_airport_iata><departure_name_airport>Lubango</departure_name_airport><departure_coordinates_lon>13.576667</departure_coordinates_lon><departure_coordinates_lat>-14.924444</departure_coordinates_lat><departure_country_code>AO</departure_country_code><departure_country_name>Angola</departure_country_name><departure_city_code>SDD</departure_city_code><departure_city_name>Lubango</departure_city_name><arrival_airport_iata>LAD</arrival_airport_iata><arrival_name_airport>4 de Fevereiro</arrival_name_airport><arrival_coordinates_lon>13.234862</arrival_coordinates_lon><arrival_coordinates_lat>-8.847951</arrival_coordinates_lat><arrival_country_code>AO</arrival_country_code><arrival_country_name>Angola</arrival_country_name><arrival_city_code>LAD</arrival_city_code><arrival_city_name>Luanda</arrival_city_name><planes>73G</planes><plane_name>Boeing 737-700</plane_name></routes><routes><airline_iata>DT</airline_iata><departure_airport_iata>SDD</departure_airport_iata><departure_name_airport>Lubango</departure_name_airport><departure_coordinates_lon>13.576667</departure_coordinates_lon><departure_coordinates_lat>-14.924444</departure_coordinates_lat><departure_country_code>AO</departure_country_code><departure_country_name>Angola</departure_country_name><departure_city_code>SDD</departure_city_code><departure_city_name>Lubango</departure_city_name><arrival_airport_iata>VPE</arrival_airport_iata><arrival_name_airport>Ondjiva</arrival_name_airport><arrival_coordinates_lon>15.7</arrival_coordinates_lon><arrival_coordinates_lat>-17.05</arrival_coordinates_lat><arrival_country_code>AO</arrival_country_code><arrival_country_name>Angola</arrival_country_name><arrival_city_code>VPE</arrival_city_code><arrival_city_name>Ondjiva</arrival_city_name><planes>73G</planes><plane_name>Boeing 737-700</plane_name></routes><routes><airline_iata>DT</airline_iata><departure_airport_iata>SPP</departure_airport_iata><departure_name_airport>Menongue</departure_name_airport><departure_coordinates_lon>17.725555</departure_coordinates_lon><departure_coordinates_lat>-14.6375</departure_coordinates_lat><departure_country_code>AO</departure_country_code><departure_country_name>Angola</departure_country_name><departure_city_code>SPP</departure_city_code><departure_city_name>Menongue</departure_city_name><arrival_airport_iata>LAD</arrival_airport_iata><arrival_name_airport>4 de Fevereiro</arrival_name_airport><arrival_coordinates_lon>13.234862</arrival_coordinates_lon><arrival_coordinates_lat>-8.847951</arrival_coordinates_lat><arrival_country_code>AO</arrival_country_code><arrival_country_name>Angola</arrival_country_name><arrival_city_code>LAD</arrival_city_code><arrival_city_name>Luanda</arrival_city_name><planes>732</planes><plane_name>Boeing 737-200</plane_name></routes><routes><airline_iata>DT</airline_iata><departure_airport_iata>SVP</departure_airport_iata><departure_name_airport>Kuito (Silva Porto)</departure_name_airport><departure_coordinates_lon>16.956667</departure_coordinates_lon><departure_coordinates_lat>-12.404167</departure_coordinates_lat><departure_country_code>AO</departure_country_code><departure_country_name>Angola</departure_country_name><departure_city_code>SVP</departure_city_code><departure_city_name>Kuito</departure_city_name><arrival_airport_iata>LAD</arrival_airport_iata><arrival_name_airport>4 de Fevereiro</arrival_name_airport><arrival_coordinates_lon>13.234862</arrival_coordinates_lon><arrival_coordinates_lat>-8.847951</arrival_coordinates_lat><arrival_country_code>AO</arrival_country_code><arrival_country_name>Angola</arrival_country_name><arrival_city_code>LAD</arrival_city_code><arrival_city_name>Luanda</arrival_city_name><planes>732</planes><plane_name>Boeing 737-200</plane_name></routes><routes><airline_iata>DT</airline_iata><departure_airport_iata>SVP</departure_airport_iata><departure_name_airport>Kuito (Silva Porto)</departure_name_airport><departure_coordinates_lon>16.956667</departure_coordinates_lon><departure_coordinates_lat>-12.404167</departure_coordinates_lat><departure_country_code>AO</departure_country_code><departure_country_name>Angola</departure_country_name><departure_city_code>SVP</departure_city_code><departure_city_name>Kuito</departure_city_name><arrival_airport_iata>VPE</arrival_airport_iata><arrival_name_airport>Ondjiva</arrival_name_airport><arrival_coordinates_lon>15.7</arrival_coordinates_lon><arrival_coordinates_lat>-17.05</arrival_coordinates_lat><arrival_country_code>AO</arrival_country_code><arrival_country_name>Angola</arrival_country_name><arrival_city_code>VPE</arrival_city_code><arrival_city_name>Ondjiva</arrival_city_name><planes>73G</planes><plane_name>Boeing 737-700</plane_name></routes><routes><airline_iata>DT</airline_iata><departure_airport_iata>TMS</departure_airport_iata><departure_name_airport>Sao Tome Island</departure_name_airport><departure_coordinates_lon>6.725</departure_coordinates_lon><departure_coordinates_lat>0.378333</departure_coordinates_lat><departure_country_code>ST</departure_country_code><departure_country_name>Sao Tome and Principe</departure_country_name><departure_city_code>TMS</departure_city_code><departure_city_name>Sao Tome Island</departure_city_name><arrival_airport_iata>LAD</arrival_airport_iata><arrival_name_airport>4 de Fevereiro</arrival_name_airport><arrival_coordinates_lon>13.234862</arrival_coordinates_lon><arrival_coordinates_lat>-8.847951</arrival_coordinates_lat><arrival_country_code>AO</arrival_country_code><arrival_country_name>Angola</arrival_country_name><arrival_city_code>LAD</arrival_city_code><arrival_city_name>Luanda</arrival_city_name><planes>73G</planes><plane_name>Boeing 737-700</plane_name></routes><routes><airline_iata>DT</airline_iata><departure_airport_iata>VHC</departure_airport_iata><departure_name_airport>Saurimo</departure_name_airport><departure_coordinates_lon>20.55</departure_coordinates_lon><departure_coordinates_lat>-9.75</departure_coordinates_lat><departure_country_code>AO</departure_country_code><departure_country_name>Angola</departure_country_name><departure_city_code>VHC</departure_city_code><departure_city_name>Saurimo</departure_city_name><arrival_airport_iata>LAD</arrival_airport_iata><arrival_name_airport>4 de Fevereiro</arrival_name_airport><arrival_coordinates_lon>13.234862</arrival_coordinates_lon><arrival_coordinates_lat>-8.847951</arrival_coordinates_lat><arrival_country_code>AO</arrival_country_code><arrival_country_name>Angola</arrival_country_name><arrival_city_code>LAD</arrival_city_code><arrival_city_name>Luanda</arrival_city_name><planes>732</planes><plane_name>Boeing 737-200</plane_name></routes><routes><airline_iata>DT</airline_iata><departure_airport_iata>VHC</departure_airport_iata><departure_name_airport>Saurimo</departure_name_airport><departure_coordinates_lon>20.55</departure_coordinates_lon><departure_coordinates_lat>-9.75</departure_coordinates_lat><departure_country_code>AO</departure_country_code><departure_country_name>Angola</departure_country_name><departure_city_code>VHC</departure_city_code><departure_city_name>Saurimo</departure_city_name><arrival_airport_iata>MEG</arrival_airport_iata><arrival_name_airport>Malange</arrival_name_airport><arrival_coordinates_lon>16.333332</arrival_coordinates_lon><arrival_coordinates_lat>-9.533333</arrival_coordinates_lat><arrival_country_code>AO</arrival_country_code><arrival_country_name>Angola</arrival_country_name><arrival_city_code>MEG</arrival_city_code><arrival_city_name>Melanje</arrival_city_name><planes>73G</planes><plane_name>Boeing 737-700</plane_name></routes><routes><airline_iata>DT</airline_iata><departure_airport_iata>VPE</departure_airport_iata><departure_name_airport>Ondjiva</departure_name_airport><departure_coordinates_lon>15.7</departure_coordinates_lon><departure_coordinates_lat>-17.05</departure_coordinates_lat><departure_country_code>AO</departure_country_code><departure_country_name>Angola</departure_country_name><departure_city_code>VPE</departure_city_code><departure_city_name>Ondjiva</departure_city_name><arrival_airport_iata>CBT</arrival_airport_iata><arrival_name_airport>Catumbela</arrival_name_airport><arrival_coordinates_lon>13.483333</arrival_coordinates_lon><arrival_coordinates_lat>-12.483333</arrival_coordinates_lat><arrival_country_code>AO</arrival_country_code><arrival_country_name>Angola</arrival_country_name><arrival_city_code>CBT</arrival_city_code><arrival_city_name>Catumbela</arrival_city_name><planes>73G</planes><plane_name>Boeing 737-700</plane_name></routes><routes><airline_iata>DT</airline_iata><departure_airport_iata>VPE</departure_airport_iata><departure_name_airport>Ondjiva</departure_name_airport><departure_coordinates_lon>15.7</departure_coordinates_lon><departure_coordinates_lat>-17.05</departure_coordinates_lat><departure_country_code>AO</departure_country_code><departure_country_name>Angola</departure_country_name><departure_city_code>VPE</departure_city_code><departure_city_name>Ondjiva</departure_city_name><arrival_airport_iata>LAD</arrival_airport_iata><arrival_name_airport>4 de Fevereiro</arrival_name_airport><arrival_coordinates_lon>13.234862</arrival_coordinates_lon><arrival_coordinates_lat>-8.847951</arrival_coordinates_lat><arrival_country_code>AO</arrival_country_code><arrival_country_name>Angola</arrival_country_name><arrival_city_code>LAD</arrival_city_code><arrival_city_name>Luanda</arrival_city_name><planes>73G</planes><plane_name>Boeing 737-700</plane_name></routes><routes><airline_iata>DT</airline_iata><departure_airport_iata>VPE</departure_airport_iata><departure_name_airport>Ondjiva</departure_name_airport><departure_coordinates_lon>15.7</departure_coordinates_lon><departure_coordinates_lat>-17.05</departure_coordinates_lat><departure_country_code>AO</departure_country_code><departure_country_name>Angola</departure_country_name><departure_city_code>VPE</departure_city_code><departure_city_name>Ondjiva</departure_city_name><arrival_airport_iata>NOV</arrival_airport_iata><arrival_name_airport>Huambo</arrival_name_airport><arrival_coordinates_lon>15.757222</arrival_coordinates_lon><arrival_coordinates_lat>-12.805556</arrival_coordinates_lat><arrival_country_code>AO</arrival_country_code><arrival_country_name>Angola</arrival_country_name><arrival_city_code>NOV</arrival_city_code><arrival_city_name>Huambo</arrival_city_name><planes>73G</planes><plane_name>Boeing 737-700</plane_name></routes><routes><airline_iata>DT</airline_iata><departure_airport_iata>VPE</departure_airport_iata><departure_name_airport>Ondjiva</departure_name_airport><departure_coordinates_lon>15.7</departure_coordinates_lon><departure_coordinates_lat>-17.05</departure_coordinates_lat><departure_country_code>AO</departure_country_code><departure_country_name>Angola</departure_country_name><departure_city_code>VPE</departure_city_code><departure_city_name>Ondjiva</departure_city_name><arrival_airport_iata>SDD</arrival_airport_iata><arrival_name_airport>Lubango</arrival_name_airport><arrival_coordinates_lon>13.576667</arrival_coordinates_lon><arrival_coordinates_lat>-14.924444</arrival_coordinates_lat><arrival_country_code>AO</arrival_country_code><arrival_country_name>Angola</arrival_country_name><arrival_city_code>SDD</arrival_city_code><arrival_city_name>Lubango</arrival_city_name><planes>73G</planes><plane_name>Boeing 737-700</plane_name></routes><routes><airline_iata>DT</airline_iata><departure_airport_iata>VPE</departure_airport_iata><departure_name_airport>Ondjiva</departure_name_airport><departure_coordinates_lon>15.7</departure_coordinates_lon><departure_coordinates_lat>-17.05</departure_coordinates_lat><departure_country_code>AO</departure_country_code><departure_country_name>Angola</departure_country_name><departure_city_code>VPE</departure_city_code><departure_city_name>Ondjiva</departure_city_name><arrival_airport_iata>SVP</arrival_airport_iata><arrival_name_airport>Kuito (Silva Porto)</arrival_name_airport><arrival_coordinates_lon>16.956667</arrival_coordinates_lon><arrival_coordinates_lat>-12.404167</arrival_coordinates_lat><arrival_country_code>AO</arrival_country_code><arrival_country_name>Angola</arrival_country_name><arrival_city_code>SVP</arrival_city_code><arrival_city_name>Kuito</arrival_city_name><planes>732</planes><plane_name>Boeing 737-200</plane_name></routes><routes><airline_iata>DT</airline_iata><departure_airport_iata>WDH</departure_airport_iata><departure_name_airport>Hosea Kutako International (J. G. Strijdom)</departure_name_airport><departure_coordinates_lon>17.463202</departure_coordinates_lon><departure_coordinates_lat>-22.487345</departure_coordinates_lat><departure_country_code>NA</departure_country_code><departure_country_name>Namibia</departure_country_name><departure_city_code>WDH</departure_city_code><departure_city_name>Windhoek</departure_city_name><arrival_airport_iata>LAD</arrival_airport_iata><arrival_name_airport>4 de Fevereiro</arrival_name_airport><arrival_coordinates_lon>13.234862</arrival_coordinates_lon><arrival_coordinates_lat>-8.847951</arrival_coordinates_lat><arrival_country_code>AO</arrival_country_code><arrival_country_name>Angola</arrival_country_name><arrival_city_code>LAD</arrival_city_code><arrival_city_name>Luanda</arrival_city_name><planes>73G</planes><plane_name>Boeing 737-700</plane_name></routes><routes><airline_iata>DT</airline_iata><departure_airport_iata>WDH</departure_airport_iata><departure_name_airport>Hosea Kutako International (J. G. Strijdom)</departure_name_airport><departure_coordinates_lon>17.463202</departure_coordinates_lon><departure_coordinates_lat>-22.487345</departure_coordinates_lat><departure_country_code>NA</departure_country_code><departure_country_name>Namibia</departure_country_name><departure_city_code>WDH</departure_city_code><departure_city_name>Windhoek</departure_city_name><arrival_airport_iata>SDD</arrival_airport_iata><arrival_name_airport>Lubango</arrival_name_airport><arrival_coordinates_lon>13.576667</arrival_coordinates_lon><arrival_coordinates_lat>-14.924444</arrival_coordinates_lat><arrival_country_code>AO</arrival_country_code><arrival_country_name>Angola</arrival_country_name><arrival_city_code>SDD</arrival_city_code><arrival_city_name>Lubango</arrival_city_name><planes>73G</planes><plane_name>Boeing 737-700</plane_name></routes><routes><airline_iata>EK</airline_iata><departure_airport_iata>DXB</departure_airport_iata><departure_name_airport>Dubai</departure_name_airport><departure_coordinates_lon>55.352917</departure_coordinates_lon><departure_coordinates_lat>25.248665</departure_coordinates_lat><departure_country_code>AE</departure_country_code><departure_country_name>United Arab Emirates</departure_country_name><departure_city_code>DXB</departure_city_code><departure_city_name>Dubai</departure_city_name><arrival_airport_iata>LAD</arrival_airport_iata><arrival_name_airport>4 de Fevereiro</arrival_name_airport><arrival_coordinates_lon>13.234862</arrival_coordinates_lon><arrival_coordinates_lat>-8.847951</arrival_coordinates_lat><arrival_country_code>AO</arrival_country_code><arrival_country_name>Angola</arrival_country_name><arrival_city_code>LAD</arrival_city_code><arrival_city_name>Luanda</arrival_city_name><planes>332</planes><plane_name>Airbus Industrie A330-200</plane_name></routes><routes><airline_iata>ET</airline_iata><departure_airport_iata>ADD</departure_airport_iata><departure_name_airport>Bole International</departure_name_airport><departure_coordinates_lon>38.7959</departure_coordinates_lon><departure_coordinates_lat>8.983759</departure_coordinates_lat><departure_country_code>ET</departure_country_code><departure_country_name>Ethiopia</departure_country_name><departure_city_code>ADD</departure_city_code><departure_city_name>Addis Ababa</departure_city_name><arrival_airport_iata>LAD</arrival_airport_iata><arrival_name_airport>4 de Fevereiro</arrival_name_airport><arrival_coordinates_lon>13.234862</arrival_coordinates_lon><arrival_coordinates_lat>-8.847951</arrival_coordinates_lat><arrival_country_code>AO</arrival_country_code><arrival_country_name>Angola</arrival_country_name><arrival_city_code>LAD</arrival_city_code><arrival_city_name>Luanda</arrival_city_name><planes>77L</planes><plane_name>Boeing 777-200LR</plane_name></routes><routes><airline_iata>HU</airline_iata><departure_airport_iata>DXB</departure_airport_iata><departure_name_airport>Dubai</departure_name_airport><departure_coordinates_lon>55.352917</departure_coordinates_lon><departure_coordinates_lat>25.248665</departure_coordinates_lat><departure_country_code>AE</departure_country_code><departure_country_name>United Arab Emirates</departure_country_name><departure_city_code>DXB</departure_city_code><departure_city_name>Dubai</departure_city_name><arrival_airport_iata>LAD</arrival_airport_iata><arrival_name_airport>4 de Fevereiro</arrival_name_airport><arrival_coordinates_lon>13.234862</arrival_coordinates_lon><arrival_coordinates_lat>-8.847951</arrival_coordinates_lat><arrival_country_code>AO</arrival_country_code><arrival_country_name>Angola</arrival_country_name><arrival_city_code>LAD</arrival_city_code><arrival_city_name>Luanda</arrival_city_name><planes>767</planes><plane_name>Boeing 767</plane_name></routes><routes><airline_iata>IB</airline_iata><departure_airport_iata>MAD</departure_airport_iata><departure_name_airport>Barajas</departure_name_airport><departure_coordinates_lon>-3.570209</departure_coordinates_lon><departure_coordinates_lat>40.46515</departure_coordinates_lat><departure_country_code>ES</departure_country_code><departure_country_name>Spain</departure_country_name><departure_city_code>MAD</departure_city_code><departure_city_name>Madrid</departure_city_name><arrival_airport_iata>LAD</arrival_airport_iata><arrival_name_airport>4 de Fevereiro</arrival_name_airport><arrival_coordinates_lon>13.234862</arrival_coordinates_lon><arrival_coordinates_lat>-8.847951</arrival_coordinates_lat><arrival_country_code>AO</arrival_country_code><arrival_country_name>Angola</arrival_country_name><arrival_city_code>LAD</arrival_city_code><arrival_city_name>Luanda</arrival_city_name><planes>340</planes><plane_name>Airbus Industrie A340</plane_name></routes><routes><airline_iata>KL</airline_iata><departure_airport_iata>AMS</departure_airport_iata><departure_name_airport>Schiphol</departure_name_airport><departure_coordinates_lon>4.763385</departure_coordinates_lon><departure_coordinates_lat>52.30907</departure_coordinates_lat><departure_country_code>NL</departure_country_code><departure_country_name>Netherlands</departure_country_name><departure_city_code>AMS</departure_city_code><departure_city_name>Amsterdam</departure_city_name><arrival_airport_iata>LAD</arrival_airport_iata><arrival_name_airport>4 de Fevereiro</arrival_name_airport><arrival_coordinates_lon>13.234862</arrival_coordinates_lon><arrival_coordinates_lat>-8.847951</arrival_coordinates_lat><arrival_country_code>AO</arrival_country_code><arrival_country_name>Angola</arrival_country_name><arrival_city_code>LAD</arrival_city_code><arrival_city_name>Luanda</arrival_city_name><planes>330</planes><plane_name>Airbus Industrie A330</plane_name></routes><routes><airline_iata>KQ</airline_iata><departure_airport_iata>NBO</departure_airport_iata><departure_name_airport>Jomo Kenyatta International</departure_name_airport><departure_coordinates_lon>36.92578</departure_coordinates_lon><departure_coordinates_lat>-1.319167</departure_coordinates_lat><departure_country_code>KE</departure_country_code><departure_country_name>Kenya</departure_country_name><departure_city_code>NBO</departure_city_code><departure_city_name>Nairobi</departure_city_name><arrival_airport_iata>LAD</arrival_airport_iata><arrival_name_airport>4 de Fevereiro</arrival_name_airport><arrival_coordinates_lon>13.234862</arrival_coordinates_lon><arrival_coordinates_lat>-8.847951</arrival_coordinates_lat><arrival_country_code>AO</arrival_country_code><arrival_country_name>Angola</arrival_country_name><arrival_city_code>LAD</arrival_city_code><arrival_city_name>Luanda</arrival_city_name><planes>733</planes><plane_name>Boeing 737-300</plane_name></routes><routes><airline_iata>LH</airline_iata><departure_airport_iata>BRU</departure_airport_iata><departure_name_airport>Brussels Airport</departure_name_airport><departure_coordinates_lon>4.483602</departure_coordinates_lon><departure_coordinates_lat>50.89717</departure_coordinates_lat><departure_country_code>BE</departure_country_code><departure_country_name>Belgium</departure_country_name><departure_city_code>BRU</departure_city_code><departure_city_name>Brussels</departure_city_name><arrival_airport_iata>LAD</arrival_airport_iata><arrival_name_airport>4 de Fevereiro</arrival_name_airport><arrival_coordinates_lon>13.234862</arrival_coordinates_lon><arrival_coordinates_lat>-8.847951</arrival_coordinates_lat><arrival_country_code>AO</arrival_country_code><arrival_country_name>Angola</arrival_country_name><arrival_city_code>LAD</arrival_city_code><arrival_city_name>Luanda</arrival_city_name><planes>333</planes><plane_name>Airbus Industrie A330-300</plane_name></routes><routes><airline_iata>LH</airline_iata><departure_airport_iata>FRA</departure_airport_iata><departure_name_airport>Frankfurt International Airport</departure_name_airport><departure_coordinates_lon>8.570773</departure_coordinates_lon><departure_coordinates_lat>50.050735</departure_coordinates_lat><departure_country_code>DE</departure_country_code><departure_country_name>Germany</departure_country_name><departure_city_code>FRA</departure_city_code><departure_city_name>Frankfurt</departure_city_name><arrival_airport_iata>LAD</arrival_airport_iata><arrival_name_airport>4 de Fevereiro</arrival_name_airport><arrival_coordinates_lon>13.234862</arrival_coordinates_lon><arrival_coordinates_lat>-8.847951</arrival_coordinates_lat><arrival_country_code>AO</arrival_country_code><arrival_country_name>Angola</arrival_country_name><arrival_city_code>LAD</arrival_city_code><arrival_city_name>Luanda</arrival_city_name><planes>343</planes><plane_name>Airbus Industrie A340-300</plane_name></routes><routes><airline_iata>SA</airline_iata><departure_airport_iata>JNB</departure_airport_iata><departure_name_airport>Oliver Reginald Tambo International (Jan Smuts International)</departure_name_airport><departure_coordinates_lon>28.231314</departure_coordinates_lon><departure_coordinates_lat>-26.132664</departure_coordinates_lat><departure_country_code>ZA</departure_country_code><departure_country_name>South Africa</departure_country_name><departure_city_code>JNB</departure_city_code><departure_city_name>Johannesburg</departure_city_name><arrival_airport_iata>LAD</arrival_airport_iata><arrival_name_airport>4 de Fevereiro</arrival_name_airport><arrival_coordinates_lon>13.234862</arrival_coordinates_lon><arrival_coordinates_lat>-8.847951</arrival_coordinates_lat><arrival_country_code>AO</arrival_country_code><arrival_country_name>Angola</arrival_country_name><arrival_city_code>LAD</arrival_city_code><arrival_city_name>Luanda</arrival_city_name><planes>346</planes><plane_name>Airbus Industrie A340-600</plane_name></routes><routes><airline_iata>SN</airline_iata><departure_airport_iata>BRU</departure_airport_iata><departure_name_airport>Brussels Airport</departure_name_airport><departure_coordinates_lon>4.483602</departure_coordinates_lon><departure_coordinates_lat>50.89717</departure_coordinates_lat><departure_country_code>BE</departure_country_code><departure_country_name>Belgium</departure_country_name><departure_city_code>BRU</departure_city_code><departure_city_name>Brussels</departure_city_name><arrival_airport_iata>LAD</arrival_airport_iata><arrival_name_airport>4 de Fevereiro</arrival_name_airport><arrival_coordinates_lon>13.234862</arrival_coordinates_lon><arrival_coordinates_lat>-8.847951</arrival_coordinates_lat><arrival_country_code>AO</arrival_country_code><arrival_country_name>Angola</arrival_country_name><arrival_city_code>LAD</arrival_city_code><arrival_city_name>Luanda</arrival_city_name><planes>333</planes><plane_name>Airbus Industrie A330-300</plane_name></routes><routes><airline_iata>SU</airline_iata><departure_airport_iata>HRG</departure_airport_iata><departure_name_airport>Hurghada</departure_name_airport><departure_coordinates_lon>33.8055</departure_coordinates_lon><departure_coordinates_lat>27.189156</departure_coordinates_lat><departure_country_code>EG</departure_country_code><departure_country_name>Egypt</departure_country_name><departure_city_code>HRG</departure_city_code><departure_city_name>Hurghada</departure_city_name><arrival_airport_iata>LAD</arrival_airport_iata><arrival_name_airport>4 de Fevereiro</arrival_name_airport><arrival_coordinates_lon>13.234862</arrival_coordinates_lon><arrival_coordinates_lat>-8.847951</arrival_coordinates_lat><arrival_country_code>AO</arrival_country_code><arrival_country_name>Angola</arrival_country_name><arrival_city_code>LAD</arrival_city_code><arrival_city_name>Luanda</arrival_city_name><planes>320</planes><plane_name>Airbus Industrie A320</plane_name></routes><routes><airline_iata>SW</airline_iata><departure_airport_iata>WDH</departure_airport_iata><departure_name_airport>Hosea Kutako International (J. G. Strijdom)</departure_name_airport><departure_coordinates_lon>17.463202</departure_coordinates_lon><departure_coordinates_lat>-22.487345</departure_coordinates_lat><departure_country_code>NA</departure_country_code><departure_country_name>Namibia</departure_country_name><departure_city_code>WDH</departure_city_code><departure_city_name>Windhoek</departure_city_name><arrival_airport_iata>LAD</arrival_airport_iata><arrival_name_airport>4 de Fevereiro</arrival_name_airport><arrival_coordinates_lon>13.234862</arrival_coordinates_lon><arrival_coordinates_lat>-8.847951</arrival_coordinates_lat><arrival_country_code>AO</arrival_country_code><arrival_country_name>Angola</arrival_country_name><arrival_city_code>LAD</arrival_city_code><arrival_city_name>Luanda</arrival_city_name><planes>735</planes><plane_name>Boeing 737-500</plane_name></routes><routes><airline_iata>TM</airline_iata><departure_airport_iata>MPM</departure_airport_iata><departure_name_airport>Maputo International</departure_name_airport><departure_coordinates_lon>32.57429</departure_coordinates_lon><departure_coordinates_lat>-25.924389</departure_coordinates_lat><departure_country_code>MZ</departure_country_code><departure_country_name>Mozambique</departure_country_name><departure_city_code>MPM</departure_city_code><departure_city_name>Maputo</departure_city_name><arrival_airport_iata>LAD</arrival_airport_iata><arrival_name_airport>4 de Fevereiro</arrival_name_airport><arrival_coordinates_lon>13.234862</arrival_coordinates_lon><arrival_coordinates_lat>-8.847951</arrival_coordinates_lat><arrival_country_code>AO</arrival_country_code><arrival_country_name>Angola</arrival_country_name><arrival_city_code>LAD</arrival_city_code><arrival_city_name>Luanda</arrival_city_name><planes>E90</planes><plane_name>Embraer ERJ-190</plane_name></routes><routes><airline_iata>TP</airline_iata><departure_airport_iata>LIS</departure_airport_iata><departure_name_airport>Lisbon Portela</departure_name_airport><departure_coordinates_lon>-9.128165</departure_coordinates_lon><departure_coordinates_lat>38.770042</departure_coordinates_lat><departure_country_code>PT</departure_country_code><departure_country_name>Portugal</departure_country_name><departure_city_code>LIS</departure_city_code><departure_city_name>Lisbon</departure_city_name><arrival_airport_iata>LAD</arrival_airport_iata><arrival_name_airport>4 de Fevereiro</arrival_name_airport><arrival_coordinates_lon>13.234862</arrival_coordinates_lon><arrival_coordinates_lat>-8.847951</arrival_coordinates_lat><arrival_country_code>AO</arrival_country_code><arrival_country_name>Angola</arrival_country_name><arrival_city_code>LAD</arrival_city_code><arrival_city_name>Luanda</arrival_city_name><planes>343</planes><plane_name>Airbus Industrie A340-300</plane_name></routes><routes><airline_iata>UA</airline_iata><departure_airport_iata>BRU</departure_airport_iata><departure_name_airport>Brussels Airport</departure_name_airport><departure_coordinates_lon>4.483602</departure_coordinates_lon><departure_coordinates_lat>50.89717</departure_coordinates_lat><departure_country_code>BE</departure_country_code><departure_country_name>Belgium</departure_country_name><departure_city_code>BRU</departure_city_code><departure_city_name>Brussels</departure_city_name><arrival_airport_iata>LAD</arrival_airport_iata><arrival_name_airport>4 de Fevereiro</arrival_name_airport><arrival_coordinates_lon>13.234862</arrival_coordinates_lon><arrival_coordinates_lat>-8.847951</arrival_coordinates_lat><arrival_country_code>AO</arrival_country_code><arrival_country_name>Angola</arrival_country_name><arrival_city_code>LAD</arrival_city_code><arrival_city_name>Luanda</arrival_city_name><planes>333</planes><plane_name>Airbus Industrie A330-300</plane_name></routes><routes><airline_iata>US</airline_iata><departure_airport_iata>BRU</departure_airport_iata><departure_name_airport>Brussels Airport</departure_name_airport><departure_coordinates_lon>4.483602</departure_coordinates_lon><departure_coordinates_lat>50.89717</departure_coordinates_lat><departure_country_code>BE</departure_country_code><departure_country_name>Belgium</departure_country_name><departure_city_code>BRU</departure_city_code><departure_city_name>Brussels</departure_city_name><arrival_airport_iata>LAD</arrival_airport_iata><arrival_name_airport>4 de Fevereiro</arrival_name_airport><arrival_coordinates_lon>13.234862</arrival_coordinates_lon><arrival_coordinates_lat>-8.847951</arrival_coordinates_lat><arrival_country_code>AO</arrival_country_code><arrival_country_name>Angola</arrival_country_name><arrival_city_code>LAD</arrival_city_code><arrival_city_name>Luanda</arrival_city_name><planes>333</planes><plane_name>Airbus Industrie A330-300</plane_name></routes><routes><airline_iata>W3</airline_iata><departure_airport_iata>LOS</departure_airport_iata><departure_name_airport>Murtala Muhammed</departure_name_airport><departure_coordinates_lon>3.321178</departure_coordinates_lon><departure_coordinates_lat>6.577871</departure_coordinates_lat><departure_country_code>NG</departure_country_code><departure_country_name>Nigeria</departure_country_name><departure_city_code>LOS</departure_city_code><departure_city_name>Lagos</departure_city_name><arrival_airport_iata>LAD</arrival_airport_iata><arrival_name_airport>4 de Fevereiro</arrival_name_airport><arrival_coordinates_lon>13.234862</arrival_coordinates_lon><arrival_coordinates_lat>-8.847951</arrival_coordinates_lat><arrival_country_code>AO</arrival_country_code><arrival_country_name>Angola</arrival_country_name><arrival_city_code>LAD</arrival_city_code><arrival_city_name>Luanda</arrival_city_name><planes>CR9</planes><plane_name>Canadair Regional Jet 900</plane_name></routes></route>
