<?xml version="1.0" encoding="utf-8"?>
<route><routes><airline_iata>4U</airline_iata><departure_airport_iata>CGN</departure_airport_iata><departure_name_airport>Cologne/bonn</departure_name_airport><departure_coordinates_lon>7.122224</departure_coordinates_lon><departure_coordinates_lat>50.878365</departure_coordinates_lat><departure_country_code>DE</departure_country_code><departure_country_name>Germany</departure_country_name><departure_city_code>CGN</departure_city_code><departure_city_name>Cologne</departure_city_name><arrival_airport_iata>SJJ</arrival_airport_iata><arrival_name_airport>Sarajevo</arrival_name_airport><arrival_coordinates_lon>18.336065</arrival_coordinates_lon><arrival_coordinates_lat>43.826687</arrival_coordinates_lat><arrival_country_code>BA</arrival_country_code><arrival_country_name>Bosnia and Herzegovina</arrival_country_name><arrival_city_code>SJJ</arrival_city_code><arrival_city_name>Sarajevo</arrival_city_name><planes>319</planes><plane_name>Airbus Industrie A319</plane_name></routes><routes><airline_iata>4U</airline_iata><departure_airport_iata>STR</departure_airport_iata><departure_name_airport>Stuttgart Echterdingen</departure_name_airport><departure_coordinates_lon>9.193624</departure_coordinates_lon><departure_coordinates_lat>48.69073</departure_coordinates_lat><departure_country_code>DE</departure_country_code><departure_country_name>Germany</departure_country_name><departure_city_code>STR</departure_city_code><departure_city_name>Stuttgart</departure_city_name><arrival_airport_iata>SJJ</arrival_airport_iata><arrival_name_airport>Sarajevo</arrival_name_airport><arrival_coordinates_lon>18.336065</arrival_coordinates_lon><arrival_coordinates_lat>43.826687</arrival_coordinates_lat><arrival_country_code>BA</arrival_country_code><arrival_country_name>Bosnia and Herzegovina</arrival_country_name><arrival_city_code>SJJ</arrival_city_code><arrival_city_name>Sarajevo</arrival_city_name><planes>319</planes><plane_name>Airbus Industrie A319</plane_name></routes><routes><airline_iata>DY</airline_iata><departure_airport_iata>ARN</departure_airport_iata><departure_name_airport>Arlanda</departure_name_airport><departure_coordinates_lon>17.930365</departure_coordinates_lon><departure_coordinates_lat>59.64982</departure_coordinates_lat><departure_country_code>SE</departure_country_code><departure_country_name>Sweden</departure_country_name><departure_city_code>STO</departure_city_code><departure_city_name>Stockholm</departure_city_name><arrival_airport_iata>SJJ</arrival_airport_iata><arrival_name_airport>Sarajevo</arrival_name_airport><arrival_coordinates_lon>18.336065</arrival_coordinates_lon><arrival_coordinates_lat>43.826687</arrival_coordinates_lat><arrival_country_code>BA</arrival_country_code><arrival_country_name>Bosnia and Herzegovina</arrival_country_name><arrival_city_code>SJJ</arrival_city_code><arrival_city_name>Sarajevo</arrival_city_name><planes>73H</planes><plane_name>Boeing 737-800 With Winglets</plane_name></routes><routes><airline_iata>JA</airline_iata><departure_airport_iata>BNX</departure_airport_iata><departure_name_airport>Banja Luka</departure_name_airport><departure_coordinates_lon>17.3</departure_coordinates_lon><departure_coordinates_lat>44.933334</departure_coordinates_lat><departure_country_code>BA</departure_country_code><departure_country_name>Bosnia and Herzegovina</departure_country_name><departure_city_code>BNX</departure_city_code><departure_city_name>Banja Luka</departure_city_name><arrival_airport_iata>SJJ</arrival_airport_iata><arrival_name_airport>Sarajevo</arrival_name_airport><arrival_coordinates_lon>18.336065</arrival_coordinates_lon><arrival_coordinates_lat>43.826687</arrival_coordinates_lat><arrival_country_code>BA</arrival_country_code><arrival_country_name>Bosnia and Herzegovina</arrival_country_name><arrival_city_code>SJJ</arrival_city_code><arrival_city_name>Sarajevo</arrival_city_name><planes>AT7</planes><plane_name>Aerospatiale/Alenia ATR 72</plane_name></routes><routes><airline_iata>JA</airline_iata><departure_airport_iata>CPH</departure_airport_iata><departure_name_airport>Kastrup</departure_name_airport><departure_coordinates_lon>12.647601</departure_coordinates_lon><departure_coordinates_lat>55.62905</departure_coordinates_lat><departure_country_code>DK</departure_country_code><departure_country_name>Denmark</departure_country_name><departure_city_code>CPH</departure_city_code><departure_city_name>Copenhagen</departure_city_name><arrival_airport_iata>SJJ</arrival_airport_iata><arrival_name_airport>Sarajevo</arrival_name_airport><arrival_coordinates_lon>18.336065</arrival_coordinates_lon><arrival_coordinates_lat>43.826687</arrival_coordinates_lat><arrival_country_code>BA</arrival_country_code><arrival_country_name>Bosnia and Herzegovina</arrival_country_name><arrival_city_code>SJJ</arrival_city_code><arrival_city_name>Sarajevo</arrival_city_name><planes>AT7</planes><plane_name>Aerospatiale/Alenia ATR 72</plane_name></routes><routes><airline_iata>JA</airline_iata><departure_airport_iata>IST</departure_airport_iata><departure_name_airport>Ataturk</departure_name_airport><departure_coordinates_lon>28.815277</departure_coordinates_lon><departure_coordinates_lat>40.976665</departure_coordinates_lat><departure_country_code>TR</departure_country_code><departure_country_name>Turkey</departure_country_name><departure_city_code>IST</departure_city_code><departure_city_name>Istanbul</departure_city_name><arrival_airport_iata>SJJ</arrival_airport_iata><arrival_name_airport>Sarajevo</arrival_name_airport><arrival_coordinates_lon>18.336065</arrival_coordinates_lon><arrival_coordinates_lat>43.826687</arrival_coordinates_lat><arrival_country_code>BA</arrival_country_code><arrival_country_name>Bosnia and Herzegovina</arrival_country_name><arrival_city_code>SJJ</arrival_city_code><arrival_city_name>Sarajevo</arrival_city_name><planes>AT7</planes><plane_name>Aerospatiale/Alenia ATR 72</plane_name></routes><routes><airline_iata>JA</airline_iata><departure_airport_iata>SJJ</departure_airport_iata><departure_name_airport>Sarajevo</departure_name_airport><departure_coordinates_lon>18.336065</departure_coordinates_lon><departure_coordinates_lat>43.826687</departure_coordinates_lat><departure_country_code>BA</departure_country_code><departure_country_name>Bosnia and Herzegovina</departure_country_name><departure_city_code>SJJ</departure_city_code><departure_city_name>Sarajevo</departure_city_name><arrival_airport_iata>BNX</arrival_airport_iata><arrival_name_airport>Banja Luka</arrival_name_airport><arrival_coordinates_lon>17.3</arrival_coordinates_lon><arrival_coordinates_lat>44.933334</arrival_coordinates_lat><arrival_country_code>BA</arrival_country_code><arrival_country_name>Bosnia and Herzegovina</arrival_country_name><arrival_city_code>BNX</arrival_city_code><arrival_city_name>Banja Luka</arrival_city_name><planes>AT7</planes><plane_name>Aerospatiale/Alenia ATR 72</plane_name></routes><routes><airline_iata>JA</airline_iata><departure_airport_iata>ZRH</departure_airport_iata><departure_name_airport>Zurich</departure_name_airport><departure_coordinates_lon>8.561746</departure_coordinates_lon><departure_coordinates_lat>47.450603</departure_coordinates_lat><departure_country_code>CH</departure_country_code><departure_country_name>Switzerland</departure_country_name><departure_city_code>ZRH</departure_city_code><departure_city_name>Zurich</departure_city_name><arrival_airport_iata>BNX</arrival_airport_iata><arrival_name_airport>Banja Luka</arrival_name_airport><arrival_coordinates_lon>17.3</arrival_coordinates_lon><arrival_coordinates_lat>44.933334</arrival_coordinates_lat><arrival_country_code>BA</arrival_country_code><arrival_country_name>Bosnia and Herzegovina</arrival_country_name><arrival_city_code>BNX</arrival_city_code><arrival_city_name>Banja Luka</arrival_city_name><planes>AT7</planes><plane_name>Aerospatiale/Alenia ATR 72</plane_name></routes><routes><airline_iata>JP</airline_iata><departure_airport_iata>LJU</departure_airport_iata><departure_name_airport>Brnik</departure_name_airport><departure_coordinates_lon>14.454972</departure_coordinates_lon><departure_coordinates_lat>46.23102</departure_coordinates_lat><departure_country_code>SI</departure_country_code><departure_country_name>Slovenia</departure_country_name><departure_city_code>LJU</departure_city_code><departure_city_name>Ljubljana</departure_city_name><arrival_airport_iata>SJJ</arrival_airport_iata><arrival_name_airport>Sarajevo</arrival_name_airport><arrival_coordinates_lon>18.336065</arrival_coordinates_lon><arrival_coordinates_lat>43.826687</arrival_coordinates_lat><arrival_country_code>BA</arrival_country_code><arrival_country_name>Bosnia and Herzegovina</arrival_country_name><arrival_city_code>SJJ</arrival_city_code><arrival_city_name>Sarajevo</arrival_city_name><planes>CR2</planes><plane_name>Canadair Regional Jet 200</plane_name></routes><routes><airline_iata>JU</airline_iata><departure_airport_iata>BEG</departure_airport_iata><departure_name_airport>Belgrade Nikola Tesla</departure_name_airport><departure_coordinates_lon>20.306944</departure_coordinates_lon><departure_coordinates_lat>44.819443</departure_coordinates_lat><departure_country_code>RS</departure_country_code><departure_country_name>Serbia</departure_country_name><departure_city_code>BEG</departure_city_code><departure_city_name>Belgrade</departure_city_name><arrival_airport_iata>SJJ</arrival_airport_iata><arrival_name_airport>Sarajevo</arrival_name_airport><arrival_coordinates_lon>18.336065</arrival_coordinates_lon><arrival_coordinates_lat>43.826687</arrival_coordinates_lat><arrival_country_code>BA</arrival_country_code><arrival_country_name>Bosnia and Herzegovina</arrival_country_name><arrival_city_code>SJJ</arrival_city_code><arrival_city_name>Sarajevo</arrival_city_name><planes>AT7</planes><plane_name>Aerospatiale/Alenia ATR 72</plane_name></routes><routes><airline_iata>LH</airline_iata><departure_airport_iata>MUC</departure_airport_iata><departure_name_airport>Franz Josef Strauss</departure_name_airport><departure_coordinates_lon>11.790143</departure_coordinates_lon><departure_coordinates_lat>48.353004</departure_coordinates_lat><departure_country_code>DE</departure_country_code><departure_country_name>Germany</departure_country_name><departure_city_code>MUC</departure_city_code><departure_city_name>Munich</departure_city_name><arrival_airport_iata>SJJ</arrival_airport_iata><arrival_name_airport>Sarajevo</arrival_name_airport><arrival_coordinates_lon>18.336065</arrival_coordinates_lon><arrival_coordinates_lat>43.826687</arrival_coordinates_lat><arrival_country_code>BA</arrival_country_code><arrival_country_name>Bosnia and Herzegovina</arrival_country_name><arrival_city_code>SJJ</arrival_city_code><arrival_city_name>Sarajevo</arrival_city_name><planes>319</planes><plane_name>Airbus Industrie A319</plane_name></routes><routes><airline_iata>OS</airline_iata><departure_airport_iata>VIE</departure_airport_iata><departure_name_airport>Vienna International</departure_name_airport><departure_coordinates_lon>16.563583</departure_coordinates_lon><departure_coordinates_lat>48.11972</departure_coordinates_lat><departure_country_code>AT</departure_country_code><departure_country_name>Austria</departure_country_name><departure_city_code>VIE</departure_city_code><departure_city_name>Vienna</departure_city_name><arrival_airport_iata>SJJ</arrival_airport_iata><arrival_name_airport>Sarajevo</arrival_name_airport><arrival_coordinates_lon>18.336065</arrival_coordinates_lon><arrival_coordinates_lat>43.826687</arrival_coordinates_lat><arrival_country_code>BA</arrival_country_code><arrival_country_name>Bosnia and Herzegovina</arrival_country_name><arrival_city_code>SJJ</arrival_city_code><arrival_city_name>Sarajevo</arrival_city_name><planes>100</planes><plane_name>Fokker 100</plane_name></routes><routes><airline_iata>OU</airline_iata><departure_airport_iata>ZAG</departure_airport_iata><departure_name_airport>Pleso</departure_name_airport><departure_coordinates_lon>16.06152</departure_coordinates_lon><departure_coordinates_lat>45.733242</departure_coordinates_lat><departure_country_code>HR</departure_country_code><departure_country_name>Croatia</departure_country_name><departure_city_code>ZAG</departure_city_code><departure_city_name>Zagreb</departure_city_name><arrival_airport_iata>SJJ</arrival_airport_iata><arrival_name_airport>Sarajevo</arrival_name_airport><arrival_coordinates_lon>18.336065</arrival_coordinates_lon><arrival_coordinates_lat>43.826687</arrival_coordinates_lat><arrival_country_code>BA</arrival_country_code><arrival_country_name>Bosnia and Herzegovina</arrival_country_name><arrival_city_code>SJJ</arrival_city_code><arrival_city_name>Sarajevo</arrival_city_name><planes>DH4</planes><plane_name>De Havilland Canada DHC-8-400 Dash 8/8Q</plane_name></routes><routes><airline_iata>TK</airline_iata><departure_airport_iata>IST</departure_airport_iata><departure_name_airport>Ataturk</departure_name_airport><departure_coordinates_lon>28.815277</departure_coordinates_lon><departure_coordinates_lat>40.976665</departure_coordinates_lat><departure_country_code>TR</departure_country_code><departure_country_name>Turkey</departure_country_name><departure_city_code>IST</departure_city_code><departure_city_name>Istanbul</departure_city_name><arrival_airport_iata>SJJ</arrival_airport_iata><arrival_name_airport>Sarajevo</arrival_name_airport><arrival_coordinates_lon>18.336065</arrival_coordinates_lon><arrival_coordinates_lat>43.826687</arrival_coordinates_lat><arrival_country_code>BA</arrival_country_code><arrival_country_name>Bosnia and Herzegovina</arrival_country_name><arrival_city_code>SJJ</arrival_city_code><arrival_city_name>Sarajevo</arrival_city_name><planes>738</planes><plane_name>Boeing 737-800</plane_name></routes><routes><airline_iata>TK</airline_iata><departure_airport_iata>IST</departure_airport_iata><departure_name_airport>Ataturk</departure_name_airport><departure_coordinates_lon>28.815277</departure_coordinates_lon><departure_coordinates_lat>40.976665</departure_coordinates_lat><departure_country_code>TR</departure_country_code><departure_country_name>Turkey</departure_country_name><departure_city_code>IST</departure_city_code><departure_city_name>Istanbul</departure_city_name><arrival_airport_iata>SJJ</arrival_airport_iata><arrival_name_airport>Sarajevo</arrival_name_airport><arrival_coordinates_lon>18.336065</arrival_coordinates_lon><arrival_coordinates_lat>43.826687</arrival_coordinates_lat><arrival_country_code>BA</arrival_country_code><arrival_country_name>Bosnia and Herzegovina</arrival_country_name><arrival_city_code>SJJ</arrival_city_code><arrival_city_name>Sarajevo</arrival_city_name><planes>AT7</planes><plane_name>Aerospatiale/Alenia ATR 72</plane_name></routes></route>
