<?xml version="1.0" encoding="utf-8"?>
<route><routes><airline_iata>KB</airline_iata><departure_airport_iata>BKK</departure_airport_iata><departure_name_airport>Suvarnabhumi International</departure_name_airport><departure_coordinates_lon>100.752045</departure_coordinates_lon><departure_coordinates_lat>13.693062</departure_coordinates_lat><departure_country_code>TH</departure_country_code><departure_country_name>Thailand</departure_country_name><departure_city_code>BKK</departure_city_code><departure_city_name>Bangkok</departure_city_name><arrival_airport_iata>PBH</arrival_airport_iata><arrival_name_airport>Paro</arrival_name_airport><arrival_coordinates_lon>89.416664</arrival_coordinates_lon><arrival_coordinates_lat>27.433332</arrival_coordinates_lat><arrival_country_code>BT</arrival_country_code><arrival_country_name>Bhutan</arrival_country_name><arrival_city_code>PBH</arrival_city_code><arrival_city_name>Paro</arrival_city_name><planes>319</planes><plane_name>Airbus Industrie A319</plane_name></routes><routes><airline_iata>KB</airline_iata><departure_airport_iata>CCU</departure_airport_iata><departure_name_airport>Netaji Subhas Chandra</departure_name_airport><departure_coordinates_lon>88.43931</departure_coordinates_lon><departure_coordinates_lat>22.64531</departure_coordinates_lat><departure_country_code>IN</departure_country_code><departure_country_name>India</departure_country_name><departure_city_code>CCU</departure_city_code><departure_city_name>Kolkata</departure_city_name><arrival_airport_iata>PBH</arrival_airport_iata><arrival_name_airport>Paro</arrival_name_airport><arrival_coordinates_lon>89.416664</arrival_coordinates_lon><arrival_coordinates_lat>27.433332</arrival_coordinates_lat><arrival_country_code>BT</arrival_country_code><arrival_country_name>Bhutan</arrival_country_name><arrival_city_code>PBH</arrival_city_code><arrival_city_name>Paro</arrival_city_name><planes>319</planes><plane_name>Airbus Industrie A319</plane_name></routes><routes><airline_iata>KB</airline_iata><departure_airport_iata>DAC</departure_airport_iata><departure_name_airport>Zia International</departure_name_airport><departure_coordinates_lon>90.405876</departure_coordinates_lon><departure_coordinates_lat>23.848648</departure_coordinates_lat><departure_country_code>BD</departure_country_code><departure_country_name>Bangladesh</departure_country_name><departure_city_code>DAC</departure_city_code><departure_city_name>Dhaka</departure_city_name><arrival_airport_iata>PBH</arrival_airport_iata><arrival_name_airport>Paro</arrival_name_airport><arrival_coordinates_lon>89.416664</arrival_coordinates_lon><arrival_coordinates_lat>27.433332</arrival_coordinates_lat><arrival_country_code>BT</arrival_country_code><arrival_country_name>Bhutan</arrival_country_name><arrival_city_code>PBH</arrival_city_code><arrival_city_name>Paro</arrival_city_name><planes>319</planes><plane_name>Airbus Industrie A319</plane_name></routes><routes><airline_iata>KB</airline_iata><departure_airport_iata>DEL</departure_airport_iata><departure_name_airport>Indira Gandhi International</departure_name_airport><departure_coordinates_lon>77.10079</departure_coordinates_lon><departure_coordinates_lat>28.556555</departure_coordinates_lat><departure_country_code>IN</departure_country_code><departure_country_name>India</departure_country_name><departure_city_code>DEL</departure_city_code><departure_city_name>New Delhi</departure_city_name><arrival_airport_iata>PBH</arrival_airport_iata><arrival_name_airport>Paro</arrival_name_airport><arrival_coordinates_lon>89.416664</arrival_coordinates_lon><arrival_coordinates_lat>27.433332</arrival_coordinates_lat><arrival_country_code>BT</arrival_country_code><arrival_country_name>Bhutan</arrival_country_name><arrival_city_code>PBH</arrival_city_code><arrival_city_name>Paro</arrival_city_name><planes>319</planes><plane_name>Airbus Industrie A319</plane_name></routes><routes><airline_iata>KB</airline_iata><departure_airport_iata>GAU</departure_airport_iata><departure_name_airport>Borjhar</departure_name_airport><departure_coordinates_lon>91.58881</departure_coordinates_lon><departure_coordinates_lat>26.105982</departure_coordinates_lat><departure_country_code>IN</departure_country_code><departure_country_name>India</departure_country_name><departure_city_code>GAU</departure_city_code><departure_city_name>Gawahati</departure_city_name><arrival_airport_iata>PBH</arrival_airport_iata><arrival_name_airport>Paro</arrival_name_airport><arrival_coordinates_lon>89.416664</arrival_coordinates_lon><arrival_coordinates_lat>27.433332</arrival_coordinates_lat><arrival_country_code>BT</arrival_country_code><arrival_country_name>Bhutan</arrival_country_name><arrival_city_code>PBH</arrival_city_code><arrival_city_name>Paro</arrival_city_name><planes>319</planes><plane_name>Airbus Industrie A319</plane_name></routes><routes><airline_iata>KB</airline_iata><departure_airport_iata>IXB</departure_airport_iata><departure_name_airport>Bagdogra</departure_name_airport><departure_coordinates_lon>88.324814</departure_coordinates_lon><departure_coordinates_lat>26.68488</departure_coordinates_lat><departure_country_code>IN</departure_country_code><departure_country_name>India</departure_country_name><departure_city_code>IXB</departure_city_code><departure_city_name>Bagdogra</departure_city_name><arrival_airport_iata>PBH</arrival_airport_iata><arrival_name_airport>Paro</arrival_name_airport><arrival_coordinates_lon>89.416664</arrival_coordinates_lon><arrival_coordinates_lat>27.433332</arrival_coordinates_lat><arrival_country_code>BT</arrival_country_code><arrival_country_name>Bhutan</arrival_country_name><arrival_city_code>PBH</arrival_city_code><arrival_city_name>Paro</arrival_city_name><planes>319</planes><plane_name>Airbus Industrie A319</plane_name></routes></route>
