<?xml version="1.0" encoding="utf-8"?>
<route><routes><airline_iata>4O</airline_iata><departure_airport_iata>MEX</departure_airport_iata><departure_name_airport>Internacional Benito Juarez</departure_name_airport><departure_coordinates_lon>-99.07278</departure_coordinates_lon><departure_coordinates_lat>19.435278</departure_coordinates_lat><departure_country_code>MX</departure_country_code><departure_country_name>Mexico</departure_country_name><departure_city_code>MEX</departure_city_code><departure_city_name>Mexico City</departure_city_name><arrival_airport_iata>SJO</arrival_airport_iata><arrival_name_airport>Juan Santamaría International</arrival_name_airport><arrival_coordinates_lon>-84.20408</arrival_coordinates_lon><arrival_coordinates_lat>9.998238</arrival_coordinates_lat><arrival_country_code>CR</arrival_country_code><arrival_country_name>Costa Rica</arrival_country_name><arrival_city_code>SJO</arrival_city_code><arrival_city_name>San José</arrival_city_name><planes>320</planes><plane_name>Airbus Industrie A320</plane_name></routes><routes><airline_iata>7P</airline_iata><departure_airport_iata>DAV</departure_airport_iata><departure_name_airport>Enrique Malek</departure_name_airport><departure_coordinates_lon>-82.433334</departure_coordinates_lon><departure_coordinates_lat>8.383333</departure_coordinates_lat><departure_country_code>PA</departure_country_code><departure_country_name>Panama</departure_country_name><departure_city_code>DAV</departure_city_code><departure_city_name>David</departure_city_name><arrival_airport_iata>SJO</arrival_airport_iata><arrival_name_airport>Juan Santamaría International</arrival_name_airport><arrival_coordinates_lon>-84.20408</arrival_coordinates_lon><arrival_coordinates_lat>9.998238</arrival_coordinates_lat><arrival_country_code>CR</arrival_country_code><arrival_country_name>Costa Rica</arrival_country_name><arrival_city_code>SJO</arrival_city_code><arrival_city_name>San José</arrival_city_name><planes>SFB</planes><plane_name>Saab SF-340B</plane_name></routes><routes><airline_iata>AA</airline_iata><departure_airport_iata>DFW</departure_airport_iata><departure_name_airport>Dallas/Fort Worth International</departure_name_airport><departure_coordinates_lon>-97.036125</departure_coordinates_lon><departure_coordinates_lat>32.89746</departure_coordinates_lat><departure_country_code>US</departure_country_code><departure_country_name>United States</departure_country_name><departure_city_code>DFW</departure_city_code><departure_city_name>Dallas</departure_city_name><arrival_airport_iata>LIR</arrival_airport_iata><arrival_name_airport>Daniel Oduber International</arrival_name_airport><arrival_coordinates_lon>-85.53839</arrival_coordinates_lon><arrival_coordinates_lat>10.600005</arrival_coordinates_lat><arrival_country_code>CR</arrival_country_code><arrival_country_name>Costa Rica</arrival_country_name><arrival_city_code>LIR</arrival_city_code><arrival_city_name>Liberia</arrival_city_name><planes>738</planes><plane_name>Boeing 737-800</plane_name></routes><routes><airline_iata>AA</airline_iata><departure_airport_iata>DFW</departure_airport_iata><departure_name_airport>Dallas/Fort Worth International</departure_name_airport><departure_coordinates_lon>-97.036125</departure_coordinates_lon><departure_coordinates_lat>32.89746</departure_coordinates_lat><departure_country_code>US</departure_country_code><departure_country_name>United States</departure_country_name><departure_city_code>DFW</departure_city_code><departure_city_name>Dallas</departure_city_name><arrival_airport_iata>SJO</arrival_airport_iata><arrival_name_airport>Juan Santamaría International</arrival_name_airport><arrival_coordinates_lon>-84.20408</arrival_coordinates_lon><arrival_coordinates_lat>9.998238</arrival_coordinates_lat><arrival_country_code>CR</arrival_country_code><arrival_country_name>Costa Rica</arrival_country_name><arrival_city_code>SJO</arrival_city_code><arrival_city_name>San José</arrival_city_name><planes>757</planes><plane_name>Boeing 757</plane_name></routes><routes><airline_iata>AA</airline_iata><departure_airport_iata>MIA</departure_airport_iata><departure_name_airport>Miami International Airport</departure_name_airport><departure_coordinates_lon>-80.27824</departure_coordinates_lon><departure_coordinates_lat>25.796</departure_coordinates_lat><departure_country_code>US</departure_country_code><departure_country_name>United States</departure_country_name><departure_city_code>MIA</departure_city_code><departure_city_name>Miami</departure_city_name><arrival_airport_iata>LIR</arrival_airport_iata><arrival_name_airport>Daniel Oduber International</arrival_name_airport><arrival_coordinates_lon>-85.53839</arrival_coordinates_lon><arrival_coordinates_lat>10.600005</arrival_coordinates_lat><arrival_country_code>CR</arrival_country_code><arrival_country_name>Costa Rica</arrival_country_name><arrival_city_code>LIR</arrival_city_code><arrival_city_name>Liberia</arrival_city_name><planes>738</planes><plane_name>Boeing 737-800</plane_name></routes><routes><airline_iata>AA</airline_iata><departure_airport_iata>MIA</departure_airport_iata><departure_name_airport>Miami International Airport</departure_name_airport><departure_coordinates_lon>-80.27824</departure_coordinates_lon><departure_coordinates_lat>25.796</departure_coordinates_lat><departure_country_code>US</departure_country_code><departure_country_name>United States</departure_country_name><departure_city_code>MIA</departure_city_code><departure_city_name>Miami</departure_city_name><arrival_airport_iata>SJO</arrival_airport_iata><arrival_name_airport>Juan Santamaría International</arrival_name_airport><arrival_coordinates_lon>-84.20408</arrival_coordinates_lon><arrival_coordinates_lat>9.998238</arrival_coordinates_lat><arrival_country_code>CR</arrival_country_code><arrival_country_name>Costa Rica</arrival_country_name><arrival_city_code>SJO</arrival_city_code><arrival_city_name>San José</arrival_city_name><planes>757</planes><plane_name>Boeing 757</plane_name></routes><routes><airline_iata>AC</airline_iata><departure_airport_iata>YYZ</departure_airport_iata><departure_name_airport>Lester B. Pearson International</departure_name_airport><departure_coordinates_lon>-79.61146</departure_coordinates_lon><departure_coordinates_lat>43.681583</departure_coordinates_lat><departure_country_code>CA</departure_country_code><departure_country_name>Canada</departure_country_name><departure_city_code>YTO</departure_city_code><departure_city_name>Toronto</departure_city_name><arrival_airport_iata>SJO</arrival_airport_iata><arrival_name_airport>Juan Santamaría International</arrival_name_airport><arrival_coordinates_lon>-84.20408</arrival_coordinates_lon><arrival_coordinates_lat>9.998238</arrival_coordinates_lat><arrival_country_code>CR</arrival_country_code><arrival_country_name>Costa Rica</arrival_country_name><arrival_city_code>SJO</arrival_city_code><arrival_city_name>San José</arrival_city_name><planes>319</planes><plane_name>Airbus Industrie A319</plane_name></routes><routes><airline_iata>AM</airline_iata><departure_airport_iata>CUN</departure_airport_iata><departure_name_airport>Cancún International</departure_name_airport><departure_coordinates_lon>-86.874435</departure_coordinates_lon><departure_coordinates_lat>21.040457</departure_coordinates_lat><departure_country_code>MX</departure_country_code><departure_country_name>Mexico</departure_country_name><departure_city_code>CUN</departure_city_code><departure_city_name>Cancun</departure_city_name><arrival_airport_iata>SJO</arrival_airport_iata><arrival_name_airport>Juan Santamaría International</arrival_name_airport><arrival_coordinates_lon>-84.20408</arrival_coordinates_lon><arrival_coordinates_lat>9.998238</arrival_coordinates_lat><arrival_country_code>CR</arrival_country_code><arrival_country_name>Costa Rica</arrival_country_name><arrival_city_code>SJO</arrival_city_code><arrival_city_name>San José</arrival_city_name><planes>737</planes><plane_name>Boeing 737</plane_name></routes><routes><airline_iata>AM</airline_iata><departure_airport_iata>MEX</departure_airport_iata><departure_name_airport>Internacional Benito Juarez</departure_name_airport><departure_coordinates_lon>-99.07278</departure_coordinates_lon><departure_coordinates_lat>19.435278</departure_coordinates_lat><departure_country_code>MX</departure_country_code><departure_country_name>Mexico</departure_country_name><departure_city_code>MEX</departure_city_code><departure_city_name>Mexico City</departure_city_name><arrival_airport_iata>SJO</arrival_airport_iata><arrival_name_airport>Juan Santamaría International</arrival_name_airport><arrival_coordinates_lon>-84.20408</arrival_coordinates_lon><arrival_coordinates_lat>9.998238</arrival_coordinates_lat><arrival_country_code>CR</arrival_country_code><arrival_country_name>Costa Rica</arrival_country_name><arrival_city_code>SJO</arrival_city_code><arrival_city_name>San José</arrival_city_name><planes>737</planes><plane_name>Boeing 737</plane_name></routes><routes><airline_iata>AV</airline_iata><departure_airport_iata>BOG</departure_airport_iata><departure_name_airport>El Nuevo Dorado International</departure_name_airport><departure_coordinates_lon>-74.143135</departure_coordinates_lon><departure_coordinates_lat>4.698602</departure_coordinates_lat><departure_country_code>CO</departure_country_code><departure_country_name>Colombia</departure_country_name><departure_city_code>BOG</departure_city_code><departure_city_name>Bogota</departure_city_name><arrival_airport_iata>SJO</arrival_airport_iata><arrival_name_airport>Juan Santamaría International</arrival_name_airport><arrival_coordinates_lon>-84.20408</arrival_coordinates_lon><arrival_coordinates_lat>9.998238</arrival_coordinates_lat><arrival_country_code>CR</arrival_country_code><arrival_country_name>Costa Rica</arrival_country_name><arrival_city_code>SJO</arrival_city_code><arrival_city_name>San José</arrival_city_name><planes>319</planes><plane_name>Airbus Industrie A319</plane_name></routes><routes><airline_iata>AV</airline_iata><departure_airport_iata>MDE</departure_airport_iata><departure_name_airport>Jose Maria Cordova</departure_name_airport><departure_coordinates_lon>-75.42821</departure_coordinates_lon><departure_coordinates_lat>6.171382</departure_coordinates_lat><departure_country_code>CO</departure_country_code><departure_country_name>Colombia</departure_country_name><departure_city_code>MDE</departure_city_code><departure_city_name>Medellin</departure_city_name><arrival_airport_iata>SJO</arrival_airport_iata><arrival_name_airport>Juan Santamaría International</arrival_name_airport><arrival_coordinates_lon>-84.20408</arrival_coordinates_lon><arrival_coordinates_lat>9.998238</arrival_coordinates_lat><arrival_country_code>CR</arrival_country_code><arrival_country_name>Costa Rica</arrival_country_name><arrival_city_code>SJO</arrival_city_code><arrival_city_name>San José</arrival_city_name><planes>E90</planes><plane_name>Embraer ERJ-190</plane_name></routes><routes><airline_iata>B6</airline_iata><departure_airport_iata>JFK</departure_airport_iata><departure_name_airport>John F Kennedy International</departure_name_airport><departure_coordinates_lon>-73.78817</departure_coordinates_lon><departure_coordinates_lat>40.642334</departure_coordinates_lat><departure_country_code>US</departure_country_code><departure_country_name>United States</departure_country_name><departure_city_code>NYC</departure_city_code><departure_city_name>New York</departure_city_name><arrival_airport_iata>LIR</arrival_airport_iata><arrival_name_airport>Daniel Oduber International</arrival_name_airport><arrival_coordinates_lon>-85.53839</arrival_coordinates_lon><arrival_coordinates_lat>10.600005</arrival_coordinates_lat><arrival_country_code>CR</arrival_country_code><arrival_country_name>Costa Rica</arrival_country_name><arrival_city_code>LIR</arrival_city_code><arrival_city_name>Liberia</arrival_city_name><planes>320</planes><plane_name>Airbus Industrie A320</plane_name></routes><routes><airline_iata>B6</airline_iata><departure_airport_iata>MCO</departure_airport_iata><departure_name_airport>Orlando International</departure_name_airport><departure_coordinates_lon>-81.308304</departure_coordinates_lon><departure_coordinates_lat>28.432177</departure_coordinates_lat><departure_country_code>US</departure_country_code><departure_country_name>United States</departure_country_name><departure_city_code>ORL</departure_city_code><departure_city_name>Orlando</departure_city_name><arrival_airport_iata>SJO</arrival_airport_iata><arrival_name_airport>Juan Santamaría International</arrival_name_airport><arrival_coordinates_lon>-84.20408</arrival_coordinates_lon><arrival_coordinates_lat>9.998238</arrival_coordinates_lat><arrival_country_code>CR</arrival_country_code><arrival_country_name>Costa Rica</arrival_country_name><arrival_city_code>SJO</arrival_city_code><arrival_city_name>San José</arrival_city_name><planes>320</planes><plane_name>Airbus Industrie A320</plane_name></routes><routes><airline_iata>CM</airline_iata><departure_airport_iata>GUA</departure_airport_iata><departure_name_airport>La Aurora</departure_name_airport><departure_coordinates_lon>-90.53068</departure_coordinates_lon><departure_coordinates_lat>14.588071</departure_coordinates_lat><departure_country_code>GT</departure_country_code><departure_country_name>Guatemala</departure_country_name><departure_city_code>GUA</departure_city_code><departure_city_name>Guatemala City</departure_city_name><arrival_airport_iata>SJO</arrival_airport_iata><arrival_name_airport>Juan Santamaría International</arrival_name_airport><arrival_coordinates_lon>-84.20408</arrival_coordinates_lon><arrival_coordinates_lat>9.998238</arrival_coordinates_lat><arrival_country_code>CR</arrival_country_code><arrival_country_name>Costa Rica</arrival_country_name><arrival_city_code>SJO</arrival_city_code><arrival_city_name>San José</arrival_city_name><planes>73G</planes><plane_name>Boeing 737-700</plane_name></routes><routes><airline_iata>CM</airline_iata><departure_airport_iata>MGA</departure_airport_iata><departure_name_airport>Augusto C Sandino</departure_name_airport><departure_coordinates_lon>-86.171265</departure_coordinates_lon><departure_coordinates_lat>12.144838</departure_coordinates_lat><departure_country_code>NI</departure_country_code><departure_country_name>Nicaragua</departure_country_name><departure_city_code>MGA</departure_city_code><departure_city_name>Managua</departure_city_name><arrival_airport_iata>SJO</arrival_airport_iata><arrival_name_airport>Juan Santamaría International</arrival_name_airport><arrival_coordinates_lon>-84.20408</arrival_coordinates_lon><arrival_coordinates_lat>9.998238</arrival_coordinates_lat><arrival_country_code>CR</arrival_country_code><arrival_country_name>Costa Rica</arrival_country_name><arrival_city_code>SJO</arrival_city_code><arrival_city_name>San José</arrival_city_name><planes>73G</planes><plane_name>Boeing 737-700</plane_name></routes><routes><airline_iata>CM</airline_iata><departure_airport_iata>PTY</departure_airport_iata><departure_name_airport>Tocumen International</departure_name_airport><departure_coordinates_lon>-79.38764</departure_coordinates_lon><departure_coordinates_lat>9.066897</departure_coordinates_lat><departure_country_code>PA</departure_country_code><departure_country_name>Panama</departure_country_name><departure_city_code>PTY</departure_city_code><departure_city_name>Panama City</departure_city_name><arrival_airport_iata>LIR</arrival_airport_iata><arrival_name_airport>Daniel Oduber International</arrival_name_airport><arrival_coordinates_lon>-85.53839</arrival_coordinates_lon><arrival_coordinates_lat>10.600005</arrival_coordinates_lat><arrival_country_code>CR</arrival_country_code><arrival_country_name>Costa Rica</arrival_country_name><arrival_city_code>LIR</arrival_city_code><arrival_city_name>Liberia</arrival_city_name><planes>E90</planes><plane_name>Embraer ERJ-190</plane_name></routes><routes><airline_iata>CM</airline_iata><departure_airport_iata>PTY</departure_airport_iata><departure_name_airport>Tocumen International</departure_name_airport><departure_coordinates_lon>-79.38764</departure_coordinates_lon><departure_coordinates_lat>9.066897</departure_coordinates_lat><departure_country_code>PA</departure_country_code><departure_country_name>Panama</departure_country_name><departure_city_code>PTY</departure_city_code><departure_city_name>Panama City</departure_city_name><arrival_airport_iata>SJO</arrival_airport_iata><arrival_name_airport>Juan Santamaría International</arrival_name_airport><arrival_coordinates_lon>-84.20408</arrival_coordinates_lon><arrival_coordinates_lat>9.998238</arrival_coordinates_lat><arrival_country_code>CR</arrival_country_code><arrival_country_name>Costa Rica</arrival_country_name><arrival_city_code>SJO</arrival_city_code><arrival_city_name>San José</arrival_city_name><planes>E90</planes><plane_name>Embraer ERJ-190</plane_name></routes><routes><airline_iata>CM</airline_iata><departure_airport_iata>SAP</departure_airport_iata><departure_name_airport>Ramon Villeda Morales International</departure_name_airport><departure_coordinates_lon>-87.927795</departure_coordinates_lon><departure_coordinates_lat>15.456245</departure_coordinates_lat><departure_country_code>HN</departure_country_code><departure_country_name>Honduras</departure_country_name><departure_city_code>SAP</departure_city_code><departure_city_name>San Pedro Sula</departure_city_name><arrival_airport_iata>SJO</arrival_airport_iata><arrival_name_airport>Juan Santamaría International</arrival_name_airport><arrival_coordinates_lon>-84.20408</arrival_coordinates_lon><arrival_coordinates_lat>9.998238</arrival_coordinates_lat><arrival_country_code>CR</arrival_country_code><arrival_country_name>Costa Rica</arrival_country_name><arrival_city_code>SJO</arrival_city_code><arrival_city_name>San José</arrival_city_name><planes>73G</planes><plane_name>Boeing 737-700</plane_name></routes><routes><airline_iata>CM</airline_iata><departure_airport_iata>TGU</departure_airport_iata><departure_name_airport>Toncontin</departure_name_airport><departure_coordinates_lon>-87.21972</departure_coordinates_lon><departure_coordinates_lat>14.060123</departure_coordinates_lat><departure_country_code>HN</departure_country_code><departure_country_name>Honduras</departure_country_name><departure_city_code>TGU</departure_city_code><departure_city_name>Tegucigalpa</departure_city_name><arrival_airport_iata>SJO</arrival_airport_iata><arrival_name_airport>Juan Santamaría International</arrival_name_airport><arrival_coordinates_lon>-84.20408</arrival_coordinates_lon><arrival_coordinates_lat>9.998238</arrival_coordinates_lat><arrival_country_code>CR</arrival_country_code><arrival_country_name>Costa Rica</arrival_country_name><arrival_city_code>SJO</arrival_city_code><arrival_city_name>San José</arrival_city_name><planes>73G</planes><plane_name>Boeing 737-700</plane_name></routes><routes><airline_iata>CU</airline_iata><departure_airport_iata>HAV</departure_airport_iata><departure_name_airport>Jose Marti International</departure_name_airport><departure_coordinates_lon>-82.40818</departure_coordinates_lon><departure_coordinates_lat>22.99845</departure_coordinates_lat><departure_country_code>CU</departure_country_code><departure_country_name>Cuba</departure_country_name><departure_city_code>HAV</departure_city_code><departure_city_name>Havana</departure_city_name><arrival_airport_iata>SJO</arrival_airport_iata><arrival_name_airport>Juan Santamaría International</arrival_name_airport><arrival_coordinates_lon>-84.20408</arrival_coordinates_lon><arrival_coordinates_lat>9.998238</arrival_coordinates_lat><arrival_country_code>CR</arrival_country_code><arrival_country_name>Costa Rica</arrival_country_name><arrival_city_code>SJO</arrival_city_code><arrival_city_name>San José</arrival_city_name><planes>319</planes><plane_name>Airbus Industrie A319</plane_name></routes><routes><airline_iata>DE</airline_iata><departure_airport_iata>SDQ</departure_airport_iata><departure_name_airport>Aeropuerto de las Américas</departure_name_airport><departure_coordinates_lon>-69.67674</departure_coordinates_lon><departure_coordinates_lat>18.430124</departure_coordinates_lat><departure_country_code>DO</departure_country_code><departure_country_name>Dominican Republic</departure_country_name><departure_city_code>SDQ</departure_city_code><departure_city_name>Santo Domingo</departure_city_name><arrival_airport_iata>SJO</arrival_airport_iata><arrival_name_airport>Juan Santamaría International</arrival_name_airport><arrival_coordinates_lon>-84.20408</arrival_coordinates_lon><arrival_coordinates_lat>9.998238</arrival_coordinates_lat><arrival_country_code>CR</arrival_country_code><arrival_country_name>Costa Rica</arrival_country_name><arrival_city_code>SJO</arrival_city_code><arrival_city_name>San José</arrival_city_name><planes>767</planes><plane_name>Boeing 767</plane_name></routes><routes><airline_iata>DL</airline_iata><departure_airport_iata>ATL</departure_airport_iata><departure_name_airport>Hartsfield-jackson Atlanta International</departure_name_airport><departure_coordinates_lon>-84.44403</departure_coordinates_lon><departure_coordinates_lat>33.640068</departure_coordinates_lat><departure_country_code>US</departure_country_code><departure_country_name>United States</departure_country_name><departure_city_code>ATL</departure_city_code><departure_city_name>Atlanta</departure_city_name><arrival_airport_iata>LIR</arrival_airport_iata><arrival_name_airport>Daniel Oduber International</arrival_name_airport><arrival_coordinates_lon>-85.53839</arrival_coordinates_lon><arrival_coordinates_lat>10.600005</arrival_coordinates_lat><arrival_country_code>CR</arrival_country_code><arrival_country_name>Costa Rica</arrival_country_name><arrival_city_code>LIR</arrival_city_code><arrival_city_name>Liberia</arrival_city_name><planes>73H</planes><plane_name>Boeing 737-800 With Winglets</plane_name></routes><routes><airline_iata>DL</airline_iata><departure_airport_iata>ATL</departure_airport_iata><departure_name_airport>Hartsfield-jackson Atlanta International</departure_name_airport><departure_coordinates_lon>-84.44403</departure_coordinates_lon><departure_coordinates_lat>33.640068</departure_coordinates_lat><departure_country_code>US</departure_country_code><departure_country_name>United States</departure_country_name><departure_city_code>ATL</departure_city_code><departure_city_name>Atlanta</departure_city_name><arrival_airport_iata>SJO</arrival_airport_iata><arrival_name_airport>Juan Santamaría International</arrival_name_airport><arrival_coordinates_lon>-84.20408</arrival_coordinates_lon><arrival_coordinates_lat>9.998238</arrival_coordinates_lat><arrival_country_code>CR</arrival_country_code><arrival_country_name>Costa Rica</arrival_country_name><arrival_city_code>SJO</arrival_city_code><arrival_city_name>San José</arrival_city_name><planes>73W</planes><plane_name>Boeing 737-700 With Winglets</plane_name></routes><routes><airline_iata>IB</airline_iata><departure_airport_iata>MAD</departure_airport_iata><departure_name_airport>Barajas</departure_name_airport><departure_coordinates_lon>-3.570209</departure_coordinates_lon><departure_coordinates_lat>40.46515</departure_coordinates_lat><departure_country_code>ES</departure_country_code><departure_country_name>Spain</departure_country_name><departure_city_code>MAD</departure_city_code><departure_city_name>Madrid</departure_city_name><arrival_airport_iata>SJO</arrival_airport_iata><arrival_name_airport>Juan Santamaría International</arrival_name_airport><arrival_coordinates_lon>-84.20408</arrival_coordinates_lon><arrival_coordinates_lat>9.998238</arrival_coordinates_lat><arrival_country_code>CR</arrival_country_code><arrival_country_name>Costa Rica</arrival_country_name><arrival_city_code>SJO</arrival_city_code><arrival_city_name>San José</arrival_city_name><planes>342</planes><plane_name>Airbus Industrie A340-200</plane_name></routes><routes><airline_iata>IB</airline_iata><departure_airport_iata>PTY</departure_airport_iata><departure_name_airport>Tocumen International</departure_name_airport><departure_coordinates_lon>-79.38764</departure_coordinates_lon><departure_coordinates_lat>9.066897</departure_coordinates_lat><departure_country_code>PA</departure_country_code><departure_country_name>Panama</departure_country_name><departure_city_code>PTY</departure_city_code><departure_city_name>Panama City</departure_city_name><arrival_airport_iata>SJO</arrival_airport_iata><arrival_name_airport>Juan Santamaría International</arrival_name_airport><arrival_coordinates_lon>-84.20408</arrival_coordinates_lon><arrival_coordinates_lat>9.998238</arrival_coordinates_lat><arrival_country_code>CR</arrival_country_code><arrival_country_name>Costa Rica</arrival_country_name><arrival_city_code>SJO</arrival_city_code><arrival_city_name>San José</arrival_city_name><planes>73G</planes><plane_name>Boeing 737-700</plane_name></routes><routes><airline_iata>KL</airline_iata><departure_airport_iata>PTY</departure_airport_iata><departure_name_airport>Tocumen International</departure_name_airport><departure_coordinates_lon>-79.38764</departure_coordinates_lon><departure_coordinates_lat>9.066897</departure_coordinates_lat><departure_country_code>PA</departure_country_code><departure_country_name>Panama</departure_country_name><departure_city_code>PTY</departure_city_code><departure_city_name>Panama City</departure_city_name><arrival_airport_iata>SJO</arrival_airport_iata><arrival_name_airport>Juan Santamaría International</arrival_name_airport><arrival_coordinates_lon>-84.20408</arrival_coordinates_lon><arrival_coordinates_lat>9.998238</arrival_coordinates_lat><arrival_country_code>CR</arrival_country_code><arrival_country_name>Costa Rica</arrival_country_name><arrival_city_code>SJO</arrival_city_code><arrival_city_name>San José</arrival_city_name><planes>737</planes><plane_name>Boeing 737</plane_name></routes><routes><airline_iata>KL</airline_iata><departure_airport_iata>TGU</departure_airport_iata><departure_name_airport>Toncontin</departure_name_airport><departure_coordinates_lon>-87.21972</departure_coordinates_lon><departure_coordinates_lat>14.060123</departure_coordinates_lat><departure_country_code>HN</departure_country_code><departure_country_name>Honduras</departure_country_name><departure_city_code>TGU</departure_city_code><departure_city_name>Tegucigalpa</departure_city_name><arrival_airport_iata>SJO</arrival_airport_iata><arrival_name_airport>Juan Santamaría International</arrival_name_airport><arrival_coordinates_lon>-84.20408</arrival_coordinates_lon><arrival_coordinates_lat>9.998238</arrival_coordinates_lat><arrival_country_code>CR</arrival_country_code><arrival_country_name>Costa Rica</arrival_country_name><arrival_city_code>SJO</arrival_city_code><arrival_city_name>San José</arrival_city_name><planes>737</planes><plane_name>Boeing 737</plane_name></routes><routes><airline_iata>LR</airline_iata><departure_airport_iata>BOG</departure_airport_iata><departure_name_airport>El Nuevo Dorado International</departure_name_airport><departure_coordinates_lon>-74.143135</departure_coordinates_lon><departure_coordinates_lat>4.698602</departure_coordinates_lat><departure_country_code>CO</departure_country_code><departure_country_name>Colombia</departure_country_name><departure_city_code>BOG</departure_city_code><departure_city_name>Bogota</departure_city_name><arrival_airport_iata>SJO</arrival_airport_iata><arrival_name_airport>Juan Santamaría International</arrival_name_airport><arrival_coordinates_lon>-84.20408</arrival_coordinates_lon><arrival_coordinates_lat>9.998238</arrival_coordinates_lat><arrival_country_code>CR</arrival_country_code><arrival_country_name>Costa Rica</arrival_country_name><arrival_city_code>SJO</arrival_city_code><arrival_city_name>San José</arrival_city_name><planes>319</planes><plane_name>Airbus Industrie A319</plane_name></routes><routes><airline_iata>LR</airline_iata><departure_airport_iata>CCS</departure_airport_iata><departure_name_airport>Simon Bolivar International Airport</departure_name_airport><departure_coordinates_lon>-67.00551</departure_coordinates_lon><departure_coordinates_lat>10.596942</departure_coordinates_lat><departure_country_code>VE</departure_country_code><departure_country_name>Venezuela</departure_country_name><departure_city_code>CCS</departure_city_code><departure_city_name>Caracas</departure_city_name><arrival_airport_iata>SJO</arrival_airport_iata><arrival_name_airport>Juan Santamaría International</arrival_name_airport><arrival_coordinates_lon>-84.20408</arrival_coordinates_lon><arrival_coordinates_lat>9.998238</arrival_coordinates_lat><arrival_country_code>CR</arrival_country_code><arrival_country_name>Costa Rica</arrival_country_name><arrival_city_code>SJO</arrival_city_code><arrival_city_name>San José</arrival_city_name><planes>E90</planes><plane_name>Embraer ERJ-190</plane_name></routes><routes><airline_iata>LR</airline_iata><departure_airport_iata>DRK</departure_airport_iata><departure_name_airport>Drake Bay</departure_name_airport><departure_coordinates_lon>-83.6446</departure_coordinates_lon><departure_coordinates_lat>8.71962</departure_coordinates_lat><departure_country_code>CR</departure_country_code><departure_country_name>Costa Rica</departure_country_name><departure_city_code>DRK</departure_city_code><departure_city_name>Drake Bay</departure_city_name><arrival_airport_iata>SJO</arrival_airport_iata><arrival_name_airport>Juan Santamaría International</arrival_name_airport><arrival_coordinates_lon>-84.20408</arrival_coordinates_lon><arrival_coordinates_lat>9.998238</arrival_coordinates_lat><arrival_country_code>CR</arrival_country_code><arrival_country_name>Costa Rica</arrival_country_name><arrival_city_code>SJO</arrival_city_code><arrival_city_name>San José</arrival_city_name><planes>CNA</planes><plane_name>Cessna Light Aircraft</plane_name></routes><routes><airline_iata>LR</airline_iata><departure_airport_iata>GLF</departure_airport_iata><departure_name_airport>Golfito</departure_name_airport><departure_coordinates_lon>-83.18083</departure_coordinates_lon><departure_coordinates_lat>8.651389</departure_coordinates_lat><departure_country_code>CR</departure_country_code><departure_country_name>Costa Rica</departure_country_name><departure_city_code>GLF</departure_city_code><departure_city_name>Golfito</departure_city_name><arrival_airport_iata>SJO</arrival_airport_iata><arrival_name_airport>Juan Santamaría International</arrival_name_airport><arrival_coordinates_lon>-84.20408</arrival_coordinates_lon><arrival_coordinates_lat>9.998238</arrival_coordinates_lat><arrival_country_code>CR</arrival_country_code><arrival_country_name>Costa Rica</arrival_country_name><arrival_city_code>SJO</arrival_city_code><arrival_city_name>San José</arrival_city_name><planes>CNA</planes><plane_name>Cessna Light Aircraft</plane_name></routes><routes><airline_iata>LR</airline_iata><departure_airport_iata>GUA</departure_airport_iata><departure_name_airport>La Aurora</departure_name_airport><departure_coordinates_lon>-90.53068</departure_coordinates_lon><departure_coordinates_lat>14.588071</departure_coordinates_lat><departure_country_code>GT</departure_country_code><departure_country_name>Guatemala</departure_country_name><departure_city_code>GUA</departure_city_code><departure_city_name>Guatemala City</departure_city_name><arrival_airport_iata>SJO</arrival_airport_iata><arrival_name_airport>Juan Santamaría International</arrival_name_airport><arrival_coordinates_lon>-84.20408</arrival_coordinates_lon><arrival_coordinates_lat>9.998238</arrival_coordinates_lat><arrival_country_code>CR</arrival_country_code><arrival_country_name>Costa Rica</arrival_country_name><arrival_city_code>SJO</arrival_city_code><arrival_city_name>San José</arrival_city_name><planes>320</planes><plane_name>Airbus Industrie A320</plane_name></routes><routes><airline_iata>LR</airline_iata><departure_airport_iata>GYE</departure_airport_iata><departure_name_airport>Jose Joaquin De Olmedo</departure_name_airport><departure_coordinates_lon>-79.88032</departure_coordinates_lon><departure_coordinates_lat>-2.142654</departure_coordinates_lat><departure_country_code>EC</departure_country_code><departure_country_name>Ecuador</departure_country_name><departure_city_code>GYE</departure_city_code><departure_city_name>Guayaquil</departure_city_name><arrival_airport_iata>SJO</arrival_airport_iata><arrival_name_airport>Juan Santamaría International</arrival_name_airport><arrival_coordinates_lon>-84.20408</arrival_coordinates_lon><arrival_coordinates_lat>9.998238</arrival_coordinates_lat><arrival_country_code>CR</arrival_country_code><arrival_country_name>Costa Rica</arrival_country_name><arrival_city_code>SJO</arrival_city_code><arrival_city_name>San José</arrival_city_name><planes>320</planes><plane_name>Airbus Industrie A320</plane_name></routes><routes><airline_iata>LR</airline_iata><departure_airport_iata>HAV</departure_airport_iata><departure_name_airport>Jose Marti International</departure_name_airport><departure_coordinates_lon>-82.40818</departure_coordinates_lon><departure_coordinates_lat>22.99845</departure_coordinates_lat><departure_country_code>CU</departure_country_code><departure_country_name>Cuba</departure_country_name><departure_city_code>HAV</departure_city_code><departure_city_name>Havana</departure_city_name><arrival_airport_iata>SJO</arrival_airport_iata><arrival_name_airport>Juan Santamaría International</arrival_name_airport><arrival_coordinates_lon>-84.20408</arrival_coordinates_lon><arrival_coordinates_lat>9.998238</arrival_coordinates_lat><arrival_country_code>CR</arrival_country_code><arrival_country_name>Costa Rica</arrival_country_name><arrival_city_code>SJO</arrival_city_code><arrival_city_name>San José</arrival_city_name><planes>319</planes><plane_name>Airbus Industrie A319</plane_name></routes><routes><airline_iata>LR</airline_iata><departure_airport_iata>JFK</departure_airport_iata><departure_name_airport>John F Kennedy International</departure_name_airport><departure_coordinates_lon>-73.78817</departure_coordinates_lon><departure_coordinates_lat>40.642334</departure_coordinates_lat><departure_country_code>US</departure_country_code><departure_country_name>United States</departure_country_name><departure_city_code>NYC</departure_city_code><departure_city_name>New York</departure_city_name><arrival_airport_iata>SJO</arrival_airport_iata><arrival_name_airport>Juan Santamaría International</arrival_name_airport><arrival_coordinates_lon>-84.20408</arrival_coordinates_lon><arrival_coordinates_lat>9.998238</arrival_coordinates_lat><arrival_country_code>CR</arrival_country_code><arrival_country_name>Costa Rica</arrival_country_name><arrival_city_code>SJO</arrival_city_code><arrival_city_name>San José</arrival_city_name><planes>320</planes><plane_name>Airbus Industrie A320</plane_name></routes><routes><airline_iata>LR</airline_iata><departure_airport_iata>LAX</departure_airport_iata><departure_name_airport>Los Angeles International</departure_name_airport><departure_coordinates_lon>-118.40828</departure_coordinates_lon><departure_coordinates_lat>33.943398</departure_coordinates_lat><departure_country_code>US</departure_country_code><departure_country_name>United States</departure_country_name><departure_city_code>LAX</departure_city_code><departure_city_name>Los Angeles</departure_city_name><arrival_airport_iata>SJO</arrival_airport_iata><arrival_name_airport>Juan Santamaría International</arrival_name_airport><arrival_coordinates_lon>-84.20408</arrival_coordinates_lon><arrival_coordinates_lat>9.998238</arrival_coordinates_lat><arrival_country_code>CR</arrival_country_code><arrival_country_name>Costa Rica</arrival_country_name><arrival_city_code>SJO</arrival_city_code><arrival_city_name>San José</arrival_city_name><planes>319</planes><plane_name>Airbus Industrie A319</plane_name></routes><routes><airline_iata>LR</airline_iata><departure_airport_iata>LIM</departure_airport_iata><departure_name_airport>Jorge Chavez International</departure_name_airport><departure_coordinates_lon>-77.107666</departure_coordinates_lon><departure_coordinates_lat>-12.019421</departure_coordinates_lat><departure_country_code>PE</departure_country_code><departure_country_name>Peru</departure_country_name><departure_city_code>LIM</departure_city_code><departure_city_name>Lima</departure_city_name><arrival_airport_iata>SJO</arrival_airport_iata><arrival_name_airport>Juan Santamaría International</arrival_name_airport><arrival_coordinates_lon>-84.20408</arrival_coordinates_lon><arrival_coordinates_lat>9.998238</arrival_coordinates_lat><arrival_country_code>CR</arrival_country_code><arrival_country_name>Costa Rica</arrival_country_name><arrival_city_code>SJO</arrival_city_code><arrival_city_name>San José</arrival_city_name><planes>320</planes><plane_name>Airbus Industrie A320</plane_name></routes><routes><airline_iata>LR</airline_iata><departure_airport_iata>LIR</departure_airport_iata><departure_name_airport>Daniel Oduber International</departure_name_airport><departure_coordinates_lon>-85.53839</departure_coordinates_lon><departure_coordinates_lat>10.600005</departure_coordinates_lat><departure_country_code>CR</departure_country_code><departure_country_name>Costa Rica</departure_country_name><departure_city_code>LIR</departure_city_code><departure_city_name>Liberia</departure_city_name><arrival_airport_iata>SJO</arrival_airport_iata><arrival_name_airport>Juan Santamaría International</arrival_name_airport><arrival_coordinates_lon>-84.20408</arrival_coordinates_lon><arrival_coordinates_lat>9.998238</arrival_coordinates_lat><arrival_country_code>CR</arrival_country_code><arrival_country_name>Costa Rica</arrival_country_name><arrival_city_code>SJO</arrival_city_code><arrival_city_name>San José</arrival_city_name><planes>CNA</planes><plane_name>Cessna Light Aircraft</plane_name></routes><routes><airline_iata>LR</airline_iata><departure_airport_iata>MDE</departure_airport_iata><departure_name_airport>Jose Maria Cordova</departure_name_airport><departure_coordinates_lon>-75.42821</departure_coordinates_lon><departure_coordinates_lat>6.171382</departure_coordinates_lat><departure_country_code>CO</departure_country_code><departure_country_name>Colombia</departure_country_name><departure_city_code>MDE</departure_city_code><departure_city_name>Medellin</departure_city_name><arrival_airport_iata>SJO</arrival_airport_iata><arrival_name_airport>Juan Santamaría International</arrival_name_airport><arrival_coordinates_lon>-84.20408</arrival_coordinates_lon><arrival_coordinates_lat>9.998238</arrival_coordinates_lat><arrival_country_code>CR</arrival_country_code><arrival_country_name>Costa Rica</arrival_country_name><arrival_city_code>SJO</arrival_city_code><arrival_city_name>San José</arrival_city_name><planes>E90</planes><plane_name>Embraer ERJ-190</plane_name></routes><routes><airline_iata>LR</airline_iata><departure_airport_iata>MEX</departure_airport_iata><departure_name_airport>Internacional Benito Juarez</departure_name_airport><departure_coordinates_lon>-99.07278</departure_coordinates_lon><departure_coordinates_lat>19.435278</departure_coordinates_lat><departure_country_code>MX</departure_country_code><departure_country_name>Mexico</departure_country_name><departure_city_code>MEX</departure_city_code><departure_city_name>Mexico City</departure_city_name><arrival_airport_iata>SJO</arrival_airport_iata><arrival_name_airport>Juan Santamaría International</arrival_name_airport><arrival_coordinates_lon>-84.20408</arrival_coordinates_lon><arrival_coordinates_lat>9.998238</arrival_coordinates_lat><arrival_country_code>CR</arrival_country_code><arrival_country_name>Costa Rica</arrival_country_name><arrival_city_code>SJO</arrival_city_code><arrival_city_name>San José</arrival_city_name><planes>320</planes><plane_name>Airbus Industrie A320</plane_name></routes><routes><airline_iata>LR</airline_iata><departure_airport_iata>MGA</departure_airport_iata><departure_name_airport>Augusto C Sandino</departure_name_airport><departure_coordinates_lon>-86.171265</departure_coordinates_lon><departure_coordinates_lat>12.144838</departure_coordinates_lat><departure_country_code>NI</departure_country_code><departure_country_name>Nicaragua</departure_country_name><departure_city_code>MGA</departure_city_code><departure_city_name>Managua</departure_city_name><arrival_airport_iata>SJO</arrival_airport_iata><arrival_name_airport>Juan Santamaría International</arrival_name_airport><arrival_coordinates_lon>-84.20408</arrival_coordinates_lon><arrival_coordinates_lat>9.998238</arrival_coordinates_lat><arrival_country_code>CR</arrival_country_code><arrival_country_name>Costa Rica</arrival_country_name><arrival_city_code>SJO</arrival_city_code><arrival_city_name>San José</arrival_city_name><planes>E90</planes><plane_name>Embraer ERJ-190</plane_name></routes><routes><airline_iata>LR</airline_iata><departure_airport_iata>MGA</departure_airport_iata><departure_name_airport>Augusto C Sandino</departure_name_airport><departure_coordinates_lon>-86.171265</departure_coordinates_lon><departure_coordinates_lat>12.144838</departure_coordinates_lat><departure_country_code>NI</departure_country_code><departure_country_name>Nicaragua</departure_country_name><departure_city_code>MGA</departure_city_code><departure_city_name>Managua</departure_city_name><arrival_airport_iata>SJO</arrival_airport_iata><arrival_name_airport>Juan Santamaría International</arrival_name_airport><arrival_coordinates_lon>-84.20408</arrival_coordinates_lon><arrival_coordinates_lat>9.998238</arrival_coordinates_lat><arrival_country_code>CR</arrival_country_code><arrival_country_name>Costa Rica</arrival_country_name><arrival_city_code>SJO</arrival_city_code><arrival_city_name>San José</arrival_city_name><planes>ATR</planes><plane_name>Aerospatiale/Alenia ATR</plane_name></routes><routes><airline_iata>LR</airline_iata><departure_airport_iata>MIA</departure_airport_iata><departure_name_airport>Miami International Airport</departure_name_airport><departure_coordinates_lon>-80.27824</departure_coordinates_lon><departure_coordinates_lat>25.796</departure_coordinates_lat><departure_country_code>US</departure_country_code><departure_country_name>United States</departure_country_name><departure_city_code>MIA</departure_city_code><departure_city_name>Miami</departure_city_name><arrival_airport_iata>SJO</arrival_airport_iata><arrival_name_airport>Juan Santamaría International</arrival_name_airport><arrival_coordinates_lon>-84.20408</arrival_coordinates_lon><arrival_coordinates_lat>9.998238</arrival_coordinates_lat><arrival_country_code>CR</arrival_country_code><arrival_country_name>Costa Rica</arrival_country_name><arrival_city_code>SJO</arrival_city_code><arrival_city_name>San José</arrival_city_name><planes>E90</planes><plane_name>Embraer ERJ-190</plane_name></routes><routes><airline_iata>LR</airline_iata><departure_airport_iata>MTY</departure_airport_iata><departure_name_airport>Gen Mariano Escobedo</departure_name_airport><departure_coordinates_lon>-100.114395</departure_coordinates_lon><departure_coordinates_lat>25.77657</departure_coordinates_lat><departure_country_code>MX</departure_country_code><departure_country_name>Mexico</departure_country_name><departure_city_code>MTY</departure_city_code><departure_city_name>Monterrey</departure_city_name><arrival_airport_iata>SJO</arrival_airport_iata><arrival_name_airport>Juan Santamaría International</arrival_name_airport><arrival_coordinates_lon>-84.20408</arrival_coordinates_lon><arrival_coordinates_lat>9.998238</arrival_coordinates_lat><arrival_country_code>CR</arrival_country_code><arrival_country_name>Costa Rica</arrival_country_name><arrival_city_code>SJO</arrival_city_code><arrival_city_name>San José</arrival_city_name><planes>E90</planes><plane_name>Embraer ERJ-190</plane_name></routes><routes><airline_iata>LR</airline_iata><departure_airport_iata>PJM</departure_airport_iata><departure_name_airport>Puerto Jimenez</departure_name_airport><departure_coordinates_lon>-83.333336</departure_coordinates_lon><departure_coordinates_lat>8.583333</departure_coordinates_lat><departure_country_code>CR</departure_country_code><departure_country_name>Costa Rica</departure_country_name><departure_city_code>PJM</departure_city_code><departure_city_name>Puerto Jimenez</departure_city_name><arrival_airport_iata>SJO</arrival_airport_iata><arrival_name_airport>Juan Santamaría International</arrival_name_airport><arrival_coordinates_lon>-84.20408</arrival_coordinates_lon><arrival_coordinates_lat>9.998238</arrival_coordinates_lat><arrival_country_code>CR</arrival_country_code><arrival_country_name>Costa Rica</arrival_country_name><arrival_city_code>SJO</arrival_city_code><arrival_city_name>San José</arrival_city_name><planes>CNA</planes><plane_name>Cessna Light Aircraft</plane_name></routes><routes><airline_iata>LR</airline_iata><departure_airport_iata>PMZ</departure_airport_iata><departure_name_airport>Palmar Sur</departure_name_airport><departure_coordinates_lon>-83.46598</departure_coordinates_lon><departure_coordinates_lat>8.950836</departure_coordinates_lat><departure_country_code>CR</departure_country_code><departure_country_name>Costa Rica</departure_country_name><departure_city_code>PMZ</departure_city_code><departure_city_name>Palmar</departure_city_name><arrival_airport_iata>SJO</arrival_airport_iata><arrival_name_airport>Juan Santamaría International</arrival_name_airport><arrival_coordinates_lon>-84.20408</arrival_coordinates_lon><arrival_coordinates_lat>9.998238</arrival_coordinates_lat><arrival_country_code>CR</arrival_country_code><arrival_country_name>Costa Rica</arrival_country_name><arrival_city_code>SJO</arrival_city_code><arrival_city_name>San José</arrival_city_name><planes>CNA</planes><plane_name>Cessna Light Aircraft</plane_name></routes><routes><airline_iata>LR</airline_iata><departure_airport_iata>PTY</departure_airport_iata><departure_name_airport>Tocumen International</departure_name_airport><departure_coordinates_lon>-79.38764</departure_coordinates_lon><departure_coordinates_lat>9.066897</departure_coordinates_lat><departure_country_code>PA</departure_country_code><departure_country_name>Panama</departure_country_name><departure_city_code>PTY</departure_city_code><departure_city_name>Panama City</departure_city_name><arrival_airport_iata>SJO</arrival_airport_iata><arrival_name_airport>Juan Santamaría International</arrival_name_airport><arrival_coordinates_lon>-84.20408</arrival_coordinates_lon><arrival_coordinates_lat>9.998238</arrival_coordinates_lat><arrival_country_code>CR</arrival_country_code><arrival_country_name>Costa Rica</arrival_country_name><arrival_city_code>SJO</arrival_city_code><arrival_city_name>San José</arrival_city_name><planes>E90</planes><plane_name>Embraer ERJ-190</plane_name></routes><routes><airline_iata>LR</airline_iata><departure_airport_iata>SAL</departure_airport_iata><departure_name_airport>El Salvador International</departure_name_airport><departure_coordinates_lon>-89.05723</departure_coordinates_lon><departure_coordinates_lat>13.445126</departure_coordinates_lat><departure_country_code>SV</departure_country_code><departure_country_name>El Salvador</departure_country_name><departure_city_code>SAL</departure_city_code><departure_city_name>San Salvador</departure_city_name><arrival_airport_iata>SJO</arrival_airport_iata><arrival_name_airport>Juan Santamaría International</arrival_name_airport><arrival_coordinates_lon>-84.20408</arrival_coordinates_lon><arrival_coordinates_lat>9.998238</arrival_coordinates_lat><arrival_country_code>CR</arrival_country_code><arrival_country_name>Costa Rica</arrival_country_name><arrival_city_code>SJO</arrival_city_code><arrival_city_name>San José</arrival_city_name><planes>321</planes><plane_name>Airbus Industrie A321</plane_name></routes><routes><airline_iata>LR</airline_iata><departure_airport_iata>SAP</departure_airport_iata><departure_name_airport>Ramon Villeda Morales International</departure_name_airport><departure_coordinates_lon>-87.927795</departure_coordinates_lon><departure_coordinates_lat>15.456245</departure_coordinates_lat><departure_country_code>HN</departure_country_code><departure_country_name>Honduras</departure_country_name><departure_city_code>SAP</departure_city_code><departure_city_name>San Pedro Sula</departure_city_name><arrival_airport_iata>SJO</arrival_airport_iata><arrival_name_airport>Juan Santamaría International</arrival_name_airport><arrival_coordinates_lon>-84.20408</arrival_coordinates_lon><arrival_coordinates_lat>9.998238</arrival_coordinates_lat><arrival_country_code>CR</arrival_country_code><arrival_country_name>Costa Rica</arrival_country_name><arrival_city_code>SJO</arrival_city_code><arrival_city_name>San José</arrival_city_name><planes>ATR</planes><plane_name>Aerospatiale/Alenia ATR</plane_name></routes><routes><airline_iata>LR</airline_iata><departure_airport_iata>SJO</departure_airport_iata><departure_name_airport>Juan Santamaría International</departure_name_airport><departure_coordinates_lon>-84.20408</departure_coordinates_lon><departure_coordinates_lat>9.998238</departure_coordinates_lat><departure_country_code>CR</departure_country_code><departure_country_name>Costa Rica</departure_country_name><departure_city_code>SJO</departure_city_code><departure_city_name>San José</departure_city_name><arrival_airport_iata>DRK</arrival_airport_iata><arrival_name_airport>Drake Bay</arrival_name_airport><arrival_coordinates_lon>-83.6446</arrival_coordinates_lon><arrival_coordinates_lat>8.71962</arrival_coordinates_lat><arrival_country_code>CR</arrival_country_code><arrival_country_name>Costa Rica</arrival_country_name><arrival_city_code>DRK</arrival_city_code><arrival_city_name>Drake Bay</arrival_city_name><planes>CNA</planes><plane_name>Cessna Light Aircraft</plane_name></routes><routes><airline_iata>LR</airline_iata><departure_airport_iata>SJO</departure_airport_iata><departure_name_airport>Juan Santamaría International</departure_name_airport><departure_coordinates_lon>-84.20408</departure_coordinates_lon><departure_coordinates_lat>9.998238</departure_coordinates_lat><departure_country_code>CR</departure_country_code><departure_country_name>Costa Rica</departure_country_name><departure_city_code>SJO</departure_city_code><departure_city_name>San José</departure_city_name><arrival_airport_iata>GLF</arrival_airport_iata><arrival_name_airport>Golfito</arrival_name_airport><arrival_coordinates_lon>-83.18083</arrival_coordinates_lon><arrival_coordinates_lat>8.651389</arrival_coordinates_lat><arrival_country_code>CR</arrival_country_code><arrival_country_name>Costa Rica</arrival_country_name><arrival_city_code>GLF</arrival_city_code><arrival_city_name>Golfito</arrival_city_name><planes>CNA</planes><plane_name>Cessna Light Aircraft</plane_name></routes><routes><airline_iata>LR</airline_iata><departure_airport_iata>SJO</departure_airport_iata><departure_name_airport>Juan Santamaría International</departure_name_airport><departure_coordinates_lon>-84.20408</departure_coordinates_lon><departure_coordinates_lat>9.998238</departure_coordinates_lat><departure_country_code>CR</departure_country_code><departure_country_name>Costa Rica</departure_country_name><departure_city_code>SJO</departure_city_code><departure_city_name>San José</departure_city_name><arrival_airport_iata>LIR</arrival_airport_iata><arrival_name_airport>Daniel Oduber International</arrival_name_airport><arrival_coordinates_lon>-85.53839</arrival_coordinates_lon><arrival_coordinates_lat>10.600005</arrival_coordinates_lat><arrival_country_code>CR</arrival_country_code><arrival_country_name>Costa Rica</arrival_country_name><arrival_city_code>LIR</arrival_city_code><arrival_city_name>Liberia</arrival_city_name><planes>CNA</planes><plane_name>Cessna Light Aircraft</plane_name></routes><routes><airline_iata>LR</airline_iata><departure_airport_iata>SJO</departure_airport_iata><departure_name_airport>Juan Santamaría International</departure_name_airport><departure_coordinates_lon>-84.20408</departure_coordinates_lon><departure_coordinates_lat>9.998238</departure_coordinates_lat><departure_country_code>CR</departure_country_code><departure_country_name>Costa Rica</departure_country_name><departure_city_code>SJO</departure_city_code><departure_city_name>San José</departure_city_name><arrival_airport_iata>PJM</arrival_airport_iata><arrival_name_airport>Puerto Jimenez</arrival_name_airport><arrival_coordinates_lon>-83.333336</arrival_coordinates_lon><arrival_coordinates_lat>8.583333</arrival_coordinates_lat><arrival_country_code>CR</arrival_country_code><arrival_country_name>Costa Rica</arrival_country_name><arrival_city_code>PJM</arrival_city_code><arrival_city_name>Puerto Jimenez</arrival_city_name><planes>CNA</planes><plane_name>Cessna Light Aircraft</plane_name></routes><routes><airline_iata>LR</airline_iata><departure_airport_iata>SJO</departure_airport_iata><departure_name_airport>Juan Santamaría International</departure_name_airport><departure_coordinates_lon>-84.20408</departure_coordinates_lon><departure_coordinates_lat>9.998238</departure_coordinates_lat><departure_country_code>CR</departure_country_code><departure_country_name>Costa Rica</departure_country_name><departure_city_code>SJO</departure_city_code><departure_city_name>San José</departure_city_name><arrival_airport_iata>PMZ</arrival_airport_iata><arrival_name_airport>Palmar Sur</arrival_name_airport><arrival_coordinates_lon>-83.46598</arrival_coordinates_lon><arrival_coordinates_lat>8.950836</arrival_coordinates_lat><arrival_country_code>CR</arrival_country_code><arrival_country_name>Costa Rica</arrival_country_name><arrival_city_code>PMZ</arrival_city_code><arrival_city_name>Palmar</arrival_city_name><planes>CNA</planes><plane_name>Cessna Light Aircraft</plane_name></routes><routes><airline_iata>LR</airline_iata><departure_airport_iata>SJO</departure_airport_iata><departure_name_airport>Juan Santamaría International</departure_name_airport><departure_coordinates_lon>-84.20408</departure_coordinates_lon><departure_coordinates_lat>9.998238</departure_coordinates_lat><departure_country_code>CR</departure_country_code><departure_country_name>Costa Rica</departure_country_name><departure_city_code>SJO</departure_city_code><departure_city_name>San José</departure_city_name><arrival_airport_iata>TMU</arrival_airport_iata><arrival_name_airport>Tambor</arrival_name_airport><arrival_coordinates_lon>-85.01667</arrival_coordinates_lon><arrival_coordinates_lat>9.733333</arrival_coordinates_lat><arrival_country_code>CR</arrival_country_code><arrival_country_name>Costa Rica</arrival_country_name><arrival_city_code>TMU</arrival_city_code><arrival_city_name>Tambor</arrival_city_name><planes>CNA</planes><plane_name>Cessna Light Aircraft</plane_name></routes><routes><airline_iata>LR</airline_iata><departure_airport_iata>SJO</departure_airport_iata><departure_name_airport>Juan Santamaría International</departure_name_airport><departure_coordinates_lon>-84.20408</departure_coordinates_lon><departure_coordinates_lat>9.998238</departure_coordinates_lat><departure_country_code>CR</departure_country_code><departure_country_name>Costa Rica</departure_country_name><departure_city_code>SJO</departure_city_code><departure_city_name>San José</departure_city_name><arrival_airport_iata>TNO</arrival_airport_iata><arrival_name_airport>Tamarindo</arrival_name_airport><arrival_coordinates_lon>-85.815475</arrival_coordinates_lon><arrival_coordinates_lat>10.314033</arrival_coordinates_lat><arrival_country_code>CR</arrival_country_code><arrival_country_name>Costa Rica</arrival_country_name><arrival_city_code>TNO</arrival_city_code><arrival_city_name>Tamarindo</arrival_city_name><planes>CNA</planes><plane_name>Cessna Light Aircraft</plane_name></routes><routes><airline_iata>LR</airline_iata><departure_airport_iata>SJO</departure_airport_iata><departure_name_airport>Juan Santamaría International</departure_name_airport><departure_coordinates_lon>-84.20408</departure_coordinates_lon><departure_coordinates_lat>9.998238</departure_coordinates_lat><departure_country_code>CR</departure_country_code><departure_country_name>Costa Rica</departure_country_name><departure_city_code>SJO</departure_city_code><departure_city_name>San José</departure_city_name><arrival_airport_iata>XQP</arrival_airport_iata><arrival_name_airport>Quepos</arrival_name_airport><arrival_coordinates_lon>-84.13335</arrival_coordinates_lon><arrival_coordinates_lat>9.439146</arrival_coordinates_lat><arrival_country_code>CR</arrival_country_code><arrival_country_name>Costa Rica</arrival_country_name><arrival_city_code>XQP</arrival_city_code><arrival_city_name>Pavones</arrival_city_name><planes>CNA</planes><plane_name>Cessna Light Aircraft</plane_name></routes><routes><airline_iata>LR</airline_iata><departure_airport_iata>TGU</departure_airport_iata><departure_name_airport>Toncontin</departure_name_airport><departure_coordinates_lon>-87.21972</departure_coordinates_lon><departure_coordinates_lat>14.060123</departure_coordinates_lat><departure_country_code>HN</departure_country_code><departure_country_name>Honduras</departure_country_name><departure_city_code>TGU</departure_city_code><departure_city_name>Tegucigalpa</departure_city_name><arrival_airport_iata>SJO</arrival_airport_iata><arrival_name_airport>Juan Santamaría International</arrival_name_airport><arrival_coordinates_lon>-84.20408</arrival_coordinates_lon><arrival_coordinates_lat>9.998238</arrival_coordinates_lat><arrival_country_code>CR</arrival_country_code><arrival_country_name>Costa Rica</arrival_country_name><arrival_city_code>SJO</arrival_city_code><arrival_city_name>San José</arrival_city_name><planes>ATR</planes><plane_name>Aerospatiale/Alenia ATR</plane_name></routes><routes><airline_iata>LR</airline_iata><departure_airport_iata>TMU</departure_airport_iata><departure_name_airport>Tambor</departure_name_airport><departure_coordinates_lon>-85.01667</departure_coordinates_lon><departure_coordinates_lat>9.733333</departure_coordinates_lat><departure_country_code>CR</departure_country_code><departure_country_name>Costa Rica</departure_country_name><departure_city_code>TMU</departure_city_code><departure_city_name>Tambor</departure_city_name><arrival_airport_iata>SJO</arrival_airport_iata><arrival_name_airport>Juan Santamaría International</arrival_name_airport><arrival_coordinates_lon>-84.20408</arrival_coordinates_lon><arrival_coordinates_lat>9.998238</arrival_coordinates_lat><arrival_country_code>CR</arrival_country_code><arrival_country_name>Costa Rica</arrival_country_name><arrival_city_code>SJO</arrival_city_code><arrival_city_name>San José</arrival_city_name><planes>CNA</planes><plane_name>Cessna Light Aircraft</plane_name></routes><routes><airline_iata>LR</airline_iata><departure_airport_iata>TNO</departure_airport_iata><departure_name_airport>Tamarindo</departure_name_airport><departure_coordinates_lon>-85.815475</departure_coordinates_lon><departure_coordinates_lat>10.314033</departure_coordinates_lat><departure_country_code>CR</departure_country_code><departure_country_name>Costa Rica</departure_country_name><departure_city_code>TNO</departure_city_code><departure_city_name>Tamarindo</departure_city_name><arrival_airport_iata>SJO</arrival_airport_iata><arrival_name_airport>Juan Santamaría International</arrival_name_airport><arrival_coordinates_lon>-84.20408</arrival_coordinates_lon><arrival_coordinates_lat>9.998238</arrival_coordinates_lat><arrival_country_code>CR</arrival_country_code><arrival_country_name>Costa Rica</arrival_country_name><arrival_city_code>SJO</arrival_city_code><arrival_city_name>San José</arrival_city_name><planes>CNA</planes><plane_name>Cessna Light Aircraft</plane_name></routes><routes><airline_iata>LR</airline_iata><departure_airport_iata>XQP</departure_airport_iata><departure_name_airport>Quepos</departure_name_airport><departure_coordinates_lon>-84.13335</departure_coordinates_lon><departure_coordinates_lat>9.439146</departure_coordinates_lat><departure_country_code>CR</departure_country_code><departure_country_name>Costa Rica</departure_country_name><departure_city_code>XQP</departure_city_code><departure_city_name>Pavones</departure_city_name><arrival_airport_iata>SJO</arrival_airport_iata><arrival_name_airport>Juan Santamaría International</arrival_name_airport><arrival_coordinates_lon>-84.20408</arrival_coordinates_lon><arrival_coordinates_lat>9.998238</arrival_coordinates_lat><arrival_country_code>CR</arrival_country_code><arrival_country_name>Costa Rica</arrival_country_name><arrival_city_code>SJO</arrival_city_code><arrival_city_name>San José</arrival_city_name><planes>CNA</planes><plane_name>Cessna Light Aircraft</plane_name></routes><routes><airline_iata>NK</airline_iata><departure_airport_iata>FLL</departure_airport_iata><departure_name_airport>Fort Lauderdale–Hollywood International</departure_name_airport><departure_coordinates_lon>-80.144905</departure_coordinates_lon><departure_coordinates_lat>26.071491</departure_coordinates_lat><departure_country_code>US</departure_country_code><departure_country_name>United States</departure_country_name><departure_city_code>FLL</departure_city_code><departure_city_name>Fort Lauderdale</departure_city_name><arrival_airport_iata>SJO</arrival_airport_iata><arrival_name_airport>Juan Santamaría International</arrival_name_airport><arrival_coordinates_lon>-84.20408</arrival_coordinates_lon><arrival_coordinates_lat>9.998238</arrival_coordinates_lat><arrival_country_code>CR</arrival_country_code><arrival_country_name>Costa Rica</arrival_country_name><arrival_city_code>SJO</arrival_city_code><arrival_city_name>San José</arrival_city_name><planes>320</planes><plane_name>Airbus Industrie A320</plane_name></routes><routes><airline_iata>RZ</airline_iata><departure_airport_iata>DRK</departure_airport_iata><departure_name_airport>Drake Bay</departure_name_airport><departure_coordinates_lon>-83.6446</departure_coordinates_lon><departure_coordinates_lat>8.71962</departure_coordinates_lat><departure_country_code>CR</departure_country_code><departure_country_name>Costa Rica</departure_country_name><departure_city_code>DRK</departure_city_code><departure_city_name>Drake Bay</departure_city_name><arrival_airport_iata>SJO</arrival_airport_iata><arrival_name_airport>Juan Santamaría International</arrival_name_airport><arrival_coordinates_lon>-84.20408</arrival_coordinates_lon><arrival_coordinates_lat>9.998238</arrival_coordinates_lat><arrival_country_code>CR</arrival_country_code><arrival_country_name>Costa Rica</arrival_country_name><arrival_city_code>SJO</arrival_city_code><arrival_city_name>San José</arrival_city_name><planes>CNA</planes><plane_name>Cessna Light Aircraft</plane_name></routes><routes><airline_iata>RZ</airline_iata><departure_airport_iata>GLF</departure_airport_iata><departure_name_airport>Golfito</departure_name_airport><departure_coordinates_lon>-83.18083</departure_coordinates_lon><departure_coordinates_lat>8.651389</departure_coordinates_lat><departure_country_code>CR</departure_country_code><departure_country_name>Costa Rica</departure_country_name><departure_city_code>GLF</departure_city_code><departure_city_name>Golfito</departure_city_name><arrival_airport_iata>SJO</arrival_airport_iata><arrival_name_airport>Juan Santamaría International</arrival_name_airport><arrival_coordinates_lon>-84.20408</arrival_coordinates_lon><arrival_coordinates_lat>9.998238</arrival_coordinates_lat><arrival_country_code>CR</arrival_country_code><arrival_country_name>Costa Rica</arrival_country_name><arrival_city_code>SJO</arrival_city_code><arrival_city_name>San José</arrival_city_name><planes>CNA</planes><plane_name>Cessna Light Aircraft</plane_name></routes><routes><airline_iata>RZ</airline_iata><departure_airport_iata>LIR</departure_airport_iata><departure_name_airport>Daniel Oduber International</departure_name_airport><departure_coordinates_lon>-85.53839</departure_coordinates_lon><departure_coordinates_lat>10.600005</departure_coordinates_lat><departure_country_code>CR</departure_country_code><departure_country_name>Costa Rica</departure_country_name><departure_city_code>LIR</departure_city_code><departure_city_name>Liberia</departure_city_name><arrival_airport_iata>SJO</arrival_airport_iata><arrival_name_airport>Juan Santamaría International</arrival_name_airport><arrival_coordinates_lon>-84.20408</arrival_coordinates_lon><arrival_coordinates_lat>9.998238</arrival_coordinates_lat><arrival_country_code>CR</arrival_country_code><arrival_country_name>Costa Rica</arrival_country_name><arrival_city_code>SJO</arrival_city_code><arrival_city_name>San José</arrival_city_name><planes>CNA</planes><plane_name>Cessna Light Aircraft</plane_name></routes><routes><airline_iata>RZ</airline_iata><departure_airport_iata>PJM</departure_airport_iata><departure_name_airport>Puerto Jimenez</departure_name_airport><departure_coordinates_lon>-83.333336</departure_coordinates_lon><departure_coordinates_lat>8.583333</departure_coordinates_lat><departure_country_code>CR</departure_country_code><departure_country_name>Costa Rica</departure_country_name><departure_city_code>PJM</departure_city_code><departure_city_name>Puerto Jimenez</departure_city_name><arrival_airport_iata>SJO</arrival_airport_iata><arrival_name_airport>Juan Santamaría International</arrival_name_airport><arrival_coordinates_lon>-84.20408</arrival_coordinates_lon><arrival_coordinates_lat>9.998238</arrival_coordinates_lat><arrival_country_code>CR</arrival_country_code><arrival_country_name>Costa Rica</arrival_country_name><arrival_city_code>SJO</arrival_city_code><arrival_city_name>San José</arrival_city_name><planes>CNA</planes><plane_name>Cessna Light Aircraft</plane_name></routes><routes><airline_iata>RZ</airline_iata><departure_airport_iata>PMZ</departure_airport_iata><departure_name_airport>Palmar Sur</departure_name_airport><departure_coordinates_lon>-83.46598</departure_coordinates_lon><departure_coordinates_lat>8.950836</departure_coordinates_lat><departure_country_code>CR</departure_country_code><departure_country_name>Costa Rica</departure_country_name><departure_city_code>PMZ</departure_city_code><departure_city_name>Palmar</departure_city_name><arrival_airport_iata>SJO</arrival_airport_iata><arrival_name_airport>Juan Santamaría International</arrival_name_airport><arrival_coordinates_lon>-84.20408</arrival_coordinates_lon><arrival_coordinates_lat>9.998238</arrival_coordinates_lat><arrival_country_code>CR</arrival_country_code><arrival_country_name>Costa Rica</arrival_country_name><arrival_city_code>SJO</arrival_city_code><arrival_city_name>San José</arrival_city_name><planes>CNA</planes><plane_name>Cessna Light Aircraft</plane_name></routes><routes><airline_iata>RZ</airline_iata><departure_airport_iata>SJO</departure_airport_iata><departure_name_airport>Juan Santamaría International</departure_name_airport><departure_coordinates_lon>-84.20408</departure_coordinates_lon><departure_coordinates_lat>9.998238</departure_coordinates_lat><departure_country_code>CR</departure_country_code><departure_country_name>Costa Rica</departure_country_name><departure_city_code>SJO</departure_city_code><departure_city_name>San José</departure_city_name><arrival_airport_iata>DRK</arrival_airport_iata><arrival_name_airport>Drake Bay</arrival_name_airport><arrival_coordinates_lon>-83.6446</arrival_coordinates_lon><arrival_coordinates_lat>8.71962</arrival_coordinates_lat><arrival_country_code>CR</arrival_country_code><arrival_country_name>Costa Rica</arrival_country_name><arrival_city_code>DRK</arrival_city_code><arrival_city_name>Drake Bay</arrival_city_name><planes>CNA</planes><plane_name>Cessna Light Aircraft</plane_name></routes><routes><airline_iata>RZ</airline_iata><departure_airport_iata>SJO</departure_airport_iata><departure_name_airport>Juan Santamaría International</departure_name_airport><departure_coordinates_lon>-84.20408</departure_coordinates_lon><departure_coordinates_lat>9.998238</departure_coordinates_lat><departure_country_code>CR</departure_country_code><departure_country_name>Costa Rica</departure_country_name><departure_city_code>SJO</departure_city_code><departure_city_name>San José</departure_city_name><arrival_airport_iata>GLF</arrival_airport_iata><arrival_name_airport>Golfito</arrival_name_airport><arrival_coordinates_lon>-83.18083</arrival_coordinates_lon><arrival_coordinates_lat>8.651389</arrival_coordinates_lat><arrival_country_code>CR</arrival_country_code><arrival_country_name>Costa Rica</arrival_country_name><arrival_city_code>GLF</arrival_city_code><arrival_city_name>Golfito</arrival_city_name><planes>CNA</planes><plane_name>Cessna Light Aircraft</plane_name></routes><routes><airline_iata>RZ</airline_iata><departure_airport_iata>SJO</departure_airport_iata><departure_name_airport>Juan Santamaría International</departure_name_airport><departure_coordinates_lon>-84.20408</departure_coordinates_lon><departure_coordinates_lat>9.998238</departure_coordinates_lat><departure_country_code>CR</departure_country_code><departure_country_name>Costa Rica</departure_country_name><departure_city_code>SJO</departure_city_code><departure_city_name>San José</departure_city_name><arrival_airport_iata>LIR</arrival_airport_iata><arrival_name_airport>Daniel Oduber International</arrival_name_airport><arrival_coordinates_lon>-85.53839</arrival_coordinates_lon><arrival_coordinates_lat>10.600005</arrival_coordinates_lat><arrival_country_code>CR</arrival_country_code><arrival_country_name>Costa Rica</arrival_country_name><arrival_city_code>LIR</arrival_city_code><arrival_city_name>Liberia</arrival_city_name><planes>CNA</planes><plane_name>Cessna Light Aircraft</plane_name></routes><routes><airline_iata>RZ</airline_iata><departure_airport_iata>SJO</departure_airport_iata><departure_name_airport>Juan Santamaría International</departure_name_airport><departure_coordinates_lon>-84.20408</departure_coordinates_lon><departure_coordinates_lat>9.998238</departure_coordinates_lat><departure_country_code>CR</departure_country_code><departure_country_name>Costa Rica</departure_country_name><departure_city_code>SJO</departure_city_code><departure_city_name>San José</departure_city_name><arrival_airport_iata>PJM</arrival_airport_iata><arrival_name_airport>Puerto Jimenez</arrival_name_airport><arrival_coordinates_lon>-83.333336</arrival_coordinates_lon><arrival_coordinates_lat>8.583333</arrival_coordinates_lat><arrival_country_code>CR</arrival_country_code><arrival_country_name>Costa Rica</arrival_country_name><arrival_city_code>PJM</arrival_city_code><arrival_city_name>Puerto Jimenez</arrival_city_name><planes>CNA</planes><plane_name>Cessna Light Aircraft</plane_name></routes><routes><airline_iata>RZ</airline_iata><departure_airport_iata>SJO</departure_airport_iata><departure_name_airport>Juan Santamaría International</departure_name_airport><departure_coordinates_lon>-84.20408</departure_coordinates_lon><departure_coordinates_lat>9.998238</departure_coordinates_lat><departure_country_code>CR</departure_country_code><departure_country_name>Costa Rica</departure_country_name><departure_city_code>SJO</departure_city_code><departure_city_name>San José</departure_city_name><arrival_airport_iata>PMZ</arrival_airport_iata><arrival_name_airport>Palmar Sur</arrival_name_airport><arrival_coordinates_lon>-83.46598</arrival_coordinates_lon><arrival_coordinates_lat>8.950836</arrival_coordinates_lat><arrival_country_code>CR</arrival_country_code><arrival_country_name>Costa Rica</arrival_country_name><arrival_city_code>PMZ</arrival_city_code><arrival_city_name>Palmar</arrival_city_name><planes>CNA</planes><plane_name>Cessna Light Aircraft</plane_name></routes><routes><airline_iata>RZ</airline_iata><departure_airport_iata>SJO</departure_airport_iata><departure_name_airport>Juan Santamaría International</departure_name_airport><departure_coordinates_lon>-84.20408</departure_coordinates_lon><departure_coordinates_lat>9.998238</departure_coordinates_lat><departure_country_code>CR</departure_country_code><departure_country_name>Costa Rica</departure_country_name><departure_city_code>SJO</departure_city_code><departure_city_name>San José</departure_city_name><arrival_airport_iata>TMU</arrival_airport_iata><arrival_name_airport>Tambor</arrival_name_airport><arrival_coordinates_lon>-85.01667</arrival_coordinates_lon><arrival_coordinates_lat>9.733333</arrival_coordinates_lat><arrival_country_code>CR</arrival_country_code><arrival_country_name>Costa Rica</arrival_country_name><arrival_city_code>TMU</arrival_city_code><arrival_city_name>Tambor</arrival_city_name><planes>CNA</planes><plane_name>Cessna Light Aircraft</plane_name></routes><routes><airline_iata>RZ</airline_iata><departure_airport_iata>SJO</departure_airport_iata><departure_name_airport>Juan Santamaría International</departure_name_airport><departure_coordinates_lon>-84.20408</departure_coordinates_lon><departure_coordinates_lat>9.998238</departure_coordinates_lat><departure_country_code>CR</departure_country_code><departure_country_name>Costa Rica</departure_country_name><departure_city_code>SJO</departure_city_code><departure_city_name>San José</departure_city_name><arrival_airport_iata>TNO</arrival_airport_iata><arrival_name_airport>Tamarindo</arrival_name_airport><arrival_coordinates_lon>-85.815475</arrival_coordinates_lon><arrival_coordinates_lat>10.314033</arrival_coordinates_lat><arrival_country_code>CR</arrival_country_code><arrival_country_name>Costa Rica</arrival_country_name><arrival_city_code>TNO</arrival_city_code><arrival_city_name>Tamarindo</arrival_city_name><planes>CNA</planes><plane_name>Cessna Light Aircraft</plane_name></routes><routes><airline_iata>RZ</airline_iata><departure_airport_iata>SJO</departure_airport_iata><departure_name_airport>Juan Santamaría International</departure_name_airport><departure_coordinates_lon>-84.20408</departure_coordinates_lon><departure_coordinates_lat>9.998238</departure_coordinates_lat><departure_country_code>CR</departure_country_code><departure_country_name>Costa Rica</departure_country_name><departure_city_code>SJO</departure_city_code><departure_city_name>San José</departure_city_name><arrival_airport_iata>XQP</arrival_airport_iata><arrival_name_airport>Quepos</arrival_name_airport><arrival_coordinates_lon>-84.13335</arrival_coordinates_lon><arrival_coordinates_lat>9.439146</arrival_coordinates_lat><arrival_country_code>CR</arrival_country_code><arrival_country_name>Costa Rica</arrival_country_name><arrival_city_code>XQP</arrival_city_code><arrival_city_name>Pavones</arrival_city_name><planes>CNA</planes><plane_name>Cessna Light Aircraft</plane_name></routes><routes><airline_iata>RZ</airline_iata><departure_airport_iata>TMU</departure_airport_iata><departure_name_airport>Tambor</departure_name_airport><departure_coordinates_lon>-85.01667</departure_coordinates_lon><departure_coordinates_lat>9.733333</departure_coordinates_lat><departure_country_code>CR</departure_country_code><departure_country_name>Costa Rica</departure_country_name><departure_city_code>TMU</departure_city_code><departure_city_name>Tambor</departure_city_name><arrival_airport_iata>SJO</arrival_airport_iata><arrival_name_airport>Juan Santamaría International</arrival_name_airport><arrival_coordinates_lon>-84.20408</arrival_coordinates_lon><arrival_coordinates_lat>9.998238</arrival_coordinates_lat><arrival_country_code>CR</arrival_country_code><arrival_country_name>Costa Rica</arrival_country_name><arrival_city_code>SJO</arrival_city_code><arrival_city_name>San José</arrival_city_name><planes>CNA</planes><plane_name>Cessna Light Aircraft</plane_name></routes><routes><airline_iata>RZ</airline_iata><departure_airport_iata>TNO</departure_airport_iata><departure_name_airport>Tamarindo</departure_name_airport><departure_coordinates_lon>-85.815475</departure_coordinates_lon><departure_coordinates_lat>10.314033</departure_coordinates_lat><departure_country_code>CR</departure_country_code><departure_country_name>Costa Rica</departure_country_name><departure_city_code>TNO</departure_city_code><departure_city_name>Tamarindo</departure_city_name><arrival_airport_iata>SJO</arrival_airport_iata><arrival_name_airport>Juan Santamaría International</arrival_name_airport><arrival_coordinates_lon>-84.20408</arrival_coordinates_lon><arrival_coordinates_lat>9.998238</arrival_coordinates_lat><arrival_country_code>CR</arrival_country_code><arrival_country_name>Costa Rica</arrival_country_name><arrival_city_code>SJO</arrival_city_code><arrival_city_name>San José</arrival_city_name><planes>CNA</planes><plane_name>Cessna Light Aircraft</plane_name></routes><routes><airline_iata>RZ</airline_iata><departure_airport_iata>XQP</departure_airport_iata><departure_name_airport>Quepos</departure_name_airport><departure_coordinates_lon>-84.13335</departure_coordinates_lon><departure_coordinates_lat>9.439146</departure_coordinates_lat><departure_country_code>CR</departure_country_code><departure_country_name>Costa Rica</departure_country_name><departure_city_code>XQP</departure_city_code><departure_city_name>Pavones</departure_city_name><arrival_airport_iata>SJO</arrival_airport_iata><arrival_name_airport>Juan Santamaría International</arrival_name_airport><arrival_coordinates_lon>-84.20408</arrival_coordinates_lon><arrival_coordinates_lat>9.998238</arrival_coordinates_lat><arrival_country_code>CR</arrival_country_code><arrival_country_name>Costa Rica</arrival_country_name><arrival_city_code>SJO</arrival_city_code><arrival_city_name>San José</arrival_city_name><planes>CNA</planes><plane_name>Cessna Light Aircraft</plane_name></routes><routes><airline_iata>TA</airline_iata><departure_airport_iata>CCS</departure_airport_iata><departure_name_airport>Simon Bolivar International Airport</departure_name_airport><departure_coordinates_lon>-67.00551</departure_coordinates_lon><departure_coordinates_lat>10.596942</departure_coordinates_lat><departure_country_code>VE</departure_country_code><departure_country_name>Venezuela</departure_country_name><departure_city_code>CCS</departure_city_code><departure_city_name>Caracas</departure_city_name><arrival_airport_iata>SJO</arrival_airport_iata><arrival_name_airport>Juan Santamaría International</arrival_name_airport><arrival_coordinates_lon>-84.20408</arrival_coordinates_lon><arrival_coordinates_lat>9.998238</arrival_coordinates_lat><arrival_country_code>CR</arrival_country_code><arrival_country_name>Costa Rica</arrival_country_name><arrival_city_code>SJO</arrival_city_code><arrival_city_name>San José</arrival_city_name><planes>E90</planes><plane_name>Embraer ERJ-190</plane_name></routes><routes><airline_iata>TA</airline_iata><departure_airport_iata>LIM</departure_airport_iata><departure_name_airport>Jorge Chavez International</departure_name_airport><departure_coordinates_lon>-77.107666</departure_coordinates_lon><departure_coordinates_lat>-12.019421</departure_coordinates_lat><departure_country_code>PE</departure_country_code><departure_country_name>Peru</departure_country_name><departure_city_code>LIM</departure_city_code><departure_city_name>Lima</departure_city_name><arrival_airport_iata>SJO</arrival_airport_iata><arrival_name_airport>Juan Santamaría International</arrival_name_airport><arrival_coordinates_lon>-84.20408</arrival_coordinates_lon><arrival_coordinates_lat>9.998238</arrival_coordinates_lat><arrival_country_code>CR</arrival_country_code><arrival_country_name>Costa Rica</arrival_country_name><arrival_city_code>SJO</arrival_city_code><arrival_city_name>San José</arrival_city_name><planes>320</planes><plane_name>Airbus Industrie A320</plane_name></routes><routes><airline_iata>TA</airline_iata><departure_airport_iata>MEX</departure_airport_iata><departure_name_airport>Internacional Benito Juarez</departure_name_airport><departure_coordinates_lon>-99.07278</departure_coordinates_lon><departure_coordinates_lat>19.435278</departure_coordinates_lat><departure_country_code>MX</departure_country_code><departure_country_name>Mexico</departure_country_name><departure_city_code>MEX</departure_city_code><departure_city_name>Mexico City</departure_city_name><arrival_airport_iata>SJO</arrival_airport_iata><arrival_name_airport>Juan Santamaría International</arrival_name_airport><arrival_coordinates_lon>-84.20408</arrival_coordinates_lon><arrival_coordinates_lat>9.998238</arrival_coordinates_lat><arrival_country_code>CR</arrival_country_code><arrival_country_name>Costa Rica</arrival_country_name><arrival_city_code>SJO</arrival_city_code><arrival_city_name>San José</arrival_city_name><planes>320</planes><plane_name>Airbus Industrie A320</plane_name></routes><routes><airline_iata>TA</airline_iata><departure_airport_iata>SAL</departure_airport_iata><departure_name_airport>El Salvador International</departure_name_airport><departure_coordinates_lon>-89.05723</departure_coordinates_lon><departure_coordinates_lat>13.445126</departure_coordinates_lat><departure_country_code>SV</departure_country_code><departure_country_name>El Salvador</departure_country_name><departure_city_code>SAL</departure_city_code><departure_city_name>San Salvador</departure_city_name><arrival_airport_iata>LIR</arrival_airport_iata><arrival_name_airport>Daniel Oduber International</arrival_name_airport><arrival_coordinates_lon>-85.53839</arrival_coordinates_lon><arrival_coordinates_lat>10.600005</arrival_coordinates_lat><arrival_country_code>CR</arrival_country_code><arrival_country_name>Costa Rica</arrival_country_name><arrival_city_code>LIR</arrival_city_code><arrival_city_name>Liberia</arrival_city_name><planes>ATR</planes><plane_name>Aerospatiale/Alenia ATR</plane_name></routes><routes><airline_iata>UA</airline_iata><departure_airport_iata>EWR</departure_airport_iata><departure_name_airport>Newark Liberty International</departure_name_airport><departure_coordinates_lon>-74.17876</departure_coordinates_lon><departure_coordinates_lat>40.68907</departure_coordinates_lat><departure_country_code>US</departure_country_code><departure_country_name>United States</departure_country_name><departure_city_code>NYC</departure_city_code><departure_city_name>New York</departure_city_name><arrival_airport_iata>LIR</arrival_airport_iata><arrival_name_airport>Daniel Oduber International</arrival_name_airport><arrival_coordinates_lon>-85.53839</arrival_coordinates_lon><arrival_coordinates_lat>10.600005</arrival_coordinates_lat><arrival_country_code>CR</arrival_country_code><arrival_country_name>Costa Rica</arrival_country_name><arrival_city_code>LIR</arrival_city_code><arrival_city_name>Liberia</arrival_city_name><planes>738</planes><plane_name>Boeing 737-800</plane_name></routes><routes><airline_iata>UA</airline_iata><departure_airport_iata>EWR</departure_airport_iata><departure_name_airport>Newark Liberty International</departure_name_airport><departure_coordinates_lon>-74.17876</departure_coordinates_lon><departure_coordinates_lat>40.68907</departure_coordinates_lat><departure_country_code>US</departure_country_code><departure_country_name>United States</departure_country_name><departure_city_code>NYC</departure_city_code><departure_city_name>New York</departure_city_name><arrival_airport_iata>SJO</arrival_airport_iata><arrival_name_airport>Juan Santamaría International</arrival_name_airport><arrival_coordinates_lon>-84.20408</arrival_coordinates_lon><arrival_coordinates_lat>9.998238</arrival_coordinates_lat><arrival_country_code>CR</arrival_country_code><arrival_country_name>Costa Rica</arrival_country_name><arrival_city_code>SJO</arrival_city_code><arrival_city_name>San José</arrival_city_name><planes>738</planes><plane_name>Boeing 737-800</plane_name></routes><routes><airline_iata>UA</airline_iata><departure_airport_iata>GUA</departure_airport_iata><departure_name_airport>La Aurora</departure_name_airport><departure_coordinates_lon>-90.53068</departure_coordinates_lon><departure_coordinates_lat>14.588071</departure_coordinates_lat><departure_country_code>GT</departure_country_code><departure_country_name>Guatemala</departure_country_name><departure_city_code>GUA</departure_city_code><departure_city_name>Guatemala City</departure_city_name><arrival_airport_iata>SJO</arrival_airport_iata><arrival_name_airport>Juan Santamaría International</arrival_name_airport><arrival_coordinates_lon>-84.20408</arrival_coordinates_lon><arrival_coordinates_lat>9.998238</arrival_coordinates_lat><arrival_country_code>CR</arrival_country_code><arrival_country_name>Costa Rica</arrival_country_name><arrival_city_code>SJO</arrival_city_code><arrival_city_name>San José</arrival_city_name><planes>320</planes><plane_name>Airbus Industrie A320</plane_name></routes><routes><airline_iata>UA</airline_iata><departure_airport_iata>IAH</departure_airport_iata><departure_name_airport>George Bush Intercontinental</departure_name_airport><departure_coordinates_lon>-95.34</departure_coordinates_lon><departure_coordinates_lat>29.983334</departure_coordinates_lat><departure_country_code>US</departure_country_code><departure_country_name>United States</departure_country_name><departure_city_code>HOU</departure_city_code><departure_city_name>Houston</departure_city_name><arrival_airport_iata>LIR</arrival_airport_iata><arrival_name_airport>Daniel Oduber International</arrival_name_airport><arrival_coordinates_lon>-85.53839</arrival_coordinates_lon><arrival_coordinates_lat>10.600005</arrival_coordinates_lat><arrival_country_code>CR</arrival_country_code><arrival_country_name>Costa Rica</arrival_country_name><arrival_city_code>LIR</arrival_city_code><arrival_city_name>Liberia</arrival_city_name><planes>738</planes><plane_name>Boeing 737-800</plane_name></routes><routes><airline_iata>UA</airline_iata><departure_airport_iata>IAH</departure_airport_iata><departure_name_airport>George Bush Intercontinental</departure_name_airport><departure_coordinates_lon>-95.34</departure_coordinates_lon><departure_coordinates_lat>29.983334</departure_coordinates_lat><departure_country_code>US</departure_country_code><departure_country_name>United States</departure_country_name><departure_city_code>HOU</departure_city_code><departure_city_name>Houston</departure_city_name><arrival_airport_iata>SJO</arrival_airport_iata><arrival_name_airport>Juan Santamaría International</arrival_name_airport><arrival_coordinates_lon>-84.20408</arrival_coordinates_lon><arrival_coordinates_lat>9.998238</arrival_coordinates_lat><arrival_country_code>CR</arrival_country_code><arrival_country_name>Costa Rica</arrival_country_name><arrival_city_code>SJO</arrival_city_code><arrival_city_name>San José</arrival_city_name><planes>738</planes><plane_name>Boeing 737-800</plane_name></routes><routes><airline_iata>UA</airline_iata><departure_airport_iata>JFK</departure_airport_iata><departure_name_airport>John F Kennedy International</departure_name_airport><departure_coordinates_lon>-73.78817</departure_coordinates_lon><departure_coordinates_lat>40.642334</departure_coordinates_lat><departure_country_code>US</departure_country_code><departure_country_name>United States</departure_country_name><departure_city_code>NYC</departure_city_code><departure_city_name>New York</departure_city_name><arrival_airport_iata>SJO</arrival_airport_iata><arrival_name_airport>Juan Santamaría International</arrival_name_airport><arrival_coordinates_lon>-84.20408</arrival_coordinates_lon><arrival_coordinates_lat>9.998238</arrival_coordinates_lat><arrival_country_code>CR</arrival_country_code><arrival_country_name>Costa Rica</arrival_country_name><arrival_city_code>SJO</arrival_city_code><arrival_city_name>San José</arrival_city_name><planes>320</planes><plane_name>Airbus Industrie A320</plane_name></routes><routes><airline_iata>UA</airline_iata><departure_airport_iata>LAX</departure_airport_iata><departure_name_airport>Los Angeles International</departure_name_airport><departure_coordinates_lon>-118.40828</departure_coordinates_lon><departure_coordinates_lat>33.943398</departure_coordinates_lat><departure_country_code>US</departure_country_code><departure_country_name>United States</departure_country_name><departure_city_code>LAX</departure_city_code><departure_city_name>Los Angeles</departure_city_name><arrival_airport_iata>SJO</arrival_airport_iata><arrival_name_airport>Juan Santamaría International</arrival_name_airport><arrival_coordinates_lon>-84.20408</arrival_coordinates_lon><arrival_coordinates_lat>9.998238</arrival_coordinates_lat><arrival_country_code>CR</arrival_country_code><arrival_country_name>Costa Rica</arrival_country_name><arrival_city_code>SJO</arrival_city_code><arrival_city_name>San José</arrival_city_name><planes>319</planes><plane_name>Airbus Industrie A319</plane_name></routes><routes><airline_iata>UA</airline_iata><departure_airport_iata>LIM</departure_airport_iata><departure_name_airport>Jorge Chavez International</departure_name_airport><departure_coordinates_lon>-77.107666</departure_coordinates_lon><departure_coordinates_lat>-12.019421</departure_coordinates_lat><departure_country_code>PE</departure_country_code><departure_country_name>Peru</departure_country_name><departure_city_code>LIM</departure_city_code><departure_city_name>Lima</departure_city_name><arrival_airport_iata>SJO</arrival_airport_iata><arrival_name_airport>Juan Santamaría International</arrival_name_airport><arrival_coordinates_lon>-84.20408</arrival_coordinates_lon><arrival_coordinates_lat>9.998238</arrival_coordinates_lat><arrival_country_code>CR</arrival_country_code><arrival_country_name>Costa Rica</arrival_country_name><arrival_city_code>SJO</arrival_city_code><arrival_city_name>San José</arrival_city_name><planes>320</planes><plane_name>Airbus Industrie A320</plane_name></routes><routes><airline_iata>UA</airline_iata><departure_airport_iata>MIA</departure_airport_iata><departure_name_airport>Miami International Airport</departure_name_airport><departure_coordinates_lon>-80.27824</departure_coordinates_lon><departure_coordinates_lat>25.796</departure_coordinates_lat><departure_country_code>US</departure_country_code><departure_country_name>United States</departure_country_name><departure_city_code>MIA</departure_city_code><departure_city_name>Miami</departure_city_name><arrival_airport_iata>SJO</arrival_airport_iata><arrival_name_airport>Juan Santamaría International</arrival_name_airport><arrival_coordinates_lon>-84.20408</arrival_coordinates_lon><arrival_coordinates_lat>9.998238</arrival_coordinates_lat><arrival_country_code>CR</arrival_country_code><arrival_country_name>Costa Rica</arrival_country_name><arrival_city_code>SJO</arrival_city_code><arrival_city_name>San José</arrival_city_name><planes>E90</planes><plane_name>Embraer ERJ-190</plane_name></routes><routes><airline_iata>US</airline_iata><departure_airport_iata>CLT</departure_airport_iata><departure_name_airport>Charlotte Douglas</departure_name_airport><departure_coordinates_lon>-80.93584</departure_coordinates_lon><departure_coordinates_lat>35.219166</departure_coordinates_lat><departure_country_code>US</departure_country_code><departure_country_name>United States</departure_country_name><departure_city_code>CLT</departure_city_code><departure_city_name>Charlotte</departure_city_name><arrival_airport_iata>SJO</arrival_airport_iata><arrival_name_airport>Juan Santamaría International</arrival_name_airport><arrival_coordinates_lon>-84.20408</arrival_coordinates_lon><arrival_coordinates_lat>9.998238</arrival_coordinates_lat><arrival_country_code>CR</arrival_country_code><arrival_country_name>Costa Rica</arrival_country_name><arrival_city_code>SJO</arrival_city_code><arrival_city_name>San José</arrival_city_name><planes>319</planes><plane_name>Airbus Industrie A319</plane_name></routes><routes><airline_iata>US</airline_iata><departure_airport_iata>JFK</departure_airport_iata><departure_name_airport>John F Kennedy International</departure_name_airport><departure_coordinates_lon>-73.78817</departure_coordinates_lon><departure_coordinates_lat>40.642334</departure_coordinates_lat><departure_country_code>US</departure_country_code><departure_country_name>United States</departure_country_name><departure_city_code>NYC</departure_city_code><departure_city_name>New York</departure_city_name><arrival_airport_iata>SJO</arrival_airport_iata><arrival_name_airport>Juan Santamaría International</arrival_name_airport><arrival_coordinates_lon>-84.20408</arrival_coordinates_lon><arrival_coordinates_lat>9.998238</arrival_coordinates_lat><arrival_country_code>CR</arrival_country_code><arrival_country_name>Costa Rica</arrival_country_name><arrival_city_code>SJO</arrival_city_code><arrival_city_name>San José</arrival_city_name><planes>320</planes><plane_name>Airbus Industrie A320</plane_name></routes><routes><airline_iata>US</airline_iata><departure_airport_iata>LAX</departure_airport_iata><departure_name_airport>Los Angeles International</departure_name_airport><departure_coordinates_lon>-118.40828</departure_coordinates_lon><departure_coordinates_lat>33.943398</departure_coordinates_lat><departure_country_code>US</departure_country_code><departure_country_name>United States</departure_country_name><departure_city_code>LAX</departure_city_code><departure_city_name>Los Angeles</departure_city_name><arrival_airport_iata>SJO</arrival_airport_iata><arrival_name_airport>Juan Santamaría International</arrival_name_airport><arrival_coordinates_lon>-84.20408</arrival_coordinates_lon><arrival_coordinates_lat>9.998238</arrival_coordinates_lat><arrival_country_code>CR</arrival_country_code><arrival_country_name>Costa Rica</arrival_country_name><arrival_city_code>SJO</arrival_city_code><arrival_city_name>San José</arrival_city_name><planes>319</planes><plane_name>Airbus Industrie A319</plane_name></routes><routes><airline_iata>US</airline_iata><departure_airport_iata>MIA</departure_airport_iata><departure_name_airport>Miami International Airport</departure_name_airport><departure_coordinates_lon>-80.27824</departure_coordinates_lon><departure_coordinates_lat>25.796</departure_coordinates_lat><departure_country_code>US</departure_country_code><departure_country_name>United States</departure_country_name><departure_city_code>MIA</departure_city_code><departure_city_name>Miami</departure_city_name><arrival_airport_iata>SJO</arrival_airport_iata><arrival_name_airport>Juan Santamaría International</arrival_name_airport><arrival_coordinates_lon>-84.20408</arrival_coordinates_lon><arrival_coordinates_lat>9.998238</arrival_coordinates_lat><arrival_country_code>CR</arrival_country_code><arrival_country_name>Costa Rica</arrival_country_name><arrival_city_code>SJO</arrival_city_code><arrival_city_name>San José</arrival_city_name><planes>E90</planes><plane_name>Embraer ERJ-190</plane_name></routes></route>
