<?xml version="1.0" encoding="utf-8"?>
<route><routes><airline_iata>8Q</airline_iata><departure_airport_iata>IST</departure_airport_iata><departure_name_airport>Ataturk</departure_name_airport><departure_coordinates_lon>28.815277</departure_coordinates_lon><departure_coordinates_lat>40.976665</departure_coordinates_lat><departure_country_code>TR</departure_country_code><departure_country_name>Turkey</departure_country_name><departure_city_code>IST</departure_city_code><departure_city_name>Istanbul</departure_city_name><arrival_airport_iata>ECN</arrival_airport_iata><arrival_name_airport>Ercan</arrival_name_airport><arrival_coordinates_lon>33.50307</arrival_coordinates_lon><arrival_coordinates_lat>35.15812</arrival_coordinates_lat><arrival_country_code>CY</arrival_country_code><arrival_country_name>Cyprus</arrival_country_name><arrival_city_code>ECN</arrival_city_code><arrival_city_name>Lefkosa</arrival_city_name><planes>320</planes><plane_name>Airbus Industrie A320</plane_name></routes><routes><airline_iata>8Q</airline_iata><departure_airport_iata>TZX</departure_airport_iata><departure_name_airport>Trabzon</departure_name_airport><departure_coordinates_lon>39.78168</departure_coordinates_lon><departure_coordinates_lat>40.99419</departure_coordinates_lat><departure_country_code>TR</departure_country_code><departure_country_name>Turkey</departure_country_name><departure_city_code>TZX</departure_city_code><departure_city_name>Trabzon</departure_city_name><arrival_airport_iata>ECN</arrival_airport_iata><arrival_name_airport>Ercan</arrival_name_airport><arrival_coordinates_lon>33.50307</arrival_coordinates_lon><arrival_coordinates_lat>35.15812</arrival_coordinates_lat><arrival_country_code>CY</arrival_country_code><arrival_country_name>Cyprus</arrival_country_name><arrival_city_code>ECN</arrival_city_code><arrival_city_name>Lefkosa</arrival_city_name><planes>320</planes><plane_name>Airbus Industrie A320</plane_name></routes><routes><airline_iata>9U</airline_iata><departure_airport_iata>KIV</departure_airport_iata><departure_name_airport>International Airport Chisinau</departure_name_airport><departure_coordinates_lon>28.934967</departure_coordinates_lon><departure_coordinates_lat>46.935444</departure_coordinates_lat><departure_country_code>MD</departure_country_code><departure_country_name>Moldova</departure_country_name><departure_city_code>KIV</departure_city_code><departure_city_name>Chisinau</departure_city_name><arrival_airport_iata>LCA</arrival_airport_iata><arrival_name_airport>Larnaca</arrival_name_airport><arrival_coordinates_lon>33.62599</arrival_coordinates_lon><arrival_coordinates_lat>34.880867</arrival_coordinates_lat><arrival_country_code>CY</arrival_country_code><arrival_country_name>Cyprus</arrival_country_name><arrival_city_code>LCA</arrival_city_code><arrival_city_name>Larnaca</arrival_city_name><planes>E90</planes><plane_name>Embraer ERJ-190</plane_name></routes><routes><airline_iata>A3</airline_iata><departure_airport_iata>ATH</departure_airport_iata><departure_name_airport>Athens International Airport "Eleftherios Venizelos"</departure_name_airport><departure_coordinates_lon>23.946486</departure_coordinates_lon><departure_coordinates_lat>37.93635</departure_coordinates_lat><departure_country_code>GR</departure_country_code><departure_country_name>Greece</departure_country_name><departure_city_code>ATH</departure_city_code><departure_city_name>Athens</departure_city_name><arrival_airport_iata>LCA</arrival_airport_iata><arrival_name_airport>Larnaca</arrival_name_airport><arrival_coordinates_lon>33.62599</arrival_coordinates_lon><arrival_coordinates_lat>34.880867</arrival_coordinates_lat><arrival_country_code>CY</arrival_country_code><arrival_country_name>Cyprus</arrival_country_name><arrival_city_code>LCA</arrival_city_code><arrival_city_name>Larnaca</arrival_city_name><planes>319</planes><plane_name>Airbus Industrie A319</plane_name></routes><routes><airline_iata>A3</airline_iata><departure_airport_iata>LHR</departure_airport_iata><departure_name_airport>Heathrow</departure_name_airport><departure_coordinates_lon>-0.453566</departure_coordinates_lon><departure_coordinates_lat>51.469604</departure_coordinates_lat><departure_country_code>GB</departure_country_code><departure_country_name>United Kingdom</departure_country_name><departure_city_code>LON</departure_city_code><departure_city_name>London</departure_city_name><arrival_airport_iata>LCA</arrival_airport_iata><arrival_name_airport>Larnaca</arrival_name_airport><arrival_coordinates_lon>33.62599</arrival_coordinates_lon><arrival_coordinates_lat>34.880867</arrival_coordinates_lat><arrival_country_code>CY</arrival_country_code><arrival_country_name>Cyprus</arrival_country_name><arrival_city_code>LCA</arrival_city_code><arrival_city_name>Larnaca</arrival_city_name><planes>320</planes><plane_name>Airbus Industrie A320</plane_name></routes><routes><airline_iata>A3</airline_iata><departure_airport_iata>SKG</departure_airport_iata><departure_name_airport>Macedonia International</departure_name_airport><departure_coordinates_lon>22.972221</departure_coordinates_lon><departure_coordinates_lat>40.520832</departure_coordinates_lat><departure_country_code>GR</departure_country_code><departure_country_name>Greece</departure_country_name><departure_city_code>SKG</departure_city_code><departure_city_name>Thessaloniki</departure_city_name><arrival_airport_iata>LCA</arrival_airport_iata><arrival_name_airport>Larnaca</arrival_name_airport><arrival_coordinates_lon>33.62599</arrival_coordinates_lon><arrival_coordinates_lat>34.880867</arrival_coordinates_lat><arrival_country_code>CY</arrival_country_code><arrival_country_name>Cyprus</arrival_country_name><arrival_city_code>LCA</arrival_city_code><arrival_city_name>Larnaca</arrival_city_name><planes>319</planes><plane_name>Airbus Industrie A319</plane_name></routes><routes><airline_iata>AA</airline_iata><departure_airport_iata>LHR</departure_airport_iata><departure_name_airport>Heathrow</departure_name_airport><departure_coordinates_lon>-0.453566</departure_coordinates_lon><departure_coordinates_lat>51.469604</departure_coordinates_lat><departure_country_code>GB</departure_country_code><departure_country_name>United Kingdom</departure_country_name><departure_city_code>LON</departure_city_code><departure_city_name>London</departure_city_name><arrival_airport_iata>LCA</arrival_airport_iata><arrival_name_airport>Larnaca</arrival_name_airport><arrival_coordinates_lon>33.62599</arrival_coordinates_lon><arrival_coordinates_lat>34.880867</arrival_coordinates_lat><arrival_country_code>CY</arrival_country_code><arrival_country_name>Cyprus</arrival_country_name><arrival_city_code>LCA</arrival_city_code><arrival_city_name>Larnaca</arrival_city_name><planes>767</planes><plane_name>Boeing 767</plane_name></routes><routes><airline_iata>AB</airline_iata><departure_airport_iata>NUE</departure_airport_iata><departure_name_airport>Nürnberg</departure_name_airport><departure_coordinates_lon>11.077062</departure_coordinates_lon><departure_coordinates_lat>49.494167</departure_coordinates_lat><departure_country_code>DE</departure_country_code><departure_country_name>Germany</departure_country_name><departure_city_code>NUE</departure_city_code><departure_city_name>Nürnberg</departure_city_name><arrival_airport_iata>PFO</arrival_airport_iata><arrival_name_airport>International</arrival_name_airport><arrival_coordinates_lon>32.489105</arrival_coordinates_lon><arrival_coordinates_lat>34.71155</arrival_coordinates_lat><arrival_country_code>CY</arrival_country_code><arrival_country_name>Cyprus</arrival_country_name><arrival_city_code>PFO</arrival_city_code><arrival_city_name>Paphos</arrival_city_name><planes>320</planes><plane_name>Airbus Industrie A320</plane_name></routes><routes><airline_iata>AC</airline_iata><departure_airport_iata>FRA</departure_airport_iata><departure_name_airport>Frankfurt International Airport</departure_name_airport><departure_coordinates_lon>8.570773</departure_coordinates_lon><departure_coordinates_lat>50.050735</departure_coordinates_lat><departure_country_code>DE</departure_country_code><departure_country_name>Germany</departure_country_name><departure_city_code>FRA</departure_city_code><departure_city_name>Frankfurt</departure_city_name><arrival_airport_iata>LCA</arrival_airport_iata><arrival_name_airport>Larnaca</arrival_name_airport><arrival_coordinates_lon>33.62599</arrival_coordinates_lon><arrival_coordinates_lat>34.880867</arrival_coordinates_lat><arrival_country_code>CY</arrival_country_code><arrival_country_name>Cyprus</arrival_country_name><arrival_city_code>LCA</arrival_city_code><arrival_city_name>Larnaca</arrival_city_name><planes>320</planes><plane_name>Airbus Industrie A320</plane_name></routes><routes><airline_iata>AZ</airline_iata><departure_airport_iata>FCO</departure_airport_iata><departure_name_airport>Leonardo Da Vinci (Fiumicino)</departure_name_airport><departure_coordinates_lon>12.250346</departure_coordinates_lon><departure_coordinates_lat>41.794594</departure_coordinates_lat><departure_country_code>IT</departure_country_code><departure_country_name>Italy</departure_country_name><departure_city_code>ROM</departure_city_code><departure_city_name>Rome</departure_city_name><arrival_airport_iata>LCA</arrival_airport_iata><arrival_name_airport>Larnaca</arrival_name_airport><arrival_coordinates_lon>33.62599</arrival_coordinates_lon><arrival_coordinates_lat>34.880867</arrival_coordinates_lat><arrival_country_code>CY</arrival_country_code><arrival_country_name>Cyprus</arrival_country_name><arrival_city_code>LCA</arrival_city_code><arrival_city_name>Larnaca</arrival_city_name><planes>319</planes><plane_name>Airbus Industrie A319</plane_name></routes><routes><airline_iata>AZ</airline_iata><departure_airport_iata>MXP</departure_airport_iata><departure_name_airport>Milano Malpensa</departure_name_airport><departure_coordinates_lon>8.71237</departure_coordinates_lon><departure_coordinates_lat>45.627403</departure_coordinates_lat><departure_country_code>IT</departure_country_code><departure_country_name>Italy</departure_country_name><departure_city_code>MIL</departure_city_code><departure_city_name>Milan</departure_city_name><arrival_airport_iata>LCA</arrival_airport_iata><arrival_name_airport>Larnaca</arrival_name_airport><arrival_coordinates_lon>33.62599</arrival_coordinates_lon><arrival_coordinates_lat>34.880867</arrival_coordinates_lat><arrival_country_code>CY</arrival_country_code><arrival_country_name>Cyprus</arrival_country_name><arrival_city_code>LCA</arrival_city_code><arrival_city_name>Larnaca</arrival_city_name><planes>320</planes><plane_name>Airbus Industrie A320</plane_name></routes><routes><airline_iata>B2</airline_iata><departure_airport_iata>MSQ</departure_airport_iata><departure_name_airport>Minsk National 2</departure_name_airport><departure_coordinates_lon>28.032442</departure_coordinates_lon><departure_coordinates_lat>53.889725</departure_coordinates_lat><departure_country_code>BY</departure_country_code><departure_country_name>Belarus</departure_country_name><departure_city_code>MSQ</departure_city_code><departure_city_name>Minsk</departure_city_name><arrival_airport_iata>LCA</arrival_airport_iata><arrival_name_airport>Larnaca</arrival_name_airport><arrival_coordinates_lon>33.62599</arrival_coordinates_lon><arrival_coordinates_lat>34.880867</arrival_coordinates_lat><arrival_country_code>CY</arrival_country_code><arrival_country_name>Cyprus</arrival_country_name><arrival_city_code>LCA</arrival_city_code><arrival_city_name>Larnaca</arrival_city_name><planes>733</planes><plane_name>Boeing 737-300</plane_name></routes><routes><airline_iata>BA</airline_iata><departure_airport_iata>LGW</departure_airport_iata><departure_name_airport>Gatwick</departure_name_airport><departure_coordinates_lon>-0.161863</departure_coordinates_lon><departure_coordinates_lat>51.156807</departure_coordinates_lat><departure_country_code>GB</departure_country_code><departure_country_name>United Kingdom</departure_country_name><departure_city_code>LON</departure_city_code><departure_city_name>London</departure_city_name><arrival_airport_iata>PFO</arrival_airport_iata><arrival_name_airport>International</arrival_name_airport><arrival_coordinates_lon>32.489105</arrival_coordinates_lon><arrival_coordinates_lat>34.71155</arrival_coordinates_lat><arrival_country_code>CY</arrival_country_code><arrival_country_name>Cyprus</arrival_country_name><arrival_city_code>PFO</arrival_city_code><arrival_city_name>Paphos</arrival_city_name><planes>734</planes><plane_name>Boeing 737-400</plane_name></routes><routes><airline_iata>BA</airline_iata><departure_airport_iata>LHR</departure_airport_iata><departure_name_airport>Heathrow</departure_name_airport><departure_coordinates_lon>-0.453566</departure_coordinates_lon><departure_coordinates_lat>51.469604</departure_coordinates_lat><departure_country_code>GB</departure_country_code><departure_country_name>United Kingdom</departure_country_name><departure_city_code>LON</departure_city_code><departure_city_name>London</departure_city_name><arrival_airport_iata>LCA</arrival_airport_iata><arrival_name_airport>Larnaca</arrival_name_airport><arrival_coordinates_lon>33.62599</arrival_coordinates_lon><arrival_coordinates_lat>34.880867</arrival_coordinates_lat><arrival_country_code>CY</arrival_country_code><arrival_country_name>Cyprus</arrival_country_name><arrival_city_code>LCA</arrival_city_code><arrival_city_name>Larnaca</arrival_city_name><planes>767</planes><plane_name>Boeing 767</plane_name></routes><routes><airline_iata>BD</airline_iata><departure_airport_iata>LHR</departure_airport_iata><departure_name_airport>Heathrow</departure_name_airport><departure_coordinates_lon>-0.453566</departure_coordinates_lon><departure_coordinates_lat>51.469604</departure_coordinates_lat><departure_country_code>GB</departure_country_code><departure_country_name>United Kingdom</departure_country_name><departure_city_code>LON</departure_city_code><departure_city_name>London</departure_city_name><arrival_airport_iata>LCA</arrival_airport_iata><arrival_name_airport>Larnaca</arrival_name_airport><arrival_coordinates_lon>33.62599</arrival_coordinates_lon><arrival_coordinates_lat>34.880867</arrival_coordinates_lat><arrival_country_code>CY</arrival_country_code><arrival_country_name>Cyprus</arrival_country_name><arrival_city_code>LCA</arrival_city_code><arrival_city_name>Larnaca</arrival_city_name><planes>32S</planes><plane_name>Airbus Industrie A318/319/320/321</plane_name></routes><routes><airline_iata>CY</airline_iata><departure_airport_iata>AMM</departure_airport_iata><departure_name_airport>Queen Alia International</departure_name_airport><departure_coordinates_lon>35.98932</departure_coordinates_lon><departure_coordinates_lat>31.722534</departure_coordinates_lat><departure_country_code>JO</departure_country_code><departure_country_name>Jordan</departure_country_name><departure_city_code>AMM</departure_city_code><departure_city_name>Amman</departure_city_name><arrival_airport_iata>LCA</arrival_airport_iata><arrival_name_airport>Larnaca</arrival_name_airport><arrival_coordinates_lon>33.62599</arrival_coordinates_lon><arrival_coordinates_lat>34.880867</arrival_coordinates_lat><arrival_country_code>CY</arrival_country_code><arrival_country_name>Cyprus</arrival_country_name><arrival_city_code>LCA</arrival_city_code><arrival_city_name>Larnaca</arrival_city_name><planes>320</planes><plane_name>Airbus Industrie A320</plane_name></routes><routes><airline_iata>CY</airline_iata><departure_airport_iata>AMS</departure_airport_iata><departure_name_airport>Schiphol</departure_name_airport><departure_coordinates_lon>4.763385</departure_coordinates_lon><departure_coordinates_lat>52.30907</departure_coordinates_lat><departure_country_code>NL</departure_country_code><departure_country_name>Netherlands</departure_country_name><departure_city_code>AMS</departure_city_code><departure_city_name>Amsterdam</departure_city_name><arrival_airport_iata>LCA</arrival_airport_iata><arrival_name_airport>Larnaca</arrival_name_airport><arrival_coordinates_lon>33.62599</arrival_coordinates_lon><arrival_coordinates_lat>34.880867</arrival_coordinates_lat><arrival_country_code>CY</arrival_country_code><arrival_country_name>Cyprus</arrival_country_name><arrival_city_code>LCA</arrival_city_code><arrival_city_name>Larnaca</arrival_city_name><planes>320</planes><plane_name>Airbus Industrie A320</plane_name></routes><routes><airline_iata>CY</airline_iata><departure_airport_iata>AMS</departure_airport_iata><departure_name_airport>Schiphol</departure_name_airport><departure_coordinates_lon>4.763385</departure_coordinates_lon><departure_coordinates_lat>52.30907</departure_coordinates_lat><departure_country_code>NL</departure_country_code><departure_country_name>Netherlands</departure_country_name><departure_city_code>AMS</departure_city_code><departure_city_name>Amsterdam</departure_city_name><arrival_airport_iata>PFO</arrival_airport_iata><arrival_name_airport>International</arrival_name_airport><arrival_coordinates_lon>32.489105</arrival_coordinates_lon><arrival_coordinates_lat>34.71155</arrival_coordinates_lat><arrival_country_code>CY</arrival_country_code><arrival_country_name>Cyprus</arrival_country_name><arrival_city_code>PFO</arrival_city_code><arrival_city_name>Paphos</arrival_city_name><planes>319</planes><plane_name>Airbus Industrie A319</plane_name></routes><routes><airline_iata>CY</airline_iata><departure_airport_iata>ATH</departure_airport_iata><departure_name_airport>Athens International Airport "Eleftherios Venizelos"</departure_name_airport><departure_coordinates_lon>23.946486</departure_coordinates_lon><departure_coordinates_lat>37.93635</departure_coordinates_lat><departure_country_code>GR</departure_country_code><departure_country_name>Greece</departure_country_name><departure_city_code>ATH</departure_city_code><departure_city_name>Athens</departure_city_name><arrival_airport_iata>LCA</arrival_airport_iata><arrival_name_airport>Larnaca</arrival_name_airport><arrival_coordinates_lon>33.62599</arrival_coordinates_lon><arrival_coordinates_lat>34.880867</arrival_coordinates_lat><arrival_country_code>CY</arrival_country_code><arrival_country_name>Cyprus</arrival_country_name><arrival_city_code>LCA</arrival_city_code><arrival_city_name>Larnaca</arrival_city_name><planes>320</planes><plane_name>Airbus Industrie A320</plane_name></routes><routes><airline_iata>CY</airline_iata><departure_airport_iata>ATH</departure_airport_iata><departure_name_airport>Athens International Airport "Eleftherios Venizelos"</departure_name_airport><departure_coordinates_lon>23.946486</departure_coordinates_lon><departure_coordinates_lat>37.93635</departure_coordinates_lat><departure_country_code>GR</departure_country_code><departure_country_name>Greece</departure_country_name><departure_city_code>ATH</departure_city_code><departure_city_name>Athens</departure_city_name><arrival_airport_iata>LCA</arrival_airport_iata><arrival_name_airport>Larnaca</arrival_name_airport><arrival_coordinates_lon>33.62599</arrival_coordinates_lon><arrival_coordinates_lat>34.880867</arrival_coordinates_lat><arrival_country_code>CY</arrival_country_code><arrival_country_name>Cyprus</arrival_country_name><arrival_city_code>LCA</arrival_city_code><arrival_city_name>Larnaca</arrival_city_name><planes>320</planes><plane_name>Airbus Industrie A320</plane_name></routes><routes><airline_iata>CY</airline_iata><departure_airport_iata>AUH</departure_airport_iata><departure_name_airport>Abu Dhabi International</departure_name_airport><departure_coordinates_lon>54.645973</departure_coordinates_lon><departure_coordinates_lat>24.426912</departure_coordinates_lat><departure_country_code>AE</departure_country_code><departure_country_name>United Arab Emirates</departure_country_name><departure_city_code>AUH</departure_city_code><departure_city_name>Abu Dhabi</departure_city_name><arrival_airport_iata>LCA</arrival_airport_iata><arrival_name_airport>Larnaca</arrival_name_airport><arrival_coordinates_lon>33.62599</arrival_coordinates_lon><arrival_coordinates_lat>34.880867</arrival_coordinates_lat><arrival_country_code>CY</arrival_country_code><arrival_country_name>Cyprus</arrival_country_name><arrival_city_code>LCA</arrival_city_code><arrival_city_name>Larnaca</arrival_city_name><planes>320</planes><plane_name>Airbus Industrie A320</plane_name></routes><routes><airline_iata>CY</airline_iata><departure_airport_iata>BAH</departure_airport_iata><departure_name_airport>Bahrain International</departure_name_airport><departure_coordinates_lon>50.62605</departure_coordinates_lon><departure_coordinates_lat>26.26918</departure_coordinates_lat><departure_country_code>BH</departure_country_code><departure_country_name>Bahrain</departure_country_name><departure_city_code>BAH</departure_city_code><departure_city_name>Manama</departure_city_name><arrival_airport_iata>LCA</arrival_airport_iata><arrival_name_airport>Larnaca</arrival_name_airport><arrival_coordinates_lon>33.62599</arrival_coordinates_lon><arrival_coordinates_lat>34.880867</arrival_coordinates_lat><arrival_country_code>CY</arrival_country_code><arrival_country_name>Cyprus</arrival_country_name><arrival_city_code>LCA</arrival_city_code><arrival_city_name>Larnaca</arrival_city_name><planes>E70</planes><plane_name>Embraer ERJ-170</plane_name></routes><routes><airline_iata>CY</airline_iata><departure_airport_iata>BEY</departure_airport_iata><departure_name_airport>Beirut Rafic Hariri Airport</departure_name_airport><departure_coordinates_lon>35.49308</departure_coordinates_lon><departure_coordinates_lat>33.826073</departure_coordinates_lat><departure_country_code>LB</departure_country_code><departure_country_name>Lebanon</departure_country_name><departure_city_code>BEY</departure_city_code><departure_city_name>Beirut</departure_city_name><arrival_airport_iata>LCA</arrival_airport_iata><arrival_name_airport>Larnaca</arrival_name_airport><arrival_coordinates_lon>33.62599</arrival_coordinates_lon><arrival_coordinates_lat>34.880867</arrival_coordinates_lat><arrival_country_code>CY</arrival_country_code><arrival_country_name>Cyprus</arrival_country_name><arrival_city_code>LCA</arrival_city_code><arrival_city_name>Larnaca</arrival_city_name><planes>319</planes><plane_name>Airbus Industrie A319</plane_name></routes><routes><airline_iata>CY</airline_iata><departure_airport_iata>BEY</departure_airport_iata><departure_name_airport>Beirut Rafic Hariri Airport</departure_name_airport><departure_coordinates_lon>35.49308</departure_coordinates_lon><departure_coordinates_lat>33.826073</departure_coordinates_lat><departure_country_code>LB</departure_country_code><departure_country_name>Lebanon</departure_country_name><departure_city_code>BEY</departure_city_code><departure_city_name>Beirut</departure_city_name><arrival_airport_iata>LCA</arrival_airport_iata><arrival_name_airport>Larnaca</arrival_name_airport><arrival_coordinates_lon>33.62599</arrival_coordinates_lon><arrival_coordinates_lat>34.880867</arrival_coordinates_lat><arrival_country_code>CY</arrival_country_code><arrival_country_name>Cyprus</arrival_country_name><arrival_city_code>LCA</arrival_city_code><arrival_city_name>Larnaca</arrival_city_name><planes>320</planes><plane_name>Airbus Industrie A320</plane_name></routes><routes><airline_iata>CY</airline_iata><departure_airport_iata>BRU</departure_airport_iata><departure_name_airport>Brussels Airport</departure_name_airport><departure_coordinates_lon>4.483602</departure_coordinates_lon><departure_coordinates_lat>50.89717</departure_coordinates_lat><departure_country_code>BE</departure_country_code><departure_country_name>Belgium</departure_country_name><departure_city_code>BRU</departure_city_code><departure_city_name>Brussels</departure_city_name><arrival_airport_iata>LCA</arrival_airport_iata><arrival_name_airport>Larnaca</arrival_name_airport><arrival_coordinates_lon>33.62599</arrival_coordinates_lon><arrival_coordinates_lat>34.880867</arrival_coordinates_lat><arrival_country_code>CY</arrival_country_code><arrival_country_name>Cyprus</arrival_country_name><arrival_city_code>LCA</arrival_city_code><arrival_city_name>Larnaca</arrival_city_name><planes>320</planes><plane_name>Airbus Industrie A320</plane_name></routes><routes><airline_iata>CY</airline_iata><departure_airport_iata>CDG</departure_airport_iata><departure_name_airport>Charles De Gaulle</departure_name_airport><departure_coordinates_lon>2.567023</departure_coordinates_lon><departure_coordinates_lat>49.003197</departure_coordinates_lat><departure_country_code>FR</departure_country_code><departure_country_name>France</departure_country_name><departure_city_code>PAR</departure_city_code><departure_city_name>Paris</departure_city_name><arrival_airport_iata>LCA</arrival_airport_iata><arrival_name_airport>Larnaca</arrival_name_airport><arrival_coordinates_lon>33.62599</arrival_coordinates_lon><arrival_coordinates_lat>34.880867</arrival_coordinates_lat><arrival_country_code>CY</arrival_country_code><arrival_country_name>Cyprus</arrival_country_name><arrival_city_code>LCA</arrival_city_code><arrival_city_name>Larnaca</arrival_city_name><planes>319</planes><plane_name>Airbus Industrie A319</plane_name></routes><routes><airline_iata>CY</airline_iata><departure_airport_iata>FCO</departure_airport_iata><departure_name_airport>Leonardo Da Vinci (Fiumicino)</departure_name_airport><departure_coordinates_lon>12.250346</departure_coordinates_lon><departure_coordinates_lat>41.794594</departure_coordinates_lat><departure_country_code>IT</departure_country_code><departure_country_name>Italy</departure_country_name><departure_city_code>ROM</departure_city_code><departure_city_name>Rome</departure_city_name><arrival_airport_iata>LCA</arrival_airport_iata><arrival_name_airport>Larnaca</arrival_name_airport><arrival_coordinates_lon>33.62599</arrival_coordinates_lon><arrival_coordinates_lat>34.880867</arrival_coordinates_lat><arrival_country_code>CY</arrival_country_code><arrival_country_name>Cyprus</arrival_country_name><arrival_city_code>LCA</arrival_city_code><arrival_city_name>Larnaca</arrival_city_name><planes>319</planes><plane_name>Airbus Industrie A319</plane_name></routes><routes><airline_iata>CY</airline_iata><departure_airport_iata>FRA</departure_airport_iata><departure_name_airport>Frankfurt International Airport</departure_name_airport><departure_coordinates_lon>8.570773</departure_coordinates_lon><departure_coordinates_lat>50.050735</departure_coordinates_lat><departure_country_code>DE</departure_country_code><departure_country_name>Germany</departure_country_name><departure_city_code>FRA</departure_city_code><departure_city_name>Frankfurt</departure_city_name><arrival_airport_iata>LCA</arrival_airport_iata><arrival_name_airport>Larnaca</arrival_name_airport><arrival_coordinates_lon>33.62599</arrival_coordinates_lon><arrival_coordinates_lat>34.880867</arrival_coordinates_lat><arrival_country_code>CY</arrival_country_code><arrival_country_name>Cyprus</arrival_country_name><arrival_city_code>LCA</arrival_city_code><arrival_city_name>Larnaca</arrival_city_name><planes>320</planes><plane_name>Airbus Industrie A320</plane_name></routes><routes><airline_iata>CY</airline_iata><departure_airport_iata>HER</departure_airport_iata><departure_name_airport>Nikos Kazantzakis Airport</departure_name_airport><departure_coordinates_lon>25.174192</departure_coordinates_lon><departure_coordinates_lat>35.33663</departure_coordinates_lat><departure_country_code>GR</departure_country_code><departure_country_name>Greece</departure_country_name><departure_city_code>HER</departure_city_code><departure_city_name>Heraklion</departure_city_name><arrival_airport_iata>LCA</arrival_airport_iata><arrival_name_airport>Larnaca</arrival_name_airport><arrival_coordinates_lon>33.62599</arrival_coordinates_lon><arrival_coordinates_lat>34.880867</arrival_coordinates_lat><arrival_country_code>CY</arrival_country_code><arrival_country_name>Cyprus</arrival_country_name><arrival_city_code>LCA</arrival_city_code><arrival_city_name>Larnaca</arrival_city_name><planes>320</planes><plane_name>Airbus Industrie A320</plane_name></routes><routes><airline_iata>CY</airline_iata><departure_airport_iata>LCA</departure_airport_iata><departure_name_airport>Larnaca</departure_name_airport><departure_coordinates_lon>33.62599</departure_coordinates_lon><departure_coordinates_lat>34.880867</departure_coordinates_lat><departure_country_code>CY</departure_country_code><departure_country_name>Cyprus</departure_country_name><departure_city_code>LCA</departure_city_code><departure_city_name>Larnaca</departure_city_name><arrival_airport_iata>PFO</arrival_airport_iata><arrival_name_airport>International</arrival_name_airport><arrival_coordinates_lon>32.489105</arrival_coordinates_lon><arrival_coordinates_lat>34.71155</arrival_coordinates_lat><arrival_country_code>CY</arrival_country_code><arrival_country_name>Cyprus</arrival_country_name><arrival_city_code>PFO</arrival_city_code><arrival_city_name>Paphos</arrival_city_name><planes>319</planes><plane_name>Airbus Industrie A319</plane_name></routes><routes><airline_iata>CY</airline_iata><departure_airport_iata>LED</departure_airport_iata><departure_name_airport>Pulkovo</departure_name_airport><departure_coordinates_lon>30.3083</departure_coordinates_lon><departure_coordinates_lat>59.806084</departure_coordinates_lat><departure_country_code>RU</departure_country_code><departure_country_name>Russia</departure_country_name><departure_city_code>LED</departure_city_code><departure_city_name>Saint Petersburg</departure_city_name><arrival_airport_iata>LCA</arrival_airport_iata><arrival_name_airport>Larnaca</arrival_name_airport><arrival_coordinates_lon>33.62599</arrival_coordinates_lon><arrival_coordinates_lat>34.880867</arrival_coordinates_lat><arrival_country_code>CY</arrival_country_code><arrival_country_name>Cyprus</arrival_country_name><arrival_city_code>LCA</arrival_city_code><arrival_city_name>Larnaca</arrival_city_name><planes>321</planes><plane_name>Airbus Industrie A321</plane_name></routes><routes><airline_iata>CY</airline_iata><departure_airport_iata>LED</departure_airport_iata><departure_name_airport>Pulkovo</departure_name_airport><departure_coordinates_lon>30.3083</departure_coordinates_lon><departure_coordinates_lat>59.806084</departure_coordinates_lat><departure_country_code>RU</departure_country_code><departure_country_name>Russia</departure_country_name><departure_city_code>LED</departure_city_code><departure_city_name>Saint Petersburg</departure_city_name><arrival_airport_iata>PFO</arrival_airport_iata><arrival_name_airport>International</arrival_name_airport><arrival_coordinates_lon>32.489105</arrival_coordinates_lon><arrival_coordinates_lat>34.71155</arrival_coordinates_lat><arrival_country_code>CY</arrival_country_code><arrival_country_name>Cyprus</arrival_country_name><arrival_city_code>PFO</arrival_city_code><arrival_city_name>Paphos</arrival_city_name><planes>320</planes><plane_name>Airbus Industrie A320</plane_name></routes><routes><airline_iata>CY</airline_iata><departure_airport_iata>LHR</departure_airport_iata><departure_name_airport>Heathrow</departure_name_airport><departure_coordinates_lon>-0.453566</departure_coordinates_lon><departure_coordinates_lat>51.469604</departure_coordinates_lat><departure_country_code>GB</departure_country_code><departure_country_name>United Kingdom</departure_country_name><departure_city_code>LON</departure_city_code><departure_city_name>London</departure_city_name><arrival_airport_iata>LCA</arrival_airport_iata><arrival_name_airport>Larnaca</arrival_name_airport><arrival_coordinates_lon>33.62599</arrival_coordinates_lon><arrival_coordinates_lat>34.880867</arrival_coordinates_lat><arrival_country_code>CY</arrival_country_code><arrival_country_name>Cyprus</arrival_country_name><arrival_city_code>LCA</arrival_city_code><arrival_city_name>Larnaca</arrival_city_name><planes>321</planes><plane_name>Airbus Industrie A321</plane_name></routes><routes><airline_iata>CY</airline_iata><departure_airport_iata>MUC</departure_airport_iata><departure_name_airport>Franz Josef Strauss</departure_name_airport><departure_coordinates_lon>11.790143</departure_coordinates_lon><departure_coordinates_lat>48.353004</departure_coordinates_lat><departure_country_code>DE</departure_country_code><departure_country_name>Germany</departure_country_name><departure_city_code>MUC</departure_city_code><departure_city_name>Munich</departure_city_name><arrival_airport_iata>LCA</arrival_airport_iata><arrival_name_airport>Larnaca</arrival_name_airport><arrival_coordinates_lon>33.62599</arrival_coordinates_lon><arrival_coordinates_lat>34.880867</arrival_coordinates_lat><arrival_country_code>CY</arrival_country_code><arrival_country_name>Cyprus</arrival_country_name><arrival_city_code>LCA</arrival_city_code><arrival_city_name>Larnaca</arrival_city_name><planes>320</planes><plane_name>Airbus Industrie A320</plane_name></routes><routes><airline_iata>CY</airline_iata><departure_airport_iata>MXP</departure_airport_iata><departure_name_airport>Milano Malpensa</departure_name_airport><departure_coordinates_lon>8.71237</departure_coordinates_lon><departure_coordinates_lat>45.627403</departure_coordinates_lat><departure_country_code>IT</departure_country_code><departure_country_name>Italy</departure_country_name><departure_city_code>MIL</departure_city_code><departure_city_name>Milan</departure_city_name><arrival_airport_iata>LCA</arrival_airport_iata><arrival_name_airport>Larnaca</arrival_name_airport><arrival_coordinates_lon>33.62599</arrival_coordinates_lon><arrival_coordinates_lat>34.880867</arrival_coordinates_lat><arrival_country_code>CY</arrival_country_code><arrival_country_name>Cyprus</arrival_country_name><arrival_city_code>LCA</arrival_city_code><arrival_city_name>Larnaca</arrival_city_name><planes>320</planes><plane_name>Airbus Industrie A320</plane_name></routes><routes><airline_iata>CY</airline_iata><departure_airport_iata>OTP</departure_airport_iata><departure_name_airport>Henri Coanda International</departure_name_airport><departure_coordinates_lon>26.077063</departure_coordinates_lon><departure_coordinates_lat>44.571156</departure_coordinates_lat><departure_country_code>RO</departure_country_code><departure_country_name>Romania</departure_country_name><departure_city_code>BUH</departure_city_code><departure_city_name>Bucharest</departure_city_name><arrival_airport_iata>LCA</arrival_airport_iata><arrival_name_airport>Larnaca</arrival_name_airport><arrival_coordinates_lon>33.62599</arrival_coordinates_lon><arrival_coordinates_lat>34.880867</arrival_coordinates_lat><arrival_country_code>CY</arrival_country_code><arrival_country_name>Cyprus</arrival_country_name><arrival_city_code>LCA</arrival_city_code><arrival_city_name>Larnaca</arrival_city_name><planes>733</planes><plane_name>Boeing 737-300</plane_name></routes><routes><airline_iata>CY</airline_iata><departure_airport_iata>PFO</departure_airport_iata><departure_name_airport>International</departure_name_airport><departure_coordinates_lon>32.489105</departure_coordinates_lon><departure_coordinates_lat>34.71155</departure_coordinates_lat><departure_country_code>CY</departure_country_code><departure_country_name>Cyprus</departure_country_name><departure_city_code>PFO</departure_city_code><departure_city_name>Paphos</departure_city_name><arrival_airport_iata>LCA</arrival_airport_iata><arrival_name_airport>Larnaca</arrival_name_airport><arrival_coordinates_lon>33.62599</arrival_coordinates_lon><arrival_coordinates_lat>34.880867</arrival_coordinates_lat><arrival_country_code>CY</arrival_country_code><arrival_country_name>Cyprus</arrival_country_name><arrival_city_code>LCA</arrival_city_code><arrival_city_name>Larnaca</arrival_city_name><planes>319</planes><plane_name>Airbus Industrie A319</plane_name></routes><routes><airline_iata>CY</airline_iata><departure_airport_iata>SKG</departure_airport_iata><departure_name_airport>Macedonia International</departure_name_airport><departure_coordinates_lon>22.972221</departure_coordinates_lon><departure_coordinates_lat>40.520832</departure_coordinates_lat><departure_country_code>GR</departure_country_code><departure_country_name>Greece</departure_country_name><departure_city_code>SKG</departure_city_code><departure_city_name>Thessaloniki</departure_city_name><arrival_airport_iata>LCA</arrival_airport_iata><arrival_name_airport>Larnaca</arrival_name_airport><arrival_coordinates_lon>33.62599</arrival_coordinates_lon><arrival_coordinates_lat>34.880867</arrival_coordinates_lat><arrival_country_code>CY</arrival_country_code><arrival_country_name>Cyprus</arrival_country_name><arrival_city_code>LCA</arrival_city_code><arrival_city_name>Larnaca</arrival_city_name><planes>320</planes><plane_name>Airbus Industrie A320</plane_name></routes><routes><airline_iata>CY</airline_iata><departure_airport_iata>SOF</departure_airport_iata><departure_name_airport>Sofia</departure_name_airport><departure_coordinates_lon>23.41443</departure_coordinates_lon><departure_coordinates_lat>42.688343</departure_coordinates_lat><departure_country_code>BG</departure_country_code><departure_country_name>Bulgaria</departure_country_name><departure_city_code>SOF</departure_city_code><departure_city_name>Sofia</departure_city_name><arrival_airport_iata>LCA</arrival_airport_iata><arrival_name_airport>Larnaca</arrival_name_airport><arrival_coordinates_lon>33.62599</arrival_coordinates_lon><arrival_coordinates_lat>34.880867</arrival_coordinates_lat><arrival_country_code>CY</arrival_country_code><arrival_country_name>Cyprus</arrival_country_name><arrival_city_code>LCA</arrival_city_code><arrival_city_name>Larnaca</arrival_city_name><planes>320</planes><plane_name>Airbus Industrie A320</plane_name></routes><routes><airline_iata>CY</airline_iata><departure_airport_iata>SVO</departure_airport_iata><departure_name_airport>Sheremetyevo International</departure_name_airport><departure_coordinates_lon>37.416573</departure_coordinates_lon><departure_coordinates_lat>55.966324</departure_coordinates_lat><departure_country_code>RU</departure_country_code><departure_country_name>Russia</departure_country_name><departure_city_code>MOW</departure_city_code><departure_city_name>Moscow</departure_city_name><arrival_airport_iata>LCA</arrival_airport_iata><arrival_name_airport>Larnaca</arrival_name_airport><arrival_coordinates_lon>33.62599</arrival_coordinates_lon><arrival_coordinates_lat>34.880867</arrival_coordinates_lat><arrival_country_code>CY</arrival_country_code><arrival_country_name>Cyprus</arrival_country_name><arrival_city_code>LCA</arrival_city_code><arrival_city_name>Larnaca</arrival_city_name><planes>320</planes><plane_name>Airbus Industrie A320</plane_name></routes><routes><airline_iata>CY</airline_iata><departure_airport_iata>SVO</departure_airport_iata><departure_name_airport>Sheremetyevo International</departure_name_airport><departure_coordinates_lon>37.416573</departure_coordinates_lon><departure_coordinates_lat>55.966324</departure_coordinates_lat><departure_country_code>RU</departure_country_code><departure_country_name>Russia</departure_country_name><departure_city_code>MOW</departure_city_code><departure_city_name>Moscow</departure_city_name><arrival_airport_iata>LCA</arrival_airport_iata><arrival_name_airport>Larnaca</arrival_name_airport><arrival_coordinates_lon>33.62599</arrival_coordinates_lon><arrival_coordinates_lat>34.880867</arrival_coordinates_lat><arrival_country_code>CY</arrival_country_code><arrival_country_name>Cyprus</arrival_country_name><arrival_city_code>LCA</arrival_city_code><arrival_city_name>Larnaca</arrival_city_name><planes>321</planes><plane_name>Airbus Industrie A321</plane_name></routes><routes><airline_iata>CY</airline_iata><departure_airport_iata>TLV</departure_airport_iata><departure_name_airport>Ben Gurion International</departure_name_airport><departure_coordinates_lon>34.870743</departure_coordinates_lon><departure_coordinates_lat>32.000454</departure_coordinates_lat><departure_country_code>IL</departure_country_code><departure_country_name>Israel</departure_country_name><departure_city_code>TLV</departure_city_code><departure_city_name>Tel Aviv Yafo</departure_city_name><arrival_airport_iata>LCA</arrival_airport_iata><arrival_name_airport>Larnaca</arrival_name_airport><arrival_coordinates_lon>33.62599</arrival_coordinates_lon><arrival_coordinates_lat>34.880867</arrival_coordinates_lat><arrival_country_code>CY</arrival_country_code><arrival_country_name>Cyprus</arrival_country_name><arrival_city_code>LCA</arrival_city_code><arrival_city_name>Larnaca</arrival_city_name><planes>320</planes><plane_name>Airbus Industrie A320</plane_name></routes><routes><airline_iata>CY</airline_iata><departure_airport_iata>VIE</departure_airport_iata><departure_name_airport>Vienna International</departure_name_airport><departure_coordinates_lon>16.563583</departure_coordinates_lon><departure_coordinates_lat>48.11972</departure_coordinates_lat><departure_country_code>AT</departure_country_code><departure_country_name>Austria</departure_country_name><departure_city_code>VIE</departure_city_code><departure_city_name>Vienna</departure_city_name><arrival_airport_iata>LCA</arrival_airport_iata><arrival_name_airport>Larnaca</arrival_name_airport><arrival_coordinates_lon>33.62599</arrival_coordinates_lon><arrival_coordinates_lat>34.880867</arrival_coordinates_lat><arrival_country_code>CY</arrival_country_code><arrival_country_name>Cyprus</arrival_country_name><arrival_city_code>LCA</arrival_city_code><arrival_city_name>Larnaca</arrival_city_name><planes>320</planes><plane_name>Airbus Industrie A320</plane_name></routes><routes><airline_iata>CY</airline_iata><departure_airport_iata>ZRH</departure_airport_iata><departure_name_airport>Zurich</departure_name_airport><departure_coordinates_lon>8.561746</departure_coordinates_lon><departure_coordinates_lat>47.450603</departure_coordinates_lat><departure_country_code>CH</departure_country_code><departure_country_name>Switzerland</departure_country_name><departure_city_code>ZRH</departure_city_code><departure_city_name>Zurich</departure_city_name><arrival_airport_iata>LCA</arrival_airport_iata><arrival_name_airport>Larnaca</arrival_name_airport><arrival_coordinates_lon>33.62599</arrival_coordinates_lon><arrival_coordinates_lat>34.880867</arrival_coordinates_lat><arrival_country_code>CY</arrival_country_code><arrival_country_name>Cyprus</arrival_country_name><arrival_city_code>LCA</arrival_city_code><arrival_city_name>Larnaca</arrival_city_name><planes>320</planes><plane_name>Airbus Industrie A320</plane_name></routes><routes><airline_iata>DE</airline_iata><departure_airport_iata>DUS</departure_airport_iata><departure_name_airport>Düsseldorf International Airport</departure_name_airport><departure_coordinates_lon>6.76558</departure_coordinates_lon><departure_coordinates_lat>51.278328</departure_coordinates_lat><departure_country_code>DE</departure_country_code><departure_country_name>Germany</departure_country_name><departure_city_code>DUS</departure_city_code><departure_city_name>Dusseldorf</departure_city_name><arrival_airport_iata>LCA</arrival_airport_iata><arrival_name_airport>Larnaca</arrival_name_airport><arrival_coordinates_lon>33.62599</arrival_coordinates_lon><arrival_coordinates_lat>34.880867</arrival_coordinates_lat><arrival_country_code>CY</arrival_country_code><arrival_country_name>Cyprus</arrival_country_name><arrival_city_code>LCA</arrival_city_code><arrival_city_name>Larnaca</arrival_city_name><planes>32S</planes><plane_name>Airbus Industrie A318/319/320/321</plane_name></routes><routes><airline_iata>DE</airline_iata><departure_airport_iata>FRA</departure_airport_iata><departure_name_airport>Frankfurt International Airport</departure_name_airport><departure_coordinates_lon>8.570773</departure_coordinates_lon><departure_coordinates_lat>50.050735</departure_coordinates_lat><departure_country_code>DE</departure_country_code><departure_country_name>Germany</departure_country_name><departure_city_code>FRA</departure_city_code><departure_city_name>Frankfurt</departure_city_name><arrival_airport_iata>LCA</arrival_airport_iata><arrival_name_airport>Larnaca</arrival_name_airport><arrival_coordinates_lon>33.62599</arrival_coordinates_lon><arrival_coordinates_lat>34.880867</arrival_coordinates_lat><arrival_country_code>CY</arrival_country_code><arrival_country_name>Cyprus</arrival_country_name><arrival_city_code>LCA</arrival_city_code><arrival_city_name>Larnaca</arrival_city_name><planes>32S</planes><plane_name>Airbus Industrie A318/319/320/321</plane_name></routes><routes><airline_iata>DE</airline_iata><departure_airport_iata>HAM</departure_airport_iata><departure_name_airport>Hamburg Airport</departure_name_airport><departure_coordinates_lon>10.006414</departure_coordinates_lon><departure_coordinates_lat>53.63128</departure_coordinates_lat><departure_country_code>DE</departure_country_code><departure_country_name>Germany</departure_country_name><departure_city_code>HAM</departure_city_code><departure_city_name>Hamburg</departure_city_name><arrival_airport_iata>LCA</arrival_airport_iata><arrival_name_airport>Larnaca</arrival_name_airport><arrival_coordinates_lon>33.62599</arrival_coordinates_lon><arrival_coordinates_lat>34.880867</arrival_coordinates_lat><arrival_country_code>CY</arrival_country_code><arrival_country_name>Cyprus</arrival_country_name><arrival_city_code>LCA</arrival_city_code><arrival_city_name>Larnaca</arrival_city_name><planes>757</planes><plane_name>Boeing 757</plane_name></routes><routes><airline_iata>DE</airline_iata><departure_airport_iata>LEJ</departure_airport_iata><departure_name_airport>Halle</departure_name_airport><departure_coordinates_lon>12.221202</departure_coordinates_lon><departure_coordinates_lat>51.42026</departure_coordinates_lat><departure_country_code>DE</departure_country_code><departure_country_name>Germany</departure_country_name><departure_city_code>LEJ</departure_city_code><departure_city_name>Leipzig-Halle</departure_city_name><arrival_airport_iata>LCA</arrival_airport_iata><arrival_name_airport>Larnaca</arrival_name_airport><arrival_coordinates_lon>33.62599</arrival_coordinates_lon><arrival_coordinates_lat>34.880867</arrival_coordinates_lat><arrival_country_code>CY</arrival_country_code><arrival_country_name>Cyprus</arrival_country_name><arrival_city_code>LCA</arrival_city_code><arrival_city_name>Larnaca</arrival_city_name><planes>32S</planes><plane_name>Airbus Industrie A318/319/320/321</plane_name></routes><routes><airline_iata>DE</airline_iata><departure_airport_iata>MUC</departure_airport_iata><departure_name_airport>Franz Josef Strauss</departure_name_airport><departure_coordinates_lon>11.790143</departure_coordinates_lon><departure_coordinates_lat>48.353004</departure_coordinates_lat><departure_country_code>DE</departure_country_code><departure_country_name>Germany</departure_country_name><departure_city_code>MUC</departure_city_code><departure_city_name>Munich</departure_city_name><arrival_airport_iata>LCA</arrival_airport_iata><arrival_name_airport>Larnaca</arrival_name_airport><arrival_coordinates_lon>33.62599</arrival_coordinates_lon><arrival_coordinates_lat>34.880867</arrival_coordinates_lat><arrival_country_code>CY</arrival_country_code><arrival_country_name>Cyprus</arrival_country_name><arrival_city_code>LCA</arrival_city_code><arrival_city_name>Larnaca</arrival_city_name><planes>32S</planes><plane_name>Airbus Industrie A318/319/320/321</plane_name></routes><routes><airline_iata>DE</airline_iata><departure_airport_iata>STR</departure_airport_iata><departure_name_airport>Stuttgart Echterdingen</departure_name_airport><departure_coordinates_lon>9.193624</departure_coordinates_lon><departure_coordinates_lat>48.69073</departure_coordinates_lat><departure_country_code>DE</departure_country_code><departure_country_name>Germany</departure_country_name><departure_city_code>STR</departure_city_code><departure_city_name>Stuttgart</departure_city_name><arrival_airport_iata>LCA</arrival_airport_iata><arrival_name_airport>Larnaca</arrival_name_airport><arrival_coordinates_lon>33.62599</arrival_coordinates_lon><arrival_coordinates_lat>34.880867</arrival_coordinates_lat><arrival_country_code>CY</arrival_country_code><arrival_country_name>Cyprus</arrival_country_name><arrival_city_code>LCA</arrival_city_code><arrival_city_name>Larnaca</arrival_city_name><planes>32S</planes><plane_name>Airbus Industrie A318/319/320/321</plane_name></routes><routes><airline_iata>DE</airline_iata><departure_airport_iata>SXF</departure_airport_iata><departure_name_airport>Berlin-Schoenefeld</departure_name_airport><departure_coordinates_lon>13.521388</departure_coordinates_lon><departure_coordinates_lat>52.370277</departure_coordinates_lat><departure_country_code>DE</departure_country_code><departure_country_name>Germany</departure_country_name><departure_city_code>BER</departure_city_code><departure_city_name>Berlin</departure_city_name><arrival_airport_iata>LCA</arrival_airport_iata><arrival_name_airport>Larnaca</arrival_name_airport><arrival_coordinates_lon>33.62599</arrival_coordinates_lon><arrival_coordinates_lat>34.880867</arrival_coordinates_lat><arrival_country_code>CY</arrival_country_code><arrival_country_name>Cyprus</arrival_country_name><arrival_city_code>LCA</arrival_city_code><arrival_city_name>Larnaca</arrival_city_name><planes>32S</planes><plane_name>Airbus Industrie A318/319/320/321</plane_name></routes><routes><airline_iata>DY</airline_iata><departure_airport_iata>ARN</departure_airport_iata><departure_name_airport>Arlanda</departure_name_airport><departure_coordinates_lon>17.930365</departure_coordinates_lon><departure_coordinates_lat>59.64982</departure_coordinates_lat><departure_country_code>SE</departure_country_code><departure_country_name>Sweden</departure_country_name><departure_city_code>STO</departure_city_code><departure_city_name>Stockholm</departure_city_name><arrival_airport_iata>LCA</arrival_airport_iata><arrival_name_airport>Larnaca</arrival_name_airport><arrival_coordinates_lon>33.62599</arrival_coordinates_lon><arrival_coordinates_lat>34.880867</arrival_coordinates_lat><arrival_country_code>CY</arrival_country_code><arrival_country_name>Cyprus</arrival_country_name><arrival_city_code>LCA</arrival_city_code><arrival_city_name>Larnaca</arrival_city_name><planes>73H</planes><plane_name>Boeing 737-800 With Winglets</plane_name></routes><routes><airline_iata>DY</airline_iata><departure_airport_iata>OSL</departure_airport_iata><departure_name_airport>Gardermoen</departure_name_airport><departure_coordinates_lon>11.100411</departure_coordinates_lon><departure_coordinates_lat>60.19419</departure_coordinates_lat><departure_country_code>NO</departure_country_code><departure_country_name>Norway</departure_country_name><departure_city_code>OSL</departure_city_code><departure_city_name>Oslo</departure_city_name><arrival_airport_iata>LCA</arrival_airport_iata><arrival_name_airport>Larnaca</arrival_name_airport><arrival_coordinates_lon>33.62599</arrival_coordinates_lon><arrival_coordinates_lat>34.880867</arrival_coordinates_lat><arrival_country_code>CY</arrival_country_code><arrival_country_name>Cyprus</arrival_country_name><arrival_city_code>LCA</arrival_city_code><arrival_city_name>Larnaca</arrival_city_name><planes>73H</planes><plane_name>Boeing 737-800 With Winglets</plane_name></routes><routes><airline_iata>EK</airline_iata><departure_airport_iata>DXB</departure_airport_iata><departure_name_airport>Dubai</departure_name_airport><departure_coordinates_lon>55.352917</departure_coordinates_lon><departure_coordinates_lat>25.248665</departure_coordinates_lat><departure_country_code>AE</departure_country_code><departure_country_name>United Arab Emirates</departure_country_name><departure_city_code>DXB</departure_city_code><departure_city_name>Dubai</departure_city_name><arrival_airport_iata>LCA</arrival_airport_iata><arrival_name_airport>Larnaca</arrival_name_airport><arrival_coordinates_lon>33.62599</arrival_coordinates_lon><arrival_coordinates_lat>34.880867</arrival_coordinates_lat><arrival_country_code>CY</arrival_country_code><arrival_country_name>Cyprus</arrival_country_name><arrival_city_code>LCA</arrival_city_code><arrival_city_name>Larnaca</arrival_city_name><planes>343</planes><plane_name>Airbus Industrie A340-300</plane_name></routes><routes><airline_iata>EK</airline_iata><departure_airport_iata>MLA</departure_airport_iata><departure_name_airport>Malta International</departure_name_airport><departure_coordinates_lon>14.495401</departure_coordinates_lon><departure_coordinates_lat>35.849777</departure_coordinates_lat><departure_country_code>MT</departure_country_code><departure_country_name>Malta</departure_country_name><departure_city_code>MLA</departure_city_code><departure_city_name>Gudja</departure_city_name><arrival_airport_iata>LCA</arrival_airport_iata><arrival_name_airport>Larnaca</arrival_name_airport><arrival_coordinates_lon>33.62599</arrival_coordinates_lon><arrival_coordinates_lat>34.880867</arrival_coordinates_lat><arrival_country_code>CY</arrival_country_code><arrival_country_name>Cyprus</arrival_country_name><arrival_city_code>LCA</arrival_city_code><arrival_city_name>Larnaca</arrival_city_name><planes>343</planes><plane_name>Airbus Industrie A340-300</plane_name></routes><routes><airline_iata>EY</airline_iata><departure_airport_iata>AUH</departure_airport_iata><departure_name_airport>Abu Dhabi International</departure_name_airport><departure_coordinates_lon>54.645973</departure_coordinates_lon><departure_coordinates_lat>24.426912</departure_coordinates_lat><departure_country_code>AE</departure_country_code><departure_country_name>United Arab Emirates</departure_country_name><departure_city_code>AUH</departure_city_code><departure_city_name>Abu Dhabi</departure_city_name><arrival_airport_iata>LCA</arrival_airport_iata><arrival_name_airport>Larnaca</arrival_name_airport><arrival_coordinates_lon>33.62599</arrival_coordinates_lon><arrival_coordinates_lat>34.880867</arrival_coordinates_lat><arrival_country_code>CY</arrival_country_code><arrival_country_name>Cyprus</arrival_country_name><arrival_city_code>LCA</arrival_city_code><arrival_city_name>Larnaca</arrival_city_name><planes>320</planes><plane_name>Airbus Industrie A320</plane_name></routes><routes><airline_iata>FB</airline_iata><departure_airport_iata>SOF</departure_airport_iata><departure_name_airport>Sofia</departure_name_airport><departure_coordinates_lon>23.41443</departure_coordinates_lon><departure_coordinates_lat>42.688343</departure_coordinates_lat><departure_country_code>BG</departure_country_code><departure_country_name>Bulgaria</departure_country_name><departure_city_code>SOF</departure_city_code><departure_city_name>Sofia</departure_city_name><arrival_airport_iata>LCA</arrival_airport_iata><arrival_name_airport>Larnaca</arrival_name_airport><arrival_coordinates_lon>33.62599</arrival_coordinates_lon><arrival_coordinates_lat>34.880867</arrival_coordinates_lat><arrival_country_code>CY</arrival_country_code><arrival_country_name>Cyprus</arrival_country_name><arrival_city_code>LCA</arrival_city_code><arrival_city_name>Larnaca</arrival_city_name><planes>319</planes><plane_name>Airbus Industrie A319</plane_name></routes><routes><airline_iata>FB</airline_iata><departure_airport_iata>SOF</departure_airport_iata><departure_name_airport>Sofia</departure_name_airport><departure_coordinates_lon>23.41443</departure_coordinates_lon><departure_coordinates_lat>42.688343</departure_coordinates_lat><departure_country_code>BG</departure_country_code><departure_country_name>Bulgaria</departure_country_name><departure_city_code>SOF</departure_city_code><departure_city_name>Sofia</departure_city_name><arrival_airport_iata>PFO</arrival_airport_iata><arrival_name_airport>International</arrival_name_airport><arrival_coordinates_lon>32.489105</arrival_coordinates_lon><arrival_coordinates_lat>34.71155</arrival_coordinates_lat><arrival_country_code>CY</arrival_country_code><arrival_country_name>Cyprus</arrival_country_name><arrival_city_code>PFO</arrival_city_code><arrival_city_name>Paphos</arrival_city_name><planes>E90</planes><plane_name>Embraer ERJ-190</plane_name></routes><routes><airline_iata>FR</airline_iata><departure_airport_iata>BGY</departure_airport_iata><departure_name_airport>Bergamo - Orio al Serio</departure_name_airport><departure_coordinates_lon>9.698713</departure_coordinates_lon><departure_coordinates_lat>45.665314</departure_coordinates_lat><departure_country_code>IT</departure_country_code><departure_country_name>Italy</departure_country_name><departure_city_code>MIL</departure_city_code><departure_city_name>Milan</departure_city_name><arrival_airport_iata>PFO</arrival_airport_iata><arrival_name_airport>International</arrival_name_airport><arrival_coordinates_lon>32.489105</arrival_coordinates_lon><arrival_coordinates_lat>34.71155</arrival_coordinates_lat><arrival_country_code>CY</arrival_country_code><arrival_country_name>Cyprus</arrival_country_name><arrival_city_code>PFO</arrival_city_code><arrival_city_name>Paphos</arrival_city_name><planes>738</planes><plane_name>Boeing 737-800</plane_name></routes><routes><airline_iata>FR</airline_iata><departure_airport_iata>BLQ</departure_airport_iata><departure_name_airport>Guglielmo Marconi</departure_name_airport><departure_coordinates_lon>11.293289</departure_coordinates_lon><departure_coordinates_lat>44.529266</departure_coordinates_lat><departure_country_code>IT</departure_country_code><departure_country_name>Italy</departure_country_name><departure_city_code>BLQ</departure_city_code><departure_city_name>Bologna</departure_city_name><arrival_airport_iata>LCA</arrival_airport_iata><arrival_name_airport>Larnaca</arrival_name_airport><arrival_coordinates_lon>33.62599</arrival_coordinates_lon><arrival_coordinates_lat>34.880867</arrival_coordinates_lat><arrival_country_code>CY</arrival_country_code><arrival_country_name>Cyprus</arrival_country_name><arrival_city_code>LCA</arrival_city_code><arrival_city_name>Larnaca</arrival_city_name><planes>738</planes><plane_name>Boeing 737-800</plane_name></routes><routes><airline_iata>FR</airline_iata><departure_airport_iata>BUD</departure_airport_iata><departure_name_airport>Liszt Ferenc International</departure_name_airport><departure_coordinates_lon>19.261621</departure_coordinates_lon><departure_coordinates_lat>47.433037</departure_coordinates_lat><departure_country_code>HU</departure_country_code><departure_country_name>Hungary</departure_country_name><departure_city_code>BUD</departure_city_code><departure_city_name>Budapest</departure_city_name><arrival_airport_iata>PFO</arrival_airport_iata><arrival_name_airport>International</arrival_name_airport><arrival_coordinates_lon>32.489105</arrival_coordinates_lon><arrival_coordinates_lat>34.71155</arrival_coordinates_lat><arrival_country_code>CY</arrival_country_code><arrival_country_name>Cyprus</arrival_country_name><arrival_city_code>PFO</arrival_city_code><arrival_city_name>Paphos</arrival_city_name><planes>738</planes><plane_name>Boeing 737-800</plane_name></routes><routes><airline_iata>FR</airline_iata><departure_airport_iata>CHQ</departure_airport_iata><departure_name_airport>Souda</departure_name_airport><departure_coordinates_lon>24.140373</departure_coordinates_lon><departure_coordinates_lat>35.5402</departure_coordinates_lat><departure_country_code>GR</departure_country_code><departure_country_name>Greece</departure_country_name><departure_city_code>CHQ</departure_city_code><departure_city_name>Chania</departure_city_name><arrival_airport_iata>PFO</arrival_airport_iata><arrival_name_airport>International</arrival_name_airport><arrival_coordinates_lon>32.489105</arrival_coordinates_lon><arrival_coordinates_lat>34.71155</arrival_coordinates_lat><arrival_country_code>CY</arrival_country_code><arrival_country_name>Cyprus</arrival_country_name><arrival_city_code>PFO</arrival_city_code><arrival_city_name>Paphos</arrival_city_name><planes>738</planes><plane_name>Boeing 737-800</plane_name></routes><routes><airline_iata>FR</airline_iata><departure_airport_iata>CIA</departure_airport_iata><departure_name_airport>Ciampino</departure_name_airport><departure_coordinates_lon>12.590987</departure_coordinates_lon><departure_coordinates_lat>41.799065</departure_coordinates_lat><departure_country_code>IT</departure_country_code><departure_country_name>Italy</departure_country_name><departure_city_code>ROM</departure_city_code><departure_city_name>Rome</departure_city_name><arrival_airport_iata>PFO</arrival_airport_iata><arrival_name_airport>International</arrival_name_airport><arrival_coordinates_lon>32.489105</arrival_coordinates_lon><arrival_coordinates_lat>34.71155</arrival_coordinates_lat><arrival_country_code>CY</arrival_country_code><arrival_country_name>Cyprus</arrival_country_name><arrival_city_code>PFO</arrival_city_code><arrival_city_name>Paphos</arrival_city_name><planes>738</planes><plane_name>Boeing 737-800</plane_name></routes><routes><airline_iata>FR</airline_iata><departure_airport_iata>CRL</departure_airport_iata><departure_name_airport>Charleroi Brussels South</departure_name_airport><departure_coordinates_lon>4.451703</departure_coordinates_lon><departure_coordinates_lat>50.456696</departure_coordinates_lat><departure_country_code>BE</departure_country_code><departure_country_name>Belgium</departure_country_name><departure_city_code>BRU</departure_city_code><departure_city_name>Brussels</departure_city_name><arrival_airport_iata>LCA</arrival_airport_iata><arrival_name_airport>Larnaca</arrival_name_airport><arrival_coordinates_lon>33.62599</arrival_coordinates_lon><arrival_coordinates_lat>34.880867</arrival_coordinates_lat><arrival_country_code>CY</arrival_country_code><arrival_country_name>Cyprus</arrival_country_name><arrival_city_code>LCA</arrival_city_code><arrival_city_name>Larnaca</arrival_city_name><planes>738</planes><plane_name>Boeing 737-800</plane_name></routes><routes><airline_iata>FR</airline_iata><departure_airport_iata>FMM</departure_airport_iata><departure_name_airport>Memmingen-Allgäu</departure_name_airport><departure_coordinates_lon>10.239444</departure_coordinates_lon><departure_coordinates_lat>47.98861</departure_coordinates_lat><departure_country_code>DE</departure_country_code><departure_country_name>Germany</departure_country_name><departure_city_code>FMM</departure_city_code><departure_city_name>Memmingen</departure_city_name><arrival_airport_iata>PFO</arrival_airport_iata><arrival_name_airport>International</arrival_name_airport><arrival_coordinates_lon>32.489105</arrival_coordinates_lon><arrival_coordinates_lat>34.71155</arrival_coordinates_lat><arrival_country_code>CY</arrival_country_code><arrival_country_name>Cyprus</arrival_country_name><arrival_city_code>PFO</arrival_city_code><arrival_city_name>Paphos</arrival_city_name><planes>738</planes><plane_name>Boeing 737-800</plane_name></routes><routes><airline_iata>FR</airline_iata><departure_airport_iata>GPA</departure_airport_iata><departure_name_airport>Araxos Airport</departure_name_airport><departure_coordinates_lon>21.733334</departure_coordinates_lon><departure_coordinates_lat>38.25</departure_coordinates_lat><departure_country_code>GR</departure_country_code><departure_country_name>Greece</departure_country_name><departure_city_code>GPA</departure_city_code><departure_city_name>Patras</departure_city_name><arrival_airport_iata>PFO</arrival_airport_iata><arrival_name_airport>International</arrival_name_airport><arrival_coordinates_lon>32.489105</arrival_coordinates_lon><arrival_coordinates_lat>34.71155</arrival_coordinates_lat><arrival_country_code>CY</arrival_country_code><arrival_country_name>Cyprus</arrival_country_name><arrival_city_code>PFO</arrival_city_code><arrival_city_name>Paphos</arrival_city_name><planes>738</planes><plane_name>Boeing 737-800</plane_name></routes><routes><airline_iata>FR</airline_iata><departure_airport_iata>GRO</departure_airport_iata><departure_name_airport>Girona-Costa Brava</departure_name_airport><departure_coordinates_lon>2.766383</departure_coordinates_lon><departure_coordinates_lat>41.89804</departure_coordinates_lat><departure_country_code>ES</departure_country_code><departure_country_name>Spain</departure_country_name><departure_city_code>GRO</departure_city_code><departure_city_name>Gerona</departure_city_name><arrival_airport_iata>LCA</arrival_airport_iata><arrival_name_airport>Larnaca</arrival_name_airport><arrival_coordinates_lon>33.62599</arrival_coordinates_lon><arrival_coordinates_lat>34.880867</arrival_coordinates_lat><arrival_country_code>CY</arrival_country_code><arrival_country_name>Cyprus</arrival_country_name><arrival_city_code>LCA</arrival_city_code><arrival_city_name>Larnaca</arrival_city_name><planes>738</planes><plane_name>Boeing 737-800</plane_name></routes><routes><airline_iata>FR</airline_iata><departure_airport_iata>HHN</departure_airport_iata><departure_name_airport>Frankfurt-Hahn</departure_name_airport><departure_coordinates_lon>7.264167</departure_coordinates_lon><departure_coordinates_lat>49.948334</departure_coordinates_lat><departure_country_code>DE</departure_country_code><departure_country_name>Germany</departure_country_name><departure_city_code>FRA</departure_city_code><departure_city_name>Frankfurt</departure_city_name><arrival_airport_iata>PFO</arrival_airport_iata><arrival_name_airport>International</arrival_name_airport><arrival_coordinates_lon>32.489105</arrival_coordinates_lon><arrival_coordinates_lat>34.71155</arrival_coordinates_lat><arrival_country_code>CY</arrival_country_code><arrival_country_name>Cyprus</arrival_country_name><arrival_city_code>PFO</arrival_city_code><arrival_city_name>Paphos</arrival_city_name><planes>738</planes><plane_name>Boeing 737-800</plane_name></routes><routes><airline_iata>FR</airline_iata><departure_airport_iata>KRK</departure_airport_iata><departure_name_airport>John Paul II Balice International</departure_name_airport><departure_coordinates_lon>19.793743</departure_coordinates_lon><departure_coordinates_lat>50.075493</departure_coordinates_lat><departure_country_code>PL</departure_country_code><departure_country_name>Poland</departure_country_name><departure_city_code>KRK</departure_city_code><departure_city_name>Krakow</departure_city_name><arrival_airport_iata>PFO</arrival_airport_iata><arrival_name_airport>International</arrival_name_airport><arrival_coordinates_lon>32.489105</arrival_coordinates_lon><arrival_coordinates_lat>34.71155</arrival_coordinates_lat><arrival_country_code>CY</arrival_country_code><arrival_country_name>Cyprus</arrival_country_name><arrival_city_code>PFO</arrival_city_code><arrival_city_name>Paphos</arrival_city_name><planes>738</planes><plane_name>Boeing 737-800</plane_name></routes><routes><airline_iata>FR</airline_iata><departure_airport_iata>KUN</departure_airport_iata><departure_name_airport>Kaunas</departure_name_airport><departure_coordinates_lon>23.916668</departure_coordinates_lon><departure_coordinates_lat>54.9</departure_coordinates_lat><departure_country_code>LT</departure_country_code><departure_country_name>Lithuania</departure_country_name><departure_city_code>KUN</departure_city_code><departure_city_name>Kaunas</departure_city_name><arrival_airport_iata>PFO</arrival_airport_iata><arrival_name_airport>International</arrival_name_airport><arrival_coordinates_lon>32.489105</arrival_coordinates_lon><arrival_coordinates_lat>34.71155</arrival_coordinates_lat><arrival_country_code>CY</arrival_country_code><arrival_country_name>Cyprus</arrival_country_name><arrival_city_code>PFO</arrival_city_code><arrival_city_name>Paphos</arrival_city_name><planes>738</planes><plane_name>Boeing 737-800</plane_name></routes><routes><airline_iata>FR</airline_iata><departure_airport_iata>NRN</departure_airport_iata><departure_name_airport>Weeze</departure_name_airport><departure_coordinates_lon>6.150168</departure_coordinates_lon><departure_coordinates_lat>51.599285</departure_coordinates_lat><departure_country_code>DE</departure_country_code><departure_country_name>Germany</departure_country_name><departure_city_code>DUS</departure_city_code><departure_city_name>Dusseldorf</departure_city_name><arrival_airport_iata>LCA</arrival_airport_iata><arrival_name_airport>Larnaca</arrival_name_airport><arrival_coordinates_lon>33.62599</arrival_coordinates_lon><arrival_coordinates_lat>34.880867</arrival_coordinates_lat><arrival_country_code>CY</arrival_country_code><arrival_country_name>Cyprus</arrival_country_name><arrival_city_code>LCA</arrival_city_code><arrival_city_name>Larnaca</arrival_city_name><planes>738</planes><plane_name>Boeing 737-800</plane_name></routes><routes><airline_iata>FR</airline_iata><departure_airport_iata>NYO</departure_airport_iata><departure_name_airport>Skavsta</departure_name_airport><departure_coordinates_lon>16.922867</departure_coordinates_lon><departure_coordinates_lat>58.78425</departure_coordinates_lat><departure_country_code>SE</departure_country_code><departure_country_name>Sweden</departure_country_name><departure_city_code>STO</departure_city_code><departure_city_name>Stockholm</departure_city_name><arrival_airport_iata>PFO</arrival_airport_iata><arrival_name_airport>International</arrival_name_airport><arrival_coordinates_lon>32.489105</arrival_coordinates_lon><arrival_coordinates_lat>34.71155</arrival_coordinates_lat><arrival_country_code>CY</arrival_country_code><arrival_country_name>Cyprus</arrival_country_name><arrival_city_code>PFO</arrival_city_code><arrival_city_name>Paphos</arrival_city_name><planes>738</planes><plane_name>Boeing 737-800</plane_name></routes><routes><airline_iata>FR</airline_iata><departure_airport_iata>PSA</departure_airport_iata><departure_name_airport>Galileo Galilei</departure_name_airport><departure_coordinates_lon>10.399915</departure_coordinates_lon><departure_coordinates_lat>43.69871</departure_coordinates_lat><departure_country_code>IT</departure_country_code><departure_country_name>Italy</departure_country_name><departure_city_code>PSA</departure_city_code><departure_city_name>Pisa</departure_city_name><arrival_airport_iata>PFO</arrival_airport_iata><arrival_name_airport>International</arrival_name_airport><arrival_coordinates_lon>32.489105</arrival_coordinates_lon><arrival_coordinates_lat>34.71155</arrival_coordinates_lat><arrival_country_code>CY</arrival_country_code><arrival_country_name>Cyprus</arrival_country_name><arrival_city_code>PFO</arrival_city_code><arrival_city_name>Paphos</arrival_city_name><planes>738</planes><plane_name>Boeing 737-800</plane_name></routes><routes><airline_iata>FR</airline_iata><departure_airport_iata>RYG</departure_airport_iata><departure_name_airport>Moss Airport</departure_name_airport><departure_coordinates_lon>10.800161</departure_coordinates_lon><departure_coordinates_lat>59.37903</departure_coordinates_lat><departure_country_code>NO</departure_country_code><departure_country_name>Norway</departure_country_name><departure_city_code>OSL</departure_city_code><departure_city_name>Oslo</departure_city_name><arrival_airport_iata>PFO</arrival_airport_iata><arrival_name_airport>International</arrival_name_airport><arrival_coordinates_lon>32.489105</arrival_coordinates_lon><arrival_coordinates_lat>34.71155</arrival_coordinates_lat><arrival_country_code>CY</arrival_country_code><arrival_country_name>Cyprus</arrival_country_name><arrival_city_code>PFO</arrival_city_code><arrival_city_name>Paphos</arrival_city_name><planes>738</planes><plane_name>Boeing 737-800</plane_name></routes><routes><airline_iata>FR</airline_iata><departure_airport_iata>SKG</departure_airport_iata><departure_name_airport>Macedonia International</departure_name_airport><departure_coordinates_lon>22.972221</departure_coordinates_lon><departure_coordinates_lat>40.520832</departure_coordinates_lat><departure_country_code>GR</departure_country_code><departure_country_name>Greece</departure_country_name><departure_city_code>SKG</departure_city_code><departure_city_name>Thessaloniki</departure_city_name><arrival_airport_iata>PFO</arrival_airport_iata><arrival_name_airport>International</arrival_name_airport><arrival_coordinates_lon>32.489105</arrival_coordinates_lon><arrival_coordinates_lat>34.71155</arrival_coordinates_lat><arrival_country_code>CY</arrival_country_code><arrival_country_name>Cyprus</arrival_country_name><arrival_city_code>PFO</arrival_city_code><arrival_city_name>Paphos</arrival_city_name><planes>738</planes><plane_name>Boeing 737-800</plane_name></routes><routes><airline_iata>FR</airline_iata><departure_airport_iata>STN</departure_airport_iata><departure_name_airport>Stansted</departure_name_airport><departure_coordinates_lon>0.262703</departure_coordinates_lon><departure_coordinates_lat>51.889267</departure_coordinates_lat><departure_country_code>GB</departure_country_code><departure_country_name>United Kingdom</departure_country_name><departure_city_code>LON</departure_city_code><departure_city_name>London</departure_city_name><arrival_airport_iata>PFO</arrival_airport_iata><arrival_name_airport>International</arrival_name_airport><arrival_coordinates_lon>32.489105</arrival_coordinates_lon><arrival_coordinates_lat>34.71155</arrival_coordinates_lat><arrival_country_code>CY</arrival_country_code><arrival_country_name>Cyprus</arrival_country_name><arrival_city_code>PFO</arrival_city_code><arrival_city_name>Paphos</arrival_city_name><planes>738</planes><plane_name>Boeing 737-800</plane_name></routes><routes><airline_iata>FR</airline_iata><departure_airport_iata>TSF</departure_airport_iata><departure_name_airport>S. Angelo</departure_name_airport><departure_coordinates_lon>12.204444</departure_coordinates_lon><departure_coordinates_lat>45.655113</departure_coordinates_lat><departure_country_code>IT</departure_country_code><departure_country_name>Italy</departure_country_name><departure_city_code>VCE</departure_city_code><departure_city_name>Venice</departure_city_name><arrival_airport_iata>PFO</arrival_airport_iata><arrival_name_airport>International</arrival_name_airport><arrival_coordinates_lon>32.489105</arrival_coordinates_lon><arrival_coordinates_lat>34.71155</arrival_coordinates_lat><arrival_country_code>CY</arrival_country_code><arrival_country_name>Cyprus</arrival_country_name><arrival_city_code>PFO</arrival_city_code><arrival_city_name>Paphos</arrival_city_name><planes>738</planes><plane_name>Boeing 737-800</plane_name></routes><routes><airline_iata>FV</airline_iata><departure_airport_iata>LED</departure_airport_iata><departure_name_airport>Pulkovo</departure_name_airport><departure_coordinates_lon>30.3083</departure_coordinates_lon><departure_coordinates_lat>59.806084</departure_coordinates_lat><departure_country_code>RU</departure_country_code><departure_country_name>Russia</departure_country_name><departure_city_code>LED</departure_city_code><departure_city_name>Saint Petersburg</departure_city_name><arrival_airport_iata>LCA</arrival_airport_iata><arrival_name_airport>Larnaca</arrival_name_airport><arrival_coordinates_lon>33.62599</arrival_coordinates_lon><arrival_coordinates_lat>34.880867</arrival_coordinates_lat><arrival_country_code>CY</arrival_country_code><arrival_country_name>Cyprus</arrival_country_name><arrival_city_code>LCA</arrival_city_code><arrival_city_name>Larnaca</arrival_city_name><planes>319</planes><plane_name>Airbus Industrie A319</plane_name></routes><routes><airline_iata>GF</airline_iata><departure_airport_iata>ATH</departure_airport_iata><departure_name_airport>Athens International Airport "Eleftherios Venizelos"</departure_name_airport><departure_coordinates_lon>23.946486</departure_coordinates_lon><departure_coordinates_lat>37.93635</departure_coordinates_lat><departure_country_code>GR</departure_country_code><departure_country_name>Greece</departure_country_name><departure_city_code>ATH</departure_city_code><departure_city_name>Athens</departure_city_name><arrival_airport_iata>LCA</arrival_airport_iata><arrival_name_airport>Larnaca</arrival_name_airport><arrival_coordinates_lon>33.62599</arrival_coordinates_lon><arrival_coordinates_lat>34.880867</arrival_coordinates_lat><arrival_country_code>CY</arrival_country_code><arrival_country_name>Cyprus</arrival_country_name><arrival_city_code>LCA</arrival_city_code><arrival_city_name>Larnaca</arrival_city_name><planes>320</planes><plane_name>Airbus Industrie A320</plane_name></routes><routes><airline_iata>GF</airline_iata><departure_airport_iata>BAH</departure_airport_iata><departure_name_airport>Bahrain International</departure_name_airport><departure_coordinates_lon>50.62605</departure_coordinates_lon><departure_coordinates_lat>26.26918</departure_coordinates_lat><departure_country_code>BH</departure_country_code><departure_country_name>Bahrain</departure_country_name><departure_city_code>BAH</departure_city_code><departure_city_name>Manama</departure_city_name><arrival_airport_iata>LCA</arrival_airport_iata><arrival_name_airport>Larnaca</arrival_name_airport><arrival_coordinates_lon>33.62599</arrival_coordinates_lon><arrival_coordinates_lat>34.880867</arrival_coordinates_lat><arrival_country_code>CY</arrival_country_code><arrival_country_name>Cyprus</arrival_country_name><arrival_city_code>LCA</arrival_city_code><arrival_city_name>Larnaca</arrival_city_name><planes>320</planes><plane_name>Airbus Industrie A320</plane_name></routes><routes><airline_iata>GF</airline_iata><departure_airport_iata>SKG</departure_airport_iata><departure_name_airport>Macedonia International</departure_name_airport><departure_coordinates_lon>22.972221</departure_coordinates_lon><departure_coordinates_lat>40.520832</departure_coordinates_lat><departure_country_code>GR</departure_country_code><departure_country_name>Greece</departure_country_name><departure_city_code>SKG</departure_city_code><departure_city_name>Thessaloniki</departure_city_name><arrival_airport_iata>LCA</arrival_airport_iata><arrival_name_airport>Larnaca</arrival_name_airport><arrival_coordinates_lon>33.62599</arrival_coordinates_lon><arrival_coordinates_lat>34.880867</arrival_coordinates_lat><arrival_country_code>CY</arrival_country_code><arrival_country_name>Cyprus</arrival_country_name><arrival_city_code>LCA</arrival_city_code><arrival_city_name>Larnaca</arrival_city_name><planes>320</planes><plane_name>Airbus Industrie A320</plane_name></routes><routes><airline_iata>HV</airline_iata><departure_airport_iata>AMS</departure_airport_iata><departure_name_airport>Schiphol</departure_name_airport><departure_coordinates_lon>4.763385</departure_coordinates_lon><departure_coordinates_lat>52.30907</departure_coordinates_lat><departure_country_code>NL</departure_country_code><departure_country_name>Netherlands</departure_country_name><departure_city_code>AMS</departure_city_code><departure_city_name>Amsterdam</departure_city_name><arrival_airport_iata>LCA</arrival_airport_iata><arrival_name_airport>Larnaca</arrival_name_airport><arrival_coordinates_lon>33.62599</arrival_coordinates_lon><arrival_coordinates_lat>34.880867</arrival_coordinates_lat><arrival_country_code>CY</arrival_country_code><arrival_country_name>Cyprus</arrival_country_name><arrival_city_code>LCA</arrival_city_code><arrival_city_name>Larnaca</arrival_city_name><planes>738</planes><plane_name>Boeing 737-800</plane_name></routes><routes><airline_iata>HV</airline_iata><departure_airport_iata>AMS</departure_airport_iata><departure_name_airport>Schiphol</departure_name_airport><departure_coordinates_lon>4.763385</departure_coordinates_lon><departure_coordinates_lat>52.30907</departure_coordinates_lat><departure_country_code>NL</departure_country_code><departure_country_name>Netherlands</departure_country_name><departure_city_code>AMS</departure_city_code><departure_city_name>Amsterdam</departure_city_name><arrival_airport_iata>PFO</arrival_airport_iata><arrival_name_airport>International</arrival_name_airport><arrival_coordinates_lon>32.489105</arrival_coordinates_lon><arrival_coordinates_lat>34.71155</arrival_coordinates_lat><arrival_country_code>CY</arrival_country_code><arrival_country_name>Cyprus</arrival_country_name><arrival_city_code>PFO</arrival_city_code><arrival_city_name>Paphos</arrival_city_name><planes>738</planes><plane_name>Boeing 737-800</plane_name></routes><routes><airline_iata>HV</airline_iata><departure_airport_iata>LCA</departure_airport_iata><departure_name_airport>Larnaca</departure_name_airport><departure_coordinates_lon>33.62599</departure_coordinates_lon><departure_coordinates_lat>34.880867</departure_coordinates_lat><departure_country_code>CY</departure_country_code><departure_country_name>Cyprus</departure_country_name><departure_city_code>LCA</departure_city_code><departure_city_name>Larnaca</departure_city_name><arrival_airport_iata>PFO</arrival_airport_iata><arrival_name_airport>International</arrival_name_airport><arrival_coordinates_lon>32.489105</arrival_coordinates_lon><arrival_coordinates_lat>34.71155</arrival_coordinates_lat><arrival_country_code>CY</arrival_country_code><arrival_country_name>Cyprus</arrival_country_name><arrival_city_code>PFO</arrival_city_code><arrival_city_name>Paphos</arrival_city_name><planes>738</planes><plane_name>Boeing 737-800</plane_name></routes><routes><airline_iata>IZ</airline_iata><departure_airport_iata>TLV</departure_airport_iata><departure_name_airport>Ben Gurion International</departure_name_airport><departure_coordinates_lon>34.870743</departure_coordinates_lon><departure_coordinates_lat>32.000454</departure_coordinates_lat><departure_country_code>IL</departure_country_code><departure_country_name>Israel</departure_country_name><departure_city_code>TLV</departure_city_code><departure_city_name>Tel Aviv Yafo</departure_city_name><arrival_airport_iata>LCA</arrival_airport_iata><arrival_name_airport>Larnaca</arrival_name_airport><arrival_coordinates_lon>33.62599</arrival_coordinates_lon><arrival_coordinates_lat>34.880867</arrival_coordinates_lat><arrival_country_code>CY</arrival_country_code><arrival_country_name>Cyprus</arrival_country_name><arrival_city_code>LCA</arrival_city_code><arrival_city_name>Larnaca</arrival_city_name><planes>E95</planes><plane_name>Embraer ERJ-195</plane_name></routes><routes><airline_iata>JU</airline_iata><departure_airport_iata>BEG</departure_airport_iata><departure_name_airport>Belgrade Nikola Tesla</departure_name_airport><departure_coordinates_lon>20.306944</departure_coordinates_lon><departure_coordinates_lat>44.819443</departure_coordinates_lat><departure_country_code>RS</departure_country_code><departure_country_name>Serbia</departure_country_name><departure_city_code>BEG</departure_city_code><departure_city_name>Belgrade</departure_city_name><arrival_airport_iata>LCA</arrival_airport_iata><arrival_name_airport>Larnaca</arrival_name_airport><arrival_coordinates_lon>33.62599</arrival_coordinates_lon><arrival_coordinates_lat>34.880867</arrival_coordinates_lat><arrival_country_code>CY</arrival_country_code><arrival_country_name>Cyprus</arrival_country_name><arrival_city_code>LCA</arrival_city_code><arrival_city_name>Larnaca</arrival_city_name><planes>733</planes><plane_name>Boeing 737-300</plane_name></routes><routes><airline_iata>JU</airline_iata><departure_airport_iata>TLV</departure_airport_iata><departure_name_airport>Ben Gurion International</departure_name_airport><departure_coordinates_lon>34.870743</departure_coordinates_lon><departure_coordinates_lat>32.000454</departure_coordinates_lat><departure_country_code>IL</departure_country_code><departure_country_name>Israel</departure_country_name><departure_city_code>TLV</departure_city_code><departure_city_name>Tel Aviv Yafo</departure_city_name><arrival_airport_iata>LCA</arrival_airport_iata><arrival_name_airport>Larnaca</arrival_name_airport><arrival_coordinates_lon>33.62599</arrival_coordinates_lon><arrival_coordinates_lat>34.880867</arrival_coordinates_lat><arrival_country_code>CY</arrival_country_code><arrival_country_name>Cyprus</arrival_country_name><arrival_city_code>LCA</arrival_city_code><arrival_city_name>Larnaca</arrival_city_name><planes>733</planes><plane_name>Boeing 737-300</plane_name></routes><routes><airline_iata>KK</airline_iata><departure_airport_iata>ADA</departure_airport_iata><departure_name_airport>Adana</departure_name_airport><departure_coordinates_lon>35.29736</departure_coordinates_lon><departure_coordinates_lat>36.98503</departure_coordinates_lat><departure_country_code>TR</departure_country_code><departure_country_name>Turkey</departure_country_name><departure_city_code>ADA</departure_city_code><departure_city_name>Adana</departure_city_name><arrival_airport_iata>ECN</arrival_airport_iata><arrival_name_airport>Ercan</arrival_name_airport><arrival_coordinates_lon>33.50307</arrival_coordinates_lon><arrival_coordinates_lat>35.15812</arrival_coordinates_lat><arrival_country_code>CY</arrival_country_code><arrival_country_name>Cyprus</arrival_country_name><arrival_city_code>ECN</arrival_city_code><arrival_city_name>Lefkosa</arrival_city_name><planes>320</planes><plane_name>Airbus Industrie A320</plane_name></routes><routes><airline_iata>KK</airline_iata><departure_airport_iata>ADB</departure_airport_iata><departure_name_airport>Adnan Menderes Airport</departure_name_airport><departure_coordinates_lon>27.147594</departure_coordinates_lon><departure_coordinates_lat>38.294403</departure_coordinates_lat><departure_country_code>TR</departure_country_code><departure_country_name>Turkey</departure_country_name><departure_city_code>IZM</departure_city_code><departure_city_name>Izmir</departure_city_name><arrival_airport_iata>ECN</arrival_airport_iata><arrival_name_airport>Ercan</arrival_name_airport><arrival_coordinates_lon>33.50307</arrival_coordinates_lon><arrival_coordinates_lat>35.15812</arrival_coordinates_lat><arrival_country_code>CY</arrival_country_code><arrival_country_name>Cyprus</arrival_country_name><arrival_city_code>ECN</arrival_city_code><arrival_city_name>Lefkosa</arrival_city_name><planes>320</planes><plane_name>Airbus Industrie A320</plane_name></routes><routes><airline_iata>KK</airline_iata><departure_airport_iata>AYT</departure_airport_iata><departure_name_airport>Antalya</departure_name_airport><departure_coordinates_lon>30.80135</departure_coordinates_lon><departure_coordinates_lat>36.89928</departure_coordinates_lat><departure_country_code>TR</departure_country_code><departure_country_name>Turkey</departure_country_name><departure_city_code>AYT</departure_city_code><departure_city_name>Antalya</departure_city_name><arrival_airport_iata>ECN</arrival_airport_iata><arrival_name_airport>Ercan</arrival_name_airport><arrival_coordinates_lon>33.50307</arrival_coordinates_lon><arrival_coordinates_lat>35.15812</arrival_coordinates_lat><arrival_country_code>CY</arrival_country_code><arrival_country_name>Cyprus</arrival_country_name><arrival_city_code>ECN</arrival_city_code><arrival_city_name>Lefkosa</arrival_city_name><planes>320</planes><plane_name>Airbus Industrie A320</plane_name></routes><routes><airline_iata>KK</airline_iata><departure_airport_iata>IST</departure_airport_iata><departure_name_airport>Ataturk</departure_name_airport><departure_coordinates_lon>28.815277</departure_coordinates_lon><departure_coordinates_lat>40.976665</departure_coordinates_lat><departure_country_code>TR</departure_country_code><departure_country_name>Turkey</departure_country_name><departure_city_code>IST</departure_city_code><departure_city_name>Istanbul</departure_city_name><arrival_airport_iata>ECN</arrival_airport_iata><arrival_name_airport>Ercan</arrival_name_airport><arrival_coordinates_lon>33.50307</arrival_coordinates_lon><arrival_coordinates_lat>35.15812</arrival_coordinates_lat><arrival_country_code>CY</arrival_country_code><arrival_country_name>Cyprus</arrival_country_name><arrival_city_code>ECN</arrival_city_code><arrival_city_name>Lefkosa</arrival_city_name><planes>320</planes><plane_name>Airbus Industrie A320</plane_name></routes><routes><airline_iata>KL</airline_iata><departure_airport_iata>AMS</departure_airport_iata><departure_name_airport>Schiphol</departure_name_airport><departure_coordinates_lon>4.763385</departure_coordinates_lon><departure_coordinates_lat>52.30907</departure_coordinates_lat><departure_country_code>NL</departure_country_code><departure_country_name>Netherlands</departure_country_name><departure_city_code>AMS</departure_city_code><departure_city_name>Amsterdam</departure_city_name><arrival_airport_iata>LCA</arrival_airport_iata><arrival_name_airport>Larnaca</arrival_name_airport><arrival_coordinates_lon>33.62599</arrival_coordinates_lon><arrival_coordinates_lat>34.880867</arrival_coordinates_lat><arrival_country_code>CY</arrival_country_code><arrival_country_name>Cyprus</arrival_country_name><arrival_city_code>LCA</arrival_city_code><arrival_city_name>Larnaca</arrival_city_name><planes>32S</planes><plane_name>Airbus Industrie A318/319/320/321</plane_name></routes><routes><airline_iata>KL</airline_iata><departure_airport_iata>AMS</departure_airport_iata><departure_name_airport>Schiphol</departure_name_airport><departure_coordinates_lon>4.763385</departure_coordinates_lon><departure_coordinates_lat>52.30907</departure_coordinates_lat><departure_country_code>NL</departure_country_code><departure_country_name>Netherlands</departure_country_name><departure_city_code>AMS</departure_city_code><departure_city_name>Amsterdam</departure_city_name><arrival_airport_iata>PFO</arrival_airport_iata><arrival_name_airport>International</arrival_name_airport><arrival_coordinates_lon>32.489105</arrival_coordinates_lon><arrival_coordinates_lat>34.71155</arrival_coordinates_lat><arrival_country_code>CY</arrival_country_code><arrival_country_name>Cyprus</arrival_country_name><arrival_city_code>PFO</arrival_city_code><arrival_city_name>Paphos</arrival_city_name><planes>32S</planes><plane_name>Airbus Industrie A318/319/320/321</plane_name></routes><routes><airline_iata>KL</airline_iata><departure_airport_iata>LCA</departure_airport_iata><departure_name_airport>Larnaca</departure_name_airport><departure_coordinates_lon>33.62599</departure_coordinates_lon><departure_coordinates_lat>34.880867</departure_coordinates_lat><departure_country_code>CY</departure_country_code><departure_country_name>Cyprus</departure_country_name><departure_city_code>LCA</departure_city_code><departure_city_name>Larnaca</departure_city_name><arrival_airport_iata>PFO</arrival_airport_iata><arrival_name_airport>International</arrival_name_airport><arrival_coordinates_lon>32.489105</arrival_coordinates_lon><arrival_coordinates_lat>34.71155</arrival_coordinates_lat><arrival_country_code>CY</arrival_country_code><arrival_country_name>Cyprus</arrival_country_name><arrival_city_code>PFO</arrival_city_code><arrival_city_name>Paphos</arrival_city_name><planes>32S</planes><plane_name>Airbus Industrie A318/319/320/321</plane_name></routes><routes><airline_iata>KL</airline_iata><departure_airport_iata>PFO</departure_airport_iata><departure_name_airport>International</departure_name_airport><departure_coordinates_lon>32.489105</departure_coordinates_lon><departure_coordinates_lat>34.71155</departure_coordinates_lat><departure_country_code>CY</departure_country_code><departure_country_name>Cyprus</departure_country_name><departure_city_code>PFO</departure_city_code><departure_city_name>Paphos</departure_city_name><arrival_airport_iata>LCA</arrival_airport_iata><arrival_name_airport>Larnaca</arrival_name_airport><arrival_coordinates_lon>33.62599</arrival_coordinates_lon><arrival_coordinates_lat>34.880867</arrival_coordinates_lat><arrival_country_code>CY</arrival_country_code><arrival_country_name>Cyprus</arrival_country_name><arrival_city_code>LCA</arrival_city_code><arrival_city_name>Larnaca</arrival_city_name><planes>32S</planes><plane_name>Airbus Industrie A318/319/320/321</plane_name></routes><routes><airline_iata>KM</airline_iata><departure_airport_iata>MLA</departure_airport_iata><departure_name_airport>Malta International</departure_name_airport><departure_coordinates_lon>14.495401</departure_coordinates_lon><departure_coordinates_lat>35.849777</departure_coordinates_lat><departure_country_code>MT</departure_country_code><departure_country_name>Malta</departure_country_name><departure_city_code>MLA</departure_city_code><departure_city_name>Gudja</departure_city_name><arrival_airport_iata>LCA</arrival_airport_iata><arrival_name_airport>Larnaca</arrival_name_airport><arrival_coordinates_lon>33.62599</arrival_coordinates_lon><arrival_coordinates_lat>34.880867</arrival_coordinates_lat><arrival_country_code>CY</arrival_country_code><arrival_country_name>Cyprus</arrival_country_name><arrival_city_code>LCA</arrival_city_code><arrival_city_name>Larnaca</arrival_city_name><planes>332</planes><plane_name>Airbus Industrie A330-200</plane_name></routes><routes><airline_iata>LG</airline_iata><departure_airport_iata>LCA</departure_airport_iata><departure_name_airport>Larnaca</departure_name_airport><departure_coordinates_lon>33.62599</departure_coordinates_lon><departure_coordinates_lat>34.880867</departure_coordinates_lat><departure_country_code>CY</departure_country_code><departure_country_name>Cyprus</departure_country_name><departure_city_code>LCA</departure_city_code><departure_city_name>Larnaca</departure_city_name><arrival_airport_iata>PFO</arrival_airport_iata><arrival_name_airport>International</arrival_name_airport><arrival_coordinates_lon>32.489105</arrival_coordinates_lon><arrival_coordinates_lat>34.71155</arrival_coordinates_lat><arrival_country_code>CY</arrival_country_code><arrival_country_name>Cyprus</arrival_country_name><arrival_city_code>PFO</arrival_city_code><arrival_city_name>Paphos</arrival_city_name><planes>73W</planes><plane_name>Boeing 737-700 With Winglets</plane_name></routes><routes><airline_iata>LG</airline_iata><departure_airport_iata>LUX</departure_airport_iata><departure_name_airport>Findel</departure_name_airport><departure_coordinates_lon>6.209539</departure_coordinates_lon><departure_coordinates_lat>49.63111</departure_coordinates_lat><departure_country_code>LU</departure_country_code><departure_country_name>Luxembourg</departure_country_name><departure_city_code>LUX</departure_city_code><departure_city_name>Luxembourg</departure_city_name><arrival_airport_iata>LCA</arrival_airport_iata><arrival_name_airport>Larnaca</arrival_name_airport><arrival_coordinates_lon>33.62599</arrival_coordinates_lon><arrival_coordinates_lat>34.880867</arrival_coordinates_lat><arrival_country_code>CY</arrival_country_code><arrival_country_name>Cyprus</arrival_country_name><arrival_city_code>LCA</arrival_city_code><arrival_city_name>Larnaca</arrival_city_name><planes>73W</planes><plane_name>Boeing 737-700 With Winglets</plane_name></routes><routes><airline_iata>LH</airline_iata><departure_airport_iata>FRA</departure_airport_iata><departure_name_airport>Frankfurt International Airport</departure_name_airport><departure_coordinates_lon>8.570773</departure_coordinates_lon><departure_coordinates_lat>50.050735</departure_coordinates_lat><departure_country_code>DE</departure_country_code><departure_country_name>Germany</departure_country_name><departure_city_code>FRA</departure_city_code><departure_city_name>Frankfurt</departure_city_name><arrival_airport_iata>LCA</arrival_airport_iata><arrival_name_airport>Larnaca</arrival_name_airport><arrival_coordinates_lon>33.62599</arrival_coordinates_lon><arrival_coordinates_lat>34.880867</arrival_coordinates_lat><arrival_country_code>CY</arrival_country_code><arrival_country_name>Cyprus</arrival_country_name><arrival_city_code>LCA</arrival_city_code><arrival_city_name>Larnaca</arrival_city_name><planes>321</planes><plane_name>Airbus Industrie A321</plane_name></routes><routes><airline_iata>LH</airline_iata><departure_airport_iata>MUC</departure_airport_iata><departure_name_airport>Franz Josef Strauss</departure_name_airport><departure_coordinates_lon>11.790143</departure_coordinates_lon><departure_coordinates_lat>48.353004</departure_coordinates_lat><departure_country_code>DE</departure_country_code><departure_country_name>Germany</departure_country_name><departure_city_code>MUC</departure_city_code><departure_city_name>Munich</departure_city_name><arrival_airport_iata>LCA</arrival_airport_iata><arrival_name_airport>Larnaca</arrival_name_airport><arrival_coordinates_lon>33.62599</arrival_coordinates_lon><arrival_coordinates_lat>34.880867</arrival_coordinates_lat><arrival_country_code>CY</arrival_country_code><arrival_country_name>Cyprus</arrival_country_name><arrival_city_code>LCA</arrival_city_code><arrival_city_name>Larnaca</arrival_city_name><planes>321</planes><plane_name>Airbus Industrie A321</plane_name></routes><routes><airline_iata>LO</airline_iata><departure_airport_iata>WAW</departure_airport_iata><departure_name_airport>Frederic Chopin</departure_name_airport><departure_coordinates_lon>20.97329</departure_coordinates_lon><departure_coordinates_lat>52.170906</departure_coordinates_lat><departure_country_code>PL</departure_country_code><departure_country_name>Poland</departure_country_name><departure_city_code>WAW</departure_city_code><departure_city_name>Warsaw</departure_city_name><arrival_airport_iata>LCA</arrival_airport_iata><arrival_name_airport>Larnaca</arrival_name_airport><arrival_coordinates_lon>33.62599</arrival_coordinates_lon><arrival_coordinates_lat>34.880867</arrival_coordinates_lat><arrival_country_code>CY</arrival_country_code><arrival_country_name>Cyprus</arrival_country_name><arrival_city_code>LCA</arrival_city_code><arrival_city_name>Larnaca</arrival_city_name><planes>E95</planes><plane_name>Embraer ERJ-195</plane_name></routes><routes><airline_iata>LS</airline_iata><departure_airport_iata>EMA</departure_airport_iata><departure_name_airport>East Midlands</departure_name_airport><departure_coordinates_lon>-1.330595</departure_coordinates_lon><departure_coordinates_lat>52.82587</departure_coordinates_lat><departure_country_code>GB</departure_country_code><departure_country_name>United Kingdom</departure_country_name><departure_city_code>NQT</departure_city_code><departure_city_name>Nottingham</departure_city_name><arrival_airport_iata>PFO</arrival_airport_iata><arrival_name_airport>International</arrival_name_airport><arrival_coordinates_lon>32.489105</arrival_coordinates_lon><arrival_coordinates_lat>34.71155</arrival_coordinates_lat><arrival_country_code>CY</arrival_country_code><arrival_country_name>Cyprus</arrival_country_name><arrival_city_code>PFO</arrival_city_code><arrival_city_name>Paphos</arrival_city_name><planes>75W</planes><plane_name>Boeing 757-200 With Winglets</plane_name></routes><routes><airline_iata>LS</airline_iata><departure_airport_iata>GLA</departure_airport_iata><departure_name_airport>Glasgow International</departure_name_airport><departure_coordinates_lon>-4.431782</departure_coordinates_lon><departure_coordinates_lat>55.864212</departure_coordinates_lat><departure_country_code>GB</departure_country_code><departure_country_name>United Kingdom</departure_country_name><departure_city_code>GLA</departure_city_code><departure_city_name>Glasgow</departure_city_name><arrival_airport_iata>PFO</arrival_airport_iata><arrival_name_airport>International</arrival_name_airport><arrival_coordinates_lon>32.489105</arrival_coordinates_lon><arrival_coordinates_lat>34.71155</arrival_coordinates_lat><arrival_country_code>CY</arrival_country_code><arrival_country_name>Cyprus</arrival_country_name><arrival_city_code>PFO</arrival_city_code><arrival_city_name>Paphos</arrival_city_name><planes>738</planes><plane_name>Boeing 737-800</plane_name></routes><routes><airline_iata>LS</airline_iata><departure_airport_iata>LBA</departure_airport_iata><departure_name_airport>Leeds/bradford</departure_name_airport><departure_coordinate