<?xml version="1.0" encoding="utf-8"?>
<route><routes><airline_iata>IY</airline_iata><departure_airport_iata>SAH</departure_airport_iata><departure_name_airport>El Rahaba Airport (Sanaa Intenational)</departure_name_airport><departure_coordinates_lon>44.22511</departure_coordinates_lon><departure_coordinates_lat>15.473598</departure_coordinates_lat><departure_country_code>YE</departure_country_code><departure_country_name>Yemen</departure_country_name><departure_city_code>SAH</departure_city_code><departure_city_name>Sanaa</departure_city_name><arrival_airport_iata>ASM</arrival_airport_iata><arrival_name_airport>Yohannes IV</arrival_name_airport><arrival_coordinates_lon>38.91028</arrival_coordinates_lon><arrival_coordinates_lat>15.291111</arrival_coordinates_lat><arrival_country_code>ER</arrival_country_code><arrival_country_name>Eritrea</arrival_country_name><arrival_city_code>ASM</arrival_city_code><arrival_city_name>Asmara</arrival_city_name><planes>310</planes><plane_name>Airbus Industrie A310</plane_name></routes><routes><airline_iata>LH</airline_iata><departure_airport_iata>JED</departure_airport_iata><departure_name_airport>King Abdulaziz International</departure_name_airport><departure_coordinates_lon>39.150578</departure_coordinates_lon><departure_coordinates_lat>21.670233</departure_coordinates_lat><departure_country_code>SA</departure_country_code><departure_country_name>Saudi Arabia</departure_country_name><departure_city_code>JED</departure_city_code><departure_city_name>Jeddah</departure_city_name><arrival_airport_iata>ASM</arrival_airport_iata><arrival_name_airport>Yohannes IV</arrival_name_airport><arrival_coordinates_lon>38.91028</arrival_coordinates_lon><arrival_coordinates_lat>15.291111</arrival_coordinates_lat><arrival_country_code>ER</arrival_country_code><arrival_country_name>Eritrea</arrival_country_name><arrival_city_code>ASM</arrival_city_code><arrival_city_name>Asmara</arrival_city_name><planes>333</planes><plane_name>Airbus Industrie A330-300</plane_name></routes><routes><airline_iata>MS</airline_iata><departure_airport_iata>CAI</departure_airport_iata><departure_name_airport>Cairo International Airport</departure_name_airport><departure_coordinates_lon>31.40647</departure_coordinates_lon><departure_coordinates_lat>30.120106</departure_coordinates_lat><departure_country_code>EG</departure_country_code><departure_country_name>Egypt</departure_country_name><departure_city_code>CAI</departure_city_code><departure_city_name>Cairo</departure_city_name><arrival_airport_iata>ASM</arrival_airport_iata><arrival_name_airport>Yohannes IV</arrival_name_airport><arrival_coordinates_lon>38.91028</arrival_coordinates_lon><arrival_coordinates_lat>15.291111</arrival_coordinates_lat><arrival_country_code>ER</arrival_country_code><arrival_country_name>Eritrea</arrival_country_name><arrival_city_code>ASM</arrival_city_code><arrival_city_name>Asmara</arrival_city_name><planes>320</planes><plane_name>Airbus Industrie A320</plane_name></routes><routes><airline_iata>SD</airline_iata><departure_airport_iata>KRT</departure_airport_iata><departure_name_airport>Civil</departure_name_airport><departure_coordinates_lon>32.549698</departure_coordinates_lon><departure_coordinates_lat>15.592217</departure_coordinates_lat><departure_country_code>SD</departure_country_code><departure_country_name>Sudan</departure_country_name><departure_city_code>KRT</departure_city_code><departure_city_name>Khartoum</departure_city_name><arrival_airport_iata>ASM</arrival_airport_iata><arrival_name_airport>Yohannes IV</arrival_name_airport><arrival_coordinates_lon>38.91028</arrival_coordinates_lon><arrival_coordinates_lat>15.291111</arrival_coordinates_lat><arrival_country_code>ER</arrival_country_code><arrival_country_name>Eritrea</arrival_country_name><arrival_city_code>ASM</arrival_city_code><arrival_city_name>Asmara</arrival_city_name><planes>F50</planes><plane_name>Fokker 50</plane_name></routes><routes><airline_iata>SD</airline_iata><departure_airport_iata>PZU</departure_airport_iata><departure_name_airport>Port Sudan</departure_name_airport><departure_coordinates_lon>37.21389</departure_coordinates_lon><departure_coordinates_lat>19.577778</departure_coordinates_lat><departure_country_code>SD</departure_country_code><departure_country_name>Sudan</departure_country_name><departure_city_code>PZU</departure_city_code><departure_city_name>Port Sudan</departure_city_name><arrival_airport_iata>ASM</arrival_airport_iata><arrival_name_airport>Yohannes IV</arrival_name_airport><arrival_coordinates_lon>38.91028</arrival_coordinates_lon><arrival_coordinates_lat>15.291111</arrival_coordinates_lat><arrival_country_code>ER</arrival_country_code><arrival_country_name>Eritrea</arrival_country_name><arrival_city_code>ASM</arrival_city_code><arrival_city_name>Asmara</arrival_city_name><planes>F50</planes><plane_name>Fokker 50</plane_name></routes><routes><airline_iata>UA</airline_iata><departure_airport_iata>JED</departure_airport_iata><departure_name_airport>King Abdulaziz International</departure_name_airport><departure_coordinates_lon>39.150578</departure_coordinates_lon><departure_coordinates_lat>21.670233</departure_coordinates_lat><departure_country_code>SA</departure_country_code><departure_country_name>Saudi Arabia</departure_country_name><departure_city_code>JED</departure_city_code><departure_city_name>Jeddah</departure_city_name><arrival_airport_iata>ASM</arrival_airport_iata><arrival_name_airport>Yohannes IV</arrival_name_airport><arrival_coordinates_lon>38.91028</arrival_coordinates_lon><arrival_coordinates_lat>15.291111</arrival_coordinates_lat><arrival_country_code>ER</arrival_country_code><arrival_country_name>Eritrea</arrival_country_name><arrival_city_code>ASM</arrival_city_code><arrival_city_name>Asmara</arrival_city_name><planes>333</planes><plane_name>Airbus Industrie A330-300</plane_name></routes></route>
