<?xml version="1.0" encoding="utf-8"?>
<route><routes><airline_iata>UA</airline_iata><departure_airport_iata>GUM</departure_airport_iata><departure_name_airport>Guam International</departure_name_airport><departure_coordinates_lon>144.80486</departure_coordinates_lon><departure_coordinates_lat>13.492787</departure_coordinates_lat><departure_country_code>GU</departure_country_code><departure_country_name>Guam</departure_country_name><departure_city_code>GUM</departure_city_code><departure_city_name>Agana</departure_city_name><arrival_airport_iata>TKK</arrival_airport_iata><arrival_name_airport>Truk</arrival_name_airport><arrival_coordinates_lon>151.84201</arrival_coordinates_lon><arrival_coordinates_lat>7.457446</arrival_coordinates_lat><arrival_country_code>FM</arrival_country_code><arrival_country_name>Micronesia</arrival_country_name><arrival_city_code>TKK</arrival_city_code><arrival_city_name>Truk</arrival_city_name><planes>738</planes><plane_name>Boeing 737-800</plane_name></routes><routes><airline_iata>UA</airline_iata><departure_airport_iata>GUM</departure_airport_iata><departure_name_airport>Guam International</departure_name_airport><departure_coordinates_lon>144.80486</departure_coordinates_lon><departure_coordinates_lat>13.492787</departure_coordinates_lat><departure_country_code>GU</departure_country_code><departure_country_name>Guam</departure_country_name><departure_city_code>GUM</departure_city_code><departure_city_name>Agana</departure_city_name><arrival_airport_iata>YAP</arrival_airport_iata><arrival_name_airport>Yap International</arrival_name_airport><arrival_coordinates_lon>138.08673</arrival_coordinates_lon><arrival_coordinates_lat>9.497715</arrival_coordinates_lat><arrival_country_code>FM</arrival_country_code><arrival_country_name>Micronesia</arrival_country_name><arrival_city_code>YAP</arrival_city_code><arrival_city_name>Yap</arrival_city_name><planes>73G</planes><plane_name>Boeing 737-700</plane_name></routes><routes><airline_iata>UA</airline_iata><departure_airport_iata>KSA</departure_airport_iata><departure_name_airport>Kosrae</departure_name_airport><departure_coordinates_lon>162.9566</departure_coordinates_lon><departure_coordinates_lat>5.352478</departure_coordinates_lat><departure_country_code>FM</departure_country_code><departure_country_name>Micronesia</departure_country_name><departure_city_code>KSA</departure_city_code><departure_city_name>Kosrae</departure_city_name><arrival_airport_iata>PNI</arrival_airport_iata><arrival_name_airport>Pohnpei</arrival_name_airport><arrival_coordinates_lon>158.20334</arrival_coordinates_lon><arrival_coordinates_lat>6.980947</arrival_coordinates_lat><arrival_country_code>FM</arrival_country_code><arrival_country_name>Micronesia</arrival_country_name><arrival_city_code>PNI</arrival_city_code><arrival_city_name>Pohnpei</arrival_city_name><planes>738</planes><plane_name>Boeing 737-800</plane_name></routes><routes><airline_iata>UA</airline_iata><departure_airport_iata>KWA</departure_airport_iata><departure_name_airport>Kwajalein</departure_name_airport><departure_coordinates_lon>167.72195</departure_coordinates_lon><departure_coordinates_lat>8.720843</departure_coordinates_lat><departure_country_code>MH</departure_country_code><departure_country_name>Marshall Islands</departure_country_name><departure_city_code>KWA</departure_city_code><departure_city_name>Kwajalein</departure_city_name><arrival_airport_iata>KSA</arrival_airport_iata><arrival_name_airport>Kosrae</arrival_name_airport><arrival_coordinates_lon>162.9566</arrival_coordinates_lon><arrival_coordinates_lat>5.352478</arrival_coordinates_lat><arrival_country_code>FM</arrival_country_code><arrival_country_name>Micronesia</arrival_country_name><arrival_city_code>KSA</arrival_city_code><arrival_city_name>Kosrae</arrival_city_name><planes>738</planes><plane_name>Boeing 737-800</plane_name></routes><routes><airline_iata>UA</airline_iata><departure_airport_iata>KWA</departure_airport_iata><departure_name_airport>Kwajalein</departure_name_airport><departure_coordinates_lon>167.72195</departure_coordinates_lon><departure_coordinates_lat>8.720843</departure_coordinates_lat><departure_country_code>MH</departure_country_code><departure_country_name>Marshall Islands</departure_country_name><departure_city_code>KWA</departure_city_code><departure_city_name>Kwajalein</departure_city_name><arrival_airport_iata>PNI</arrival_airport_iata><arrival_name_airport>Pohnpei</arrival_name_airport><arrival_coordinates_lon>158.20334</arrival_coordinates_lon><arrival_coordinates_lat>6.980947</arrival_coordinates_lat><arrival_country_code>FM</arrival_country_code><arrival_country_name>Micronesia</arrival_country_name><arrival_city_code>PNI</arrival_city_code><arrival_city_name>Pohnpei</arrival_city_name><planes>738</planes><plane_name>Boeing 737-800</plane_name></routes><routes><airline_iata>UA</airline_iata><departure_airport_iata>PNI</departure_airport_iata><departure_name_airport>Pohnpei</departure_name_airport><departure_coordinates_lon>158.20334</departure_coordinates_lon><departure_coordinates_lat>6.980947</departure_coordinates_lat><departure_country_code>FM</departure_country_code><departure_country_name>Micronesia</departure_country_name><departure_city_code>PNI</departure_city_code><departure_city_name>Pohnpei</departure_city_name><arrival_airport_iata>KSA</arrival_airport_iata><arrival_name_airport>Kosrae</arrival_name_airport><arrival_coordinates_lon>162.9566</arrival_coordinates_lon><arrival_coordinates_lat>5.352478</arrival_coordinates_lat><arrival_country_code>FM</arrival_country_code><arrival_country_name>Micronesia</arrival_country_name><arrival_city_code>KSA</arrival_city_code><arrival_city_name>Kosrae</arrival_city_name><planes>738</planes><plane_name>Boeing 737-800</plane_name></routes><routes><airline_iata>UA</airline_iata><departure_airport_iata>PNI</departure_airport_iata><departure_name_airport>Pohnpei</departure_name_airport><departure_coordinates_lon>158.20334</departure_coordinates_lon><departure_coordinates_lat>6.980947</departure_coordinates_lat><departure_country_code>FM</departure_country_code><departure_country_name>Micronesia</departure_country_name><departure_city_code>PNI</departure_city_code><departure_city_name>Pohnpei</departure_city_name><arrival_airport_iata>TKK</arrival_airport_iata><arrival_name_airport>Truk</arrival_name_airport><arrival_coordinates_lon>151.84201</arrival_coordinates_lon><arrival_coordinates_lat>7.457446</arrival_coordinates_lat><arrival_country_code>FM</arrival_country_code><arrival_country_name>Micronesia</arrival_country_name><arrival_city_code>TKK</arrival_city_code><arrival_city_name>Truk</arrival_city_name><planes>73G</planes><plane_name>Boeing 737-700</plane_name></routes><routes><airline_iata>UA</airline_iata><departure_airport_iata>ROR</departure_airport_iata><departure_name_airport>Babelthuap/Koror</departure_name_airport><departure_coordinates_lon>134.5329</departure_coordinates_lon><departure_coordinates_lat>7.364122</departure_coordinates_lat><departure_country_code>PW</departure_country_code><departure_country_name>Palau</departure_country_name><departure_city_code>ROR</departure_city_code><departure_city_name>Koror</departure_city_name><arrival_airport_iata>YAP</arrival_airport_iata><arrival_name_airport>Yap International</arrival_name_airport><arrival_coordinates_lon>138.08673</arrival_coordinates_lon><arrival_coordinates_lat>9.497715</arrival_coordinates_lat><arrival_country_code>FM</arrival_country_code><arrival_country_name>Micronesia</arrival_country_name><arrival_city_code>YAP</arrival_city_code><arrival_city_name>Yap</arrival_city_name><planes>738</planes><plane_name>Boeing 737-800</plane_name></routes><routes><airline_iata>UA</airline_iata><departure_airport_iata>TKK</departure_airport_iata><departure_name_airport>Truk</departure_name_airport><departure_coordinates_lon>151.84201</departure_coordinates_lon><departure_coordinates_lat>7.457446</departure_coordinates_lat><departure_country_code>FM</departure_country_code><departure_country_name>Micronesia</departure_country_name><departure_city_code>TKK</departure_city_code><departure_city_name>Truk</departure_city_name><arrival_airport_iata>PNI</arrival_airport_iata><arrival_name_airport>Pohnpei</arrival_name_airport><arrival_coordinates_lon>158.20334</arrival_coordinates_lon><arrival_coordinates_lat>6.980947</arrival_coordinates_lat><arrival_country_code>FM</arrival_country_code><arrival_country_name>Micronesia</arrival_country_name><arrival_city_code>PNI</arrival_city_code><arrival_city_name>Pohnpei</arrival_city_name><planes>738</planes><plane_name>Boeing 737-800</plane_name></routes></route>
