<?xml version="1.0" encoding="utf-8"?>
<route><routes><airline_iata>3O</airline_iata><departure_airport_iata>CMN</departure_airport_iata><departure_name_airport>Mohamed V</departure_name_airport><departure_coordinates_lon>-7.586667</departure_coordinates_lon><departure_coordinates_lat>33.36667</departure_coordinates_lat><departure_country_code>MA</departure_country_code><departure_country_name>Morocco</departure_country_name><departure_city_code>CAS</departure_city_code><departure_city_name>Casablanca</departure_city_name><arrival_airport_iata>LYS</arrival_airport_iata><arrival_name_airport>St-Exupéry</arrival_name_airport><arrival_coordinates_lon>5.080334</arrival_coordinates_lon><arrival_coordinates_lat>45.721424</arrival_coordinates_lat><arrival_country_code>FR</arrival_country_code><arrival_country_name>France</arrival_country_name><arrival_city_code>LYS</arrival_city_code><arrival_city_name>Lyon</arrival_city_name><planes>320</planes><plane_name>Airbus Industrie A320</plane_name></routes><routes><airline_iata>3O</airline_iata><departure_airport_iata>CMN</departure_airport_iata><departure_name_airport>Mohamed V</departure_name_airport><departure_coordinates_lon>-7.586667</departure_coordinates_lon><departure_coordinates_lat>33.36667</departure_coordinates_lat><departure_country_code>MA</departure_country_code><departure_country_name>Morocco</departure_country_name><departure_city_code>CAS</departure_city_code><departure_city_name>Casablanca</departure_city_name><arrival_airport_iata>MPL</arrival_airport_iata><arrival_name_airport>Montpellier Méditerranée</arrival_name_airport><arrival_coordinates_lon>3.959174</arrival_coordinates_lon><arrival_coordinates_lat>43.57843</arrival_coordinates_lat><arrival_country_code>FR</arrival_country_code><arrival_country_name>France</arrival_country_name><arrival_city_code>MPL</arrival_city_code><arrival_city_name>Montpellier</arrival_city_name><planes>320</planes><plane_name>Airbus Industrie A320</plane_name></routes><routes><airline_iata>3O</airline_iata><departure_airport_iata>FEZ</departure_airport_iata><departure_name_airport>Sais</departure_name_airport><departure_coordinates_lon>-4.982138</departure_coordinates_lon><departure_coordinates_lat>33.93079</departure_coordinates_lat><departure_country_code>MA</departure_country_code><departure_country_name>Morocco</departure_country_name><departure_city_code>FEZ</departure_city_code><departure_city_name>Fez</departure_city_name><arrival_airport_iata>MPL</arrival_airport_iata><arrival_name_airport>Montpellier Méditerranée</arrival_name_airport><arrival_coordinates_lon>3.959174</arrival_coordinates_lon><arrival_coordinates_lat>43.57843</arrival_coordinates_lat><arrival_country_code>FR</arrival_country_code><arrival_country_name>France</arrival_country_name><arrival_city_code>MPL</arrival_city_code><arrival_city_name>Montpellier</arrival_city_name><planes>320</planes><plane_name>Airbus Industrie A320</plane_name></routes><routes><airline_iata>3O</airline_iata><departure_airport_iata>NDR</departure_airport_iata><departure_name_airport>Nador</departure_name_airport><departure_coordinates_lon>-3.028333</departure_coordinates_lon><departure_coordinates_lat>34.988888</departure_coordinates_lat><departure_country_code>MA</departure_country_code><departure_country_name>Morocco</departure_country_name><departure_city_code>NDR</departure_city_code><departure_city_name>Nador</departure_city_name><arrival_airport_iata>MPL</arrival_airport_iata><arrival_name_airport>Montpellier Méditerranée</arrival_name_airport><arrival_coordinates_lon>3.959174</arrival_coordinates_lon><arrival_coordinates_lat>43.57843</arrival_coordinates_lat><arrival_country_code>FR</arrival_country_code><arrival_country_name>France</arrival_country_name><arrival_city_code>MPL</arrival_city_code><arrival_city_name>Montpellier</arrival_city_name><planes>320</planes><plane_name>Airbus Industrie A320</plane_name></routes><routes><airline_iata>4U</airline_iata><departure_airport_iata>CGN</departure_airport_iata><departure_name_airport>Cologne/bonn</departure_name_airport><departure_coordinates_lon>7.122224</departure_coordinates_lon><departure_coordinates_lat>50.878365</departure_coordinates_lat><departure_country_code>DE</departure_country_code><departure_country_name>Germany</departure_country_name><departure_city_code>CGN</departure_city_code><departure_city_name>Cologne</departure_city_name><arrival_airport_iata>BIA</arrival_airport_iata><arrival_name_airport>Poretta</arrival_name_airport><arrival_coordinates_lon>9.480124</arrival_coordinates_lon><arrival_coordinates_lat>42.547615</arrival_coordinates_lat><arrival_country_code>FR</arrival_country_code><arrival_country_name>France</arrival_country_name><arrival_city_code>BIA</arrival_city_code><arrival_city_name>Bastia</arrival_city_name><planes>319</planes><plane_name>Airbus Industrie A319</plane_name></routes><routes><airline_iata>4U</airline_iata><departure_airport_iata>CGN</departure_airport_iata><departure_name_airport>Cologne/bonn</departure_name_airport><departure_coordinates_lon>7.122224</departure_coordinates_lon><departure_coordinates_lat>50.878365</departure_coordinates_lat><departure_country_code>DE</departure_country_code><departure_country_name>Germany</departure_country_name><departure_city_code>CGN</departure_city_code><departure_city_name>Cologne</departure_city_name><arrival_airport_iata>NCE</arrival_airport_iata><arrival_name_airport>Cote D'azur International Airport</arrival_name_airport><arrival_coordinates_lon>7.205232</arrival_coordinates_lon><arrival_coordinates_lat>43.66049</arrival_coordinates_lat><arrival_country_code>FR</arrival_country_code><arrival_country_name>France</arrival_country_name><arrival_city_code>NCE</arrival_city_code><arrival_city_name>Nice</arrival_city_name><planes>319</planes><plane_name>Airbus Industrie A319</plane_name></routes><routes><airline_iata>4U</airline_iata><departure_airport_iata>STR</departure_airport_iata><departure_name_airport>Stuttgart Echterdingen</departure_name_airport><departure_coordinates_lon>9.193624</departure_coordinates_lon><departure_coordinates_lat>48.69073</departure_coordinates_lat><departure_country_code>DE</departure_country_code><departure_country_name>Germany</departure_country_name><departure_city_code>STR</departure_city_code><departure_city_name>Stuttgart</departure_city_name><arrival_airport_iata>BIA</arrival_airport_iata><arrival_name_airport>Poretta</arrival_name_airport><arrival_coordinates_lon>9.480124</arrival_coordinates_lon><arrival_coordinates_lat>42.547615</arrival_coordinates_lat><arrival_country_code>FR</arrival_country_code><arrival_country_name>France</arrival_country_name><arrival_city_code>BIA</arrival_city_code><arrival_city_name>Bastia</arrival_city_name><planes>319</planes><plane_name>Airbus Industrie A319</plane_name></routes><routes><airline_iata>9U</airline_iata><departure_airport_iata>FRA</departure_airport_iata><departure_name_airport>Frankfurt International Airport</departure_name_airport><departure_coordinates_lon>8.570773</departure_coordinates_lon><departure_coordinates_lat>50.050735</departure_coordinates_lat><departure_country_code>DE</departure_country_code><departure_country_name>Germany</departure_country_name><departure_city_code>FRA</departure_city_code><departure_city_name>Frankfurt</departure_city_name><arrival_airport_iata>BVA</arrival_airport_iata><arrival_name_airport>Beauvais-Tille</arrival_name_airport><arrival_coordinates_lon>2.110815</arrival_coordinates_lon><arrival_coordinates_lat>49.459488</arrival_coordinates_lat><arrival_country_code>FR</arrival_country_code><arrival_country_name>France</arrival_country_name><arrival_city_code>PAR</arrival_city_code><arrival_city_name>Paris</arrival_city_name><planes>320</planes><plane_name>Airbus Industrie A320</plane_name></routes><routes><airline_iata>A3</airline_iata><departure_airport_iata>ATH</departure_airport_iata><departure_name_airport>Athens International Airport "Eleftherios Venizelos"</departure_name_airport><departure_coordinates_lon>23.946486</departure_coordinates_lon><departure_coordinates_lat>37.93635</departure_coordinates_lat><departure_country_code>GR</departure_country_code><departure_country_name>Greece</departure_country_name><departure_city_code>ATH</departure_city_code><departure_city_name>Athens</departure_city_name><arrival_airport_iata>CDG</arrival_airport_iata><arrival_name_airport>Charles De Gaulle</arrival_name_airport><arrival_coordinates_lon>2.567023</arrival_coordinates_lon><arrival_coordinates_lat>49.003197</arrival_coordinates_lat><arrival_country_code>FR</arrival_country_code><arrival_country_name>France</arrival_country_name><arrival_city_code>PAR</arrival_city_code><arrival_city_name>Paris</arrival_city_name><planes>321</planes><plane_name>Airbus Industrie A321</plane_name></routes><routes><airline_iata>A3</airline_iata><departure_airport_iata>HER</departure_airport_iata><departure_name_airport>Nikos Kazantzakis Airport</departure_name_airport><departure_coordinates_lon>25.174192</departure_coordinates_lon><departure_coordinates_lat>35.33663</departure_coordinates_lat><departure_country_code>GR</departure_country_code><departure_country_name>Greece</departure_country_name><departure_city_code>HER</departure_city_code><departure_city_name>Heraklion</departure_city_name><arrival_airport_iata>CDG</arrival_airport_iata><arrival_name_airport>Charles De Gaulle</arrival_name_airport><arrival_coordinates_lon>2.567023</arrival_coordinates_lon><arrival_coordinates_lat>49.003197</arrival_coordinates_lat><arrival_country_code>FR</arrival_country_code><arrival_country_name>France</arrival_country_name><arrival_city_code>PAR</arrival_city_code><arrival_city_name>Paris</arrival_city_name><planes>320</planes><plane_name>Airbus Industrie A320</plane_name></routes><routes><airline_iata>A5</airline_iata><departure_airport_iata>AGF</departure_airport_iata><departure_name_airport>La Garenne</departure_name_airport><departure_coordinates_lon>0.598611</departure_coordinates_lon><departure_coordinates_lat>44.17361</departure_coordinates_lat><departure_country_code>FR</departure_country_code><departure_country_name>France</departure_country_name><departure_city_code>AGF</departure_city_code><departure_city_name>Agen</departure_city_name><arrival_airport_iata>ORY</arrival_airport_iata><arrival_name_airport>Orly</arrival_name_airport><arrival_coordinates_lon>2.3597</arrival_coordinates_lon><arrival_coordinates_lat>48.728283</arrival_coordinates_lat><arrival_country_code>FR</arrival_country_code><arrival_country_name>France</arrival_country_name><arrival_city_code>PAR</arrival_city_code><arrival_city_name>Paris</arrival_city_name><planes>AT4</planes><plane_name>Aerospatiale/Alenia ATR 42-300/320</plane_name></routes><routes><airline_iata>A5</airline_iata><departure_airport_iata>AUR</departure_airport_iata><departure_name_airport>Aurillac</departure_name_airport><departure_coordinates_lon>2.418056</departure_coordinates_lon><departure_coordinates_lat>44.8975</departure_coordinates_lat><departure_country_code>FR</departure_country_code><departure_country_name>France</departure_country_name><departure_city_code>AUR</departure_city_code><departure_city_name>Aurillac</departure_city_name><arrival_airport_iata>ORY</arrival_airport_iata><arrival_name_airport>Orly</arrival_name_airport><arrival_coordinates_lon>2.3597</arrival_coordinates_lon><arrival_coordinates_lat>48.728283</arrival_coordinates_lat><arrival_country_code>FR</arrival_country_code><arrival_country_name>France</arrival_country_name><arrival_city_code>PAR</arrival_city_code><arrival_city_name>Paris</arrival_city_name><planes>AT5</planes><plane_name>Aerospatiale/Alenia ATR 42-500</plane_name></routes><routes><airline_iata>A5</airline_iata><departure_airport_iata>BVE</departure_airport_iata><departure_name_airport>Laroche</departure_name_airport><departure_coordinates_lon>1.533333</departure_coordinates_lon><departure_coordinates_lat>45.166668</departure_coordinates_lat><departure_country_code>FR</departure_country_code><departure_country_name>France</departure_country_name><departure_city_code>BVE</departure_city_code><departure_city_name>Brive-La-Gaillarde</departure_city_name><arrival_airport_iata>ORY</arrival_airport_iata><arrival_name_airport>Orly</arrival_name_airport><arrival_coordinates_lon>2.3597</arrival_coordinates_lon><arrival_coordinates_lat>48.728283</arrival_coordinates_lat><arrival_country_code>FR</arrival_country_code><arrival_country_name>France</arrival_country_name><arrival_city_code>PAR</arrival_city_code><arrival_city_name>Paris</arrival_city_name><planes>AT4</planes><plane_name>Aerospatiale/Alenia ATR 42-300/320</plane_name></routes><routes><airline_iata>A5</airline_iata><departure_airport_iata>CFR</departure_airport_iata><departure_name_airport>Carpiquet</departure_name_airport><departure_coordinates_lon>-0.459276</departure_coordinates_lon><departure_coordinates_lat>49.183437</departure_coordinates_lat><departure_country_code>FR</departure_country_code><departure_country_name>France</departure_country_name><departure_city_code>CFR</departure_city_code><departure_city_name>Caen</departure_city_name><arrival_airport_iata>ORY</arrival_airport_iata><arrival_name_airport>Orly</arrival_name_airport><arrival_coordinates_lon>2.3597</arrival_coordinates_lon><arrival_coordinates_lat>48.728283</arrival_coordinates_lat><arrival_country_code>FR</arrival_country_code><arrival_country_name>France</arrival_country_name><arrival_city_code>PAR</arrival_city_code><arrival_city_name>Paris</arrival_city_name><planes>BEH</planes><plane_name>Beechcraft Beech 1900D</plane_name></routes><routes><airline_iata>A5</airline_iata><departure_airport_iata>DCM</departure_airport_iata><departure_name_airport>Mazamet</departure_name_airport><departure_coordinates_lon>2.284167</departure_coordinates_lon><departure_coordinates_lat>43.555832</departure_coordinates_lat><departure_country_code>FR</departure_country_code><departure_country_name>France</departure_country_name><departure_city_code>DCM</departure_city_code><departure_city_name>Castres</departure_city_name><arrival_airport_iata>ORY</arrival_airport_iata><arrival_name_airport>Orly</arrival_name_airport><arrival_coordinates_lon>2.3597</arrival_coordinates_lon><arrival_coordinates_lat>48.728283</arrival_coordinates_lat><arrival_country_code>FR</arrival_country_code><arrival_country_name>France</arrival_country_name><arrival_city_code>PAR</arrival_city_code><arrival_city_name>Paris</arrival_city_name><planes>AT5</planes><plane_name>Aerospatiale/Alenia ATR 42-500</plane_name></routes><routes><airline_iata>A5</airline_iata><departure_airport_iata>LAI</departure_airport_iata><departure_name_airport>Servel</departure_name_airport><departure_coordinates_lon>-3.481944</departure_coordinates_lon><departure_coordinates_lat>48.754166</departure_coordinates_lat><departure_country_code>FR</departure_country_code><departure_country_name>France</departure_country_name><departure_city_code>LAI</departure_city_code><departure_city_name>Lannion</departure_city_name><arrival_airport_iata>ORY</arrival_airport_iata><arrival_name_airport>Orly</arrival_name_airport><arrival_coordinates_lon>2.3597</arrival_coordinates_lon><arrival_coordinates_lat>48.728283</arrival_coordinates_lat><arrival_country_code>FR</arrival_country_code><arrival_country_name>France</arrival_country_name><arrival_city_code>PAR</arrival_city_code><arrival_city_name>Paris</arrival_city_name><planes>AT5</planes><plane_name>Aerospatiale/Alenia ATR 42-500</plane_name></routes><routes><airline_iata>A5</airline_iata><departure_airport_iata>LRH</departure_airport_iata><departure_name_airport>Laleu</departure_name_airport><departure_coordinates_lon>-1.185833</departure_coordinates_lon><departure_coordinates_lat>46.180557</departure_coordinates_lat><departure_country_code>FR</departure_country_code><departure_country_name>France</departure_country_name><departure_city_code>LRH</departure_city_code><departure_city_name>La Rochelle</departure_city_name><arrival_airport_iata>ORY</arrival_airport_iata><arrival_name_airport>Orly</arrival_name_airport><arrival_coordinates_lon>2.3597</arrival_coordinates_lon><arrival_coordinates_lat>48.728283</arrival_coordinates_lat><arrival_country_code>FR</arrival_country_code><arrival_country_name>France</arrival_country_name><arrival_city_code>PAR</arrival_city_code><arrival_city_name>Paris</arrival_city_name><planes>BEH</planes><plane_name>Beechcraft Beech 1900D</plane_name></routes><routes><airline_iata>A5</airline_iata><departure_airport_iata>LRH</departure_airport_iata><departure_name_airport>Laleu</departure_name_airport><departure_coordinates_lon>-1.185833</departure_coordinates_lon><departure_coordinates_lat>46.180557</departure_coordinates_lat><departure_country_code>FR</departure_country_code><departure_country_name>France</departure_country_name><departure_city_code>LRH</departure_city_code><departure_city_name>La Rochelle</departure_city_name><arrival_airport_iata>PIS</arrival_airport_iata><arrival_name_airport>Biard</arrival_name_airport><arrival_coordinates_lon>0.306389</arrival_coordinates_lon><arrival_coordinates_lat>46.58611</arrival_coordinates_lat><arrival_country_code>FR</arrival_country_code><arrival_country_name>France</arrival_country_name><arrival_city_code>PIS</arrival_city_code><arrival_city_name>Poitiers</arrival_city_name><planes>AT7</planes><plane_name>Aerospatiale/Alenia ATR 72</plane_name></routes><routes><airline_iata>A5</airline_iata><departure_airport_iata>LYS</departure_airport_iata><departure_name_airport>St-Exupéry</departure_name_airport><departure_coordinates_lon>5.080334</departure_coordinates_lon><departure_coordinates_lat>45.721424</departure_coordinates_lat><departure_country_code>FR</departure_country_code><departure_country_name>France</departure_country_name><departure_city_code>LYS</departure_city_code><departure_city_name>Lyon</departure_city_name><arrival_airport_iata>PIS</arrival_airport_iata><arrival_name_airport>Biard</arrival_name_airport><arrival_coordinates_lon>0.306389</arrival_coordinates_lon><arrival_coordinates_lat>46.58611</arrival_coordinates_lat><arrival_country_code>FR</arrival_country_code><arrival_country_name>France</arrival_country_name><arrival_city_code>PIS</arrival_city_code><arrival_city_name>Poitiers</arrival_city_name><planes>AT7</planes><plane_name>Aerospatiale/Alenia ATR 72</plane_name></routes><routes><airline_iata>A5</airline_iata><departure_airport_iata>MRS</departure_airport_iata><departure_name_airport>Marseille Provence Airport</departure_name_airport><departure_coordinates_lon>5.222137</departure_coordinates_lon><departure_coordinates_lat>43.44178</departure_coordinates_lat><departure_country_code>FR</departure_country_code><departure_country_name>France</departure_country_name><departure_city_code>MRS</departure_city_code><departure_city_name>Marseille</departure_city_name><arrival_airport_iata>TLS</arrival_airport_iata><arrival_name_airport>Blagnac</arrival_name_airport><arrival_coordinates_lon>1.374321</arrival_coordinates_lon><arrival_coordinates_lat>43.63007</arrival_coordinates_lat><arrival_country_code>FR</arrival_country_code><arrival_country_name>France</arrival_country_name><arrival_city_code>TLS</arrival_city_code><arrival_city_name>Toulouse</arrival_city_name><planes>AT4</planes><plane_name>Aerospatiale/Alenia ATR 42-300/320</plane_name></routes><routes><airline_iata>A5</airline_iata><departure_airport_iata>NTE</departure_airport_iata><departure_name_airport>Nantes Atlantique</departure_name_airport><departure_coordinates_lon>-1.601402</departure_coordinates_lon><departure_coordinates_lat>47.157623</departure_coordinates_lat><departure_country_code>FR</departure_country_code><departure_country_name>France</departure_country_name><departure_city_code>NTE</departure_city_code><departure_city_name>Nantes</departure_city_name><arrival_airport_iata>SNR</arrival_airport_iata><arrival_name_airport>Montoir</arrival_name_airport><arrival_coordinates_lon>-2.182222</arrival_coordinates_lon><arrival_coordinates_lat>47.29111</arrival_coordinates_lat><arrival_country_code>FR</arrival_country_code><arrival_country_name>France</arrival_country_name><arrival_city_code>SNR</arrival_city_code><arrival_city_name>St Nazaire</arrival_city_name><planes>AT5</planes><plane_name>Aerospatiale/Alenia ATR 42-500</plane_name></routes><routes><airline_iata>A5</airline_iata><departure_airport_iata>ORY</departure_airport_iata><departure_name_airport>Orly</departure_name_airport><departure_coordinates_lon>2.3597</departure_coordinates_lon><departure_coordinates_lat>48.728283</departure_coordinates_lat><departure_country_code>FR</departure_country_code><departure_country_name>France</departure_country_name><departure_city_code>PAR</departure_city_code><departure_city_name>Paris</departure_city_name><arrival_airport_iata>AGF</arrival_airport_iata><arrival_name_airport>La Garenne</arrival_name_airport><arrival_coordinates_lon>0.598611</arrival_coordinates_lon><arrival_coordinates_lat>44.17361</arrival_coordinates_lat><arrival_country_code>FR</arrival_country_code><arrival_country_name>France</arrival_country_name><arrival_city_code>AGF</arrival_city_code><arrival_city_name>Agen</arrival_city_name><planes>AT4</planes><plane_name>Aerospatiale/Alenia ATR 42-300/320</plane_name></routes><routes><airline_iata>A5</airline_iata><departure_airport_iata>ORY</departure_airport_iata><departure_name_airport>Orly</departure_name_airport><departure_coordinates_lon>2.3597</departure_coordinates_lon><departure_coordinates_lat>48.728283</departure_coordinates_lat><departure_country_code>FR</departure_country_code><departure_country_name>France</departure_country_name><departure_city_code>PAR</departure_city_code><departure_city_name>Paris</departure_city_name><arrival_airport_iata>AUR</arrival_airport_iata><arrival_name_airport>Aurillac</arrival_name_airport><arrival_coordinates_lon>2.418056</arrival_coordinates_lon><arrival_coordinates_lat>44.8975</arrival_coordinates_lat><arrival_country_code>FR</arrival_country_code><arrival_country_name>France</arrival_country_name><arrival_city_code>AUR</arrival_city_code><arrival_city_name>Aurillac</arrival_city_name><planes>AT5</planes><plane_name>Aerospatiale/Alenia ATR 42-500</plane_name></routes><routes><airline_iata>A5</airline_iata><departure_airport_iata>ORY</departure_airport_iata><departure_name_airport>Orly</departure_name_airport><departure_coordinates_lon>2.3597</departure_coordinates_lon><departure_coordinates_lat>48.728283</departure_coordinates_lat><departure_country_code>FR</departure_country_code><departure_country_name>France</departure_country_name><departure_city_code>PAR</departure_city_code><departure_city_name>Paris</departure_city_name><arrival_airport_iata>BVE</arrival_airport_iata><arrival_name_airport>Laroche</arrival_name_airport><arrival_coordinates_lon>1.533333</arrival_coordinates_lon><arrival_coordinates_lat>45.166668</arrival_coordinates_lat><arrival_country_code>FR</arrival_country_code><arrival_country_name>France</arrival_country_name><arrival_city_code>BVE</arrival_city_code><arrival_city_name>Brive-La-Gaillarde</arrival_city_name><planes>AT4</planes><plane_name>Aerospatiale/Alenia ATR 42-300/320</plane_name></routes><routes><airline_iata>A5</airline_iata><departure_airport_iata>ORY</departure_airport_iata><departure_name_airport>Orly</departure_name_airport><departure_coordinates_lon>2.3597</departure_coordinates_lon><departure_coordinates_lat>48.728283</departure_coordinates_lat><departure_country_code>FR</departure_country_code><departure_country_name>France</departure_country_name><departure_city_code>PAR</departure_city_code><departure_city_name>Paris</departure_city_name><arrival_airport_iata>CFR</arrival_airport_iata><arrival_name_airport>Carpiquet</arrival_name_airport><arrival_coordinates_lon>-0.459276</arrival_coordinates_lon><arrival_coordinates_lat>49.183437</arrival_coordinates_lat><arrival_country_code>FR</arrival_country_code><arrival_country_name>France</arrival_country_name><arrival_city_code>CFR</arrival_city_code><arrival_city_name>Caen</arrival_city_name><planes>BEH</planes><plane_name>Beechcraft Beech 1900D</plane_name></routes><routes><airline_iata>A5</airline_iata><departure_airport_iata>ORY</departure_airport_iata><departure_name_airport>Orly</departure_name_airport><departure_coordinates_lon>2.3597</departure_coordinates_lon><departure_coordinates_lat>48.728283</departure_coordinates_lat><departure_country_code>FR</departure_country_code><departure_country_name>France</departure_country_name><departure_city_code>PAR</departure_city_code><departure_city_name>Paris</departure_city_name><arrival_airport_iata>DCM</arrival_airport_iata><arrival_name_airport>Mazamet</arrival_name_airport><arrival_coordinates_lon>2.284167</arrival_coordinates_lon><arrival_coordinates_lat>43.555832</arrival_coordinates_lat><arrival_country_code>FR</arrival_country_code><arrival_country_name>France</arrival_country_name><arrival_city_code>DCM</arrival_city_code><arrival_city_name>Castres</arrival_city_name><planes>AT5</planes><plane_name>Aerospatiale/Alenia ATR 42-500</plane_name></routes><routes><airline_iata>A5</airline_iata><departure_airport_iata>ORY</departure_airport_iata><departure_name_airport>Orly</departure_name_airport><departure_coordinates_lon>2.3597</departure_coordinates_lon><departure_coordinates_lat>48.728283</departure_coordinates_lat><departure_country_code>FR</departure_country_code><departure_country_name>France</departure_country_name><departure_city_code>PAR</departure_city_code><departure_city_name>Paris</departure_city_name><arrival_airport_iata>LAI</arrival_airport_iata><arrival_name_airport>Servel</arrival_name_airport><arrival_coordinates_lon>-3.481944</arrival_coordinates_lon><arrival_coordinates_lat>48.754166</arrival_coordinates_lat><arrival_country_code>FR</arrival_country_code><arrival_country_name>France</arrival_country_name><arrival_city_code>LAI</arrival_city_code><arrival_city_name>Lannion</arrival_city_name><planes>AT5</planes><plane_name>Aerospatiale/Alenia ATR 42-500</plane_name></routes><routes><airline_iata>A5</airline_iata><departure_airport_iata>ORY</departure_airport_iata><departure_name_airport>Orly</departure_name_airport><departure_coordinates_lon>2.3597</departure_coordinates_lon><departure_coordinates_lat>48.728283</departure_coordinates_lat><departure_country_code>FR</departure_country_code><departure_country_name>France</departure_country_name><departure_city_code>PAR</departure_city_code><departure_city_name>Paris</departure_city_name><arrival_airport_iata>LRH</arrival_airport_iata><arrival_name_airport>Laleu</arrival_name_airport><arrival_coordinates_lon>-1.185833</arrival_coordinates_lon><arrival_coordinates_lat>46.180557</arrival_coordinates_lat><arrival_country_code>FR</arrival_country_code><arrival_country_name>France</arrival_country_name><arrival_city_code>LRH</arrival_city_code><arrival_city_name>La Rochelle</arrival_city_name><planes>BEH</planes><plane_name>Beechcraft Beech 1900D</plane_name></routes><routes><airline_iata>A5</airline_iata><departure_airport_iata>PIS</departure_airport_iata><departure_name_airport>Biard</departure_name_airport><departure_coordinates_lon>0.306389</departure_coordinates_lon><departure_coordinates_lat>46.58611</departure_coordinates_lat><departure_country_code>FR</departure_country_code><departure_country_name>France</departure_country_name><departure_city_code>PIS</departure_city_code><departure_city_name>Poitiers</departure_city_name><arrival_airport_iata>LRH</arrival_airport_iata><arrival_name_airport>Laleu</arrival_name_airport><arrival_coordinates_lon>-1.185833</arrival_coordinates_lon><arrival_coordinates_lat>46.180557</arrival_coordinates_lat><arrival_country_code>FR</arrival_country_code><arrival_country_name>France</arrival_country_name><arrival_city_code>LRH</arrival_city_code><arrival_city_name>La Rochelle</arrival_city_name><planes>AT7</planes><plane_name>Aerospatiale/Alenia ATR 72</plane_name></routes><routes><airline_iata>A5</airline_iata><departure_airport_iata>PIS</departure_airport_iata><departure_name_airport>Biard</departure_name_airport><departure_coordinates_lon>0.306389</departure_coordinates_lon><departure_coordinates_lat>46.58611</departure_coordinates_lat><departure_country_code>FR</departure_country_code><departure_country_name>France</departure_country_name><departure_city_code>PIS</departure_city_code><departure_city_name>Poitiers</departure_city_name><arrival_airport_iata>LYS</arrival_airport_iata><arrival_name_airport>St-Exupéry</arrival_name_airport><arrival_coordinates_lon>5.080334</arrival_coordinates_lon><arrival_coordinates_lat>45.721424</arrival_coordinates_lat><arrival_country_code>FR</arrival_country_code><arrival_country_name>France</arrival_country_name><arrival_city_code>LYS</arrival_city_code><arrival_city_name>Lyon</arrival_city_name><planes>AT7</planes><plane_name>Aerospatiale/Alenia ATR 72</plane_name></routes><routes><airline_iata>A5</airline_iata><departure_airport_iata>SNR</departure_airport_iata><departure_name_airport>Montoir</departure_name_airport><departure_coordinates_lon>-2.182222</departure_coordinates_lon><departure_coordinates_lat>47.29111</departure_coordinates_lat><departure_country_code>FR</departure_country_code><departure_country_name>France</departure_country_name><departure_city_code>SNR</departure_city_code><departure_city_name>St Nazaire</departure_city_name><arrival_airport_iata>TLS</arrival_airport_iata><arrival_name_airport>Blagnac</arrival_name_airport><arrival_coordinates_lon>1.374321</arrival_coordinates_lon><arrival_coordinates_lat>43.63007</arrival_coordinates_lat><arrival_country_code>FR</arrival_country_code><arrival_country_name>France</arrival_country_name><arrival_city_code>TLS</arrival_city_code><arrival_city_name>Toulouse</arrival_city_name><planes>AT5</planes><plane_name>Aerospatiale/Alenia ATR 42-500</plane_name></routes><routes><airline_iata>A5</airline_iata><departure_airport_iata>TLS</departure_airport_iata><departure_name_airport>Blagnac</departure_name_airport><departure_coordinates_lon>1.374321</departure_coordinates_lon><departure_coordinates_lat>43.63007</departure_coordinates_lat><departure_country_code>FR</departure_country_code><departure_country_name>France</departure_country_name><departure_city_code>TLS</departure_city_code><departure_city_name>Toulouse</departure_city_name><arrival_airport_iata>MRS</arrival_airport_iata><arrival_name_airport>Marseille Provence Airport</arrival_name_airport><arrival_coordinates_lon>5.222137</arrival_coordinates_lon><arrival_coordinates_lat>43.44178</arrival_coordinates_lat><arrival_country_code>FR</arrival_country_code><arrival_country_name>France</arrival_country_name><arrival_city_code>MRS</arrival_city_code><arrival_city_name>Marseille</arrival_city_name><planes>AT5</planes><plane_name>Aerospatiale/Alenia ATR 42-500</plane_name></routes><routes><airline_iata>A5</airline_iata><departure_airport_iata>TLS</departure_airport_iata><departure_name_airport>Blagnac</departure_name_airport><departure_coordinates_lon>1.374321</departure_coordinates_lon><departure_coordinates_lat>43.63007</departure_coordinates_lat><departure_country_code>FR</departure_country_code><departure_country_name>France</departure_country_name><departure_city_code>TLS</departure_city_code><departure_city_name>Toulouse</departure_city_name><arrival_airport_iata>NTE</arrival_airport_iata><arrival_name_airport>Nantes Atlantique</arrival_name_airport><arrival_coordinates_lon>-1.601402</arrival_coordinates_lon><arrival_coordinates_lat>47.157623</arrival_coordinates_lat><arrival_country_code>FR</arrival_country_code><arrival_country_name>France</arrival_country_name><arrival_city_code>NTE</arrival_city_code><arrival_city_name>Nantes</arrival_city_name><planes>AT5</planes><plane_name>Aerospatiale/Alenia ATR 42-500</plane_name></routes><routes><airline_iata>A9</airline_iata><departure_airport_iata>TBS</departure_airport_iata><departure_name_airport>Novo Alexeyevka International</departure_name_airport><departure_coordinates_lon>44.958958</departure_coordinates_lon><departure_coordinates_lat>41.674065</departure_coordinates_lat><departure_country_code>GE</departure_country_code><departure_country_name>Georgia</departure_country_name><departure_city_code>TBS</departure_city_code><departure_city_name>Tbilisi</departure_city_name><arrival_airport_iata>CDG</arrival_airport_iata><arrival_name_airport>Charles De Gaulle</arrival_name_airport><arrival_coordinates_lon>2.567023</arrival_coordinates_lon><arrival_coordinates_lat>49.003197</arrival_coordinates_lat><arrival_country_code>FR</arrival_country_code><arrival_country_name>France</arrival_country_name><arrival_city_code>PAR</arrival_city_code><arrival_city_name>Paris</arrival_city_name><planes>735</planes><plane_name>Boeing 737-500</plane_name></routes><routes><airline_iata>AA</airline_iata><departure_airport_iata>BOS</departure_airport_iata><departure_name_airport>Logan International</departure_name_airport><departure_coordinates_lon>-71.02018</departure_coordinates_lon><departure_coordinates_lat>42.36646</departure_coordinates_lat><departure_country_code>US</departure_country_code><departure_country_name>United States</departure_country_name><departure_city_code>BOS</departure_city_code><departure_city_name>Boston</departure_city_name><arrival_airport_iata>CDG</arrival_airport_iata><arrival_name_airport>Charles De Gaulle</arrival_name_airport><arrival_coordinates_lon>2.567023</arrival_coordinates_lon><arrival_coordinates_lat>49.003197</arrival_coordinates_lat><arrival_country_code>FR</arrival_country_code><arrival_country_name>France</arrival_country_name><arrival_city_code>PAR</arrival_city_code><arrival_city_name>Paris</arrival_city_name><planes>757</planes><plane_name>Boeing 757</plane_name></routes><routes><airline_iata>AA</airline_iata><departure_airport_iata>DFW</departure_airport_iata><departure_name_airport>Dallas/Fort Worth International</departure_name_airport><departure_coordinates_lon>-97.036125</departure_coordinates_lon><departure_coordinates_lat>32.89746</departure_coordinates_lat><departure_country_code>US</departure_country_code><departure_country_name>United States</departure_country_name><departure_city_code>DFW</departure_city_code><departure_city_name>Dallas</departure_city_name><arrival_airport_iata>CDG</arrival_airport_iata><arrival_name_airport>Charles De Gaulle</arrival_name_airport><arrival_coordinates_lon>2.567023</arrival_coordinates_lon><arrival_coordinates_lat>49.003197</arrival_coordinates_lat><arrival_country_code>FR</arrival_country_code><arrival_country_name>France</arrival_country_name><arrival_city_code>PAR</arrival_city_code><arrival_city_name>Paris</arrival_city_name><planes>763</planes><plane_name>Boeing 767-300</plane_name></routes><routes><airline_iata>AA</airline_iata><departure_airport_iata>EWR</departure_airport_iata><departure_name_airport>Newark Liberty International</departure_name_airport><departure_coordinates_lon>-74.17876</departure_coordinates_lon><departure_coordinates_lat>40.68907</departure_coordinates_lat><departure_country_code>US</departure_country_code><departure_country_name>United States</departure_country_name><departure_city_code>NYC</departure_city_code><departure_city_name>New York</departure_city_name><arrival_airport_iata>ORY</arrival_airport_iata><arrival_name_airport>Orly</arrival_name_airport><arrival_coordinates_lon>2.3597</arrival_coordinates_lon><arrival_coordinates_lat>48.728283</arrival_coordinates_lat><arrival_country_code>FR</arrival_country_code><arrival_country_name>France</arrival_country_name><arrival_city_code>PAR</arrival_city_code><arrival_city_name>Paris</arrival_city_name><planes>757</planes><plane_name>Boeing 757</plane_name></routes><routes><airline_iata>AA</airline_iata><departure_airport_iata>JFK</departure_airport_iata><departure_name_airport>John F Kennedy International</departure_name_airport><departure_coordinates_lon>-73.78817</departure_coordinates_lon><departure_coordinates_lat>40.642334</departure_coordinates_lat><departure_country_code>US</departure_country_code><departure_country_name>United States</departure_country_name><departure_city_code>NYC</departure_city_code><departure_city_name>New York</departure_city_name><arrival_airport_iata>CDG</arrival_airport_iata><arrival_name_airport>Charles De Gaulle</arrival_name_airport><arrival_coordinates_lon>2.567023</arrival_coordinates_lon><arrival_coordinates_lat>49.003197</arrival_coordinates_lat><arrival_country_code>FR</arrival_country_code><arrival_country_name>France</arrival_country_name><arrival_city_code>PAR</arrival_city_code><arrival_city_name>Paris</arrival_city_name><planes>763</planes><plane_name>Boeing 767-300</plane_name></routes><routes><airline_iata>AA</airline_iata><departure_airport_iata>LHR</departure_airport_iata><departure_name_airport>Heathrow</departure_name_airport><departure_coordinates_lon>-0.453566</departure_coordinates_lon><departure_coordinates_lat>51.469604</departure_coordinates_lat><departure_country_code>GB</departure_country_code><departure_country_name>United Kingdom</departure_country_name><departure_city_code>LON</departure_city_code><departure_city_name>London</departure_city_name><arrival_airport_iata>CDG</arrival_airport_iata><arrival_name_airport>Charles De Gaulle</arrival_name_airport><arrival_coordinates_lon>2.567023</arrival_coordinates_lon><arrival_coordinates_lat>49.003197</arrival_coordinates_lat><arrival_country_code>FR</arrival_country_code><arrival_country_name>France</arrival_country_name><arrival_city_code>PAR</arrival_city_code><arrival_city_name>Paris</arrival_city_name><planes>321</planes><plane_name>Airbus Industrie A321</plane_name></routes><routes><airline_iata>AA</airline_iata><departure_airport_iata>LHR</departure_airport_iata><departure_name_airport>Heathrow</departure_name_airport><departure_coordinates_lon>-0.453566</departure_coordinates_lon><departure_coordinates_lat>51.469604</departure_coordinates_lat><departure_country_code>GB</departure_country_code><departure_country_name>United Kingdom</departure_country_name><departure_city_code>LON</departure_city_code><departure_city_name>London</departure_city_name><arrival_airport_iata>LYS</arrival_airport_iata><arrival_name_airport>St-Exupéry</arrival_name_airport><arrival_coordinates_lon>5.080334</arrival_coordinates_lon><arrival_coordinates_lat>45.721424</arrival_coordinates_lat><arrival_country_code>FR</arrival_country_code><arrival_country_name>France</arrival_country_name><arrival_city_code>LYS</arrival_city_code><arrival_city_name>Lyon</arrival_city_name><planes>319</planes><plane_name>Airbus Industrie A319</plane_name></routes><routes><airline_iata>AA</airline_iata><departure_airport_iata>LHR</departure_airport_iata><departure_name_airport>Heathrow</departure_name_airport><departure_coordinates_lon>-0.453566</departure_coordinates_lon><departure_coordinates_lat>51.469604</departure_coordinates_lat><departure_country_code>GB</departure_country_code><departure_country_name>United Kingdom</departure_country_name><departure_city_code>LON</departure_city_code><departure_city_name>London</departure_city_name><arrival_airport_iata>NCE</arrival_airport_iata><arrival_name_airport>Cote D'azur International Airport</arrival_name_airport><arrival_coordinates_lon>7.205232</arrival_coordinates_lon><arrival_coordinates_lat>43.66049</arrival_coordinates_lat><arrival_country_code>FR</arrival_country_code><arrival_country_name>France</arrival_country_name><arrival_city_code>NCE</arrival_city_code><arrival_city_name>Nice</arrival_city_name><planes>321</planes><plane_name>Airbus Industrie A321</plane_name></routes><routes><airline_iata>AA</airline_iata><departure_airport_iata>LHR</departure_airport_iata><departure_name_airport>Heathrow</departure_name_airport><departure_coordinates_lon>-0.453566</departure_coordinates_lon><departure_coordinates_lat>51.469604</departure_coordinates_lat><departure_country_code>GB</departure_country_code><departure_country_name>United Kingdom</departure_country_name><departure_city_code>LON</departure_city_code><departure_city_name>London</departure_city_name><arrival_airport_iata>TLS</arrival_airport_iata><arrival_name_airport>Blagnac</arrival_name_airport><arrival_coordinates_lon>1.374321</arrival_coordinates_lon><arrival_coordinates_lat>43.63007</arrival_coordinates_lat><arrival_country_code>FR</arrival_country_code><arrival_country_name>France</arrival_country_name><arrival_city_code>TLS</arrival_city_code><arrival_city_name>Toulouse</arrival_city_name><planes>319</planes><plane_name>Airbus Industrie A319</plane_name></routes><routes><airline_iata>AA</airline_iata><departure_airport_iata>MIA</departure_airport_iata><departure_name_airport>Miami International Airport</departure_name_airport><departure_coordinates_lon>-80.27824</departure_coordinates_lon><departure_coordinates_lat>25.796</departure_coordinates_lat><departure_country_code>US</departure_country_code><departure_country_name>United States</departure_country_name><departure_city_code>MIA</departure_city_code><departure_city_name>Miami</departure_city_name><arrival_airport_iata>CDG</arrival_airport_iata><arrival_name_airport>Charles De Gaulle</arrival_name_airport><arrival_coordinates_lon>2.567023</arrival_coordinates_lon><arrival_coordinates_lat>49.003197</arrival_coordinates_lat><arrival_country_code>FR</arrival_country_code><arrival_country_name>France</arrival_country_name><arrival_city_code>PAR</arrival_city_code><arrival_city_name>Paris</arrival_city_name><planes>763</planes><plane_name>Boeing 767-300</plane_name></routes><routes><airline_iata>AA</airline_iata><departure_airport_iata>ORD</departure_airport_iata><departure_name_airport>Chicago O'hare International</departure_name_airport><departure_coordinates_lon>-87.90488</departure_coordinates_lon><departure_coordinates_lat>41.976913</departure_coordinates_lat><departure_country_code>US</departure_country_code><departure_country_name>United States</departure_country_name><departure_city_code>CHI</departure_city_code><departure_city_name>Chicago</departure_city_name><arrival_airport_iata>CDG</arrival_airport_iata><arrival_name_airport>Charles De Gaulle</arrival_name_airport><arrival_coordinates_lon>2.567023</arrival_coordinates_lon><arrival_coordinates_lat>49.003197</arrival_coordinates_lat><arrival_country_code>FR</arrival_country_code><arrival_country_name>France</arrival_country_name><arrival_city_code>PAR</arrival_city_code><arrival_city_name>Paris</arrival_city_name><planes>763</planes><plane_name>Boeing 767-300</plane_name></routes><routes><airline_iata>AB</airline_iata><departure_airport_iata>CGN</departure_airport_iata><departure_name_airport>Cologne/bonn</departure_name_airport><departure_coordinates_lon>7.122224</departure_coordinates_lon><departure_coordinates_lat>50.878365</departure_coordinates_lat><departure_country_code>DE</departure_country_code><departure_country_name>Germany</departure_country_name><departure_city_code>CGN</departure_city_code><departure_city_name>Cologne</departure_city_name><arrival_airport_iata>CLY</arrival_airport_iata><arrival_name_airport>Ste Catherine</arrival_name_airport><arrival_coordinates_lon>8.791667</arrival_coordinates_lon><arrival_coordinates_lat>42.52778</arrival_coordinates_lat><arrival_country_code>FR</arrival_country_code><arrival_country_name>France</arrival_country_name><arrival_city_code>CLY</arrival_city_code><arrival_city_name>Calvi</arrival_city_name><planes>73G</planes><plane_name>Boeing 737-700</plane_name></routes><routes><airline_iata>AB</airline_iata><departure_airport_iata>DUS</departure_airport_iata><departure_name_airport>Düsseldorf International Airport</departure_name_airport><departure_coordinates_lon>6.76558</departure_coordinates_lon><departure_coordinates_lat>51.278328</departure_coordinates_lat><departure_country_code>DE</departure_country_code><departure_country_name>Germany</departure_country_name><departure_city_code>DUS</departure_city_code><departure_city_name>Dusseldorf</departure_city_name><arrival_airport_iata>NCE</arrival_airport_iata><arrival_name_airport>Cote D'azur International Airport</arrival_name_airport><arrival_coordinates_lon>7.205232</arrival_coordinates_lon><arrival_coordinates_lat>43.66049</arrival_coordinates_lat><arrival_country_code>FR</arrival_country_code><arrival_country_name>France</arrival_country_name><arrival_city_code>NCE</arrival_city_code><arrival_city_name>Nice</arrival_city_name><planes>73G</planes><plane_name>Boeing 737-700</plane_name></routes><routes><airline_iata>AB</airline_iata><departure_airport_iata>LHR</departure_airport_iata><departure_name_airport>Heathrow</departure_name_airport><departure_coordinates_lon>-0.453566</departure_coordinates_lon><departure_coordinates_lat>51.469604</departure_coordinates_lat><departure_country_code>GB</departure_country_code><departure_country_name>United Kingdom</departure_country_name><departure_city_code>LON</departure_city_code><departure_city_name>London</departure_city_name><arrival_airport_iata>ORY</arrival_airport_iata><arrival_name_airport>Orly</arrival_name_airport><arrival_coordinates_lon>2.3597</arrival_coordinates_lon><arrival_coordinates_lat>48.728283</arrival_coordinates_lat><arrival_country_code>FR</arrival_country_code><arrival_country_name>France</arrival_country_name><arrival_city_code>PAR</arrival_city_code><arrival_city_name>Paris</arrival_city_name><planes>319</planes><plane_name>Airbus Industrie A319</plane_name></routes><routes><airline_iata>AB</airline_iata><departure_airport_iata>STR</departure_airport_iata><departure_name_airport>Stuttgart Echterdingen</departure_name_airport><departure_coordinates_lon>9.193624</departure_coordinates_lon><departure_coordinates_lat>48.69073</departure_coordinates_lat><departure_country_code>DE</departure_country_code><departure_country_name>Germany</departure_country_name><departure_city_code>STR</departure_city_code><departure_city_name>Stuttgart</departure_city_name><arrival_airport_iata>NCE</arrival_airport_iata><arrival_name_airport>Cote D'azur International Airport</arrival_name_airport><arrival_coordinates_lon>7.205232</arrival_coordinates_lon><arrival_coordinates_lat>43.66049</arrival_coordinates_lat><arrival_country_code>FR</arrival_country_code><arrival_country_name>France</arrival_country_name><arrival_city_code>NCE</arrival_city_code><arrival_city_name>Nice</arrival_city_name><planes>73G</planes><plane_name>Boeing 737-700</plane_name></routes><routes><airline_iata>AB</airline_iata><departure_airport_iata>TXL</departure_airport_iata><departure_name_airport>Berlin-tegel / Otto Lilienthal</departure_name_airport><departure_coordinates_lon>13.291722</departure_coordinates_lon><departure_coordinates_lat>52.553944</departure_coordinates_lat><departure_country_code>DE</departure_country_code><departure_country_name>Germany</departure_country_name><departure_city_code>BER</departure_city_code><departure_city_name>Berlin</departure_city_name><arrival_airport_iata>ORY</arrival_airport_iata><arrival_name_airport>Orly</arrival_name_airport><arrival_coordinates_lon>2.3597</arrival_coordinates_lon><arrival_coordinates_lat>48.728283</arrival_coordinates_lat><arrival_country_code>FR</arrival_country_code><arrival_country_name>France</arrival_country_name><arrival_city_code>PAR</arrival_city_code><arrival_city_name>Paris</arrival_city_name><planes>738</planes><plane_name>Boeing 737-800</plane_name></routes><routes><airline_iata>AB</airline_iata><departure_airport_iata>VIE</departure_airport_iata><departure_name_airport>Vienna International</departure_name_airport><departure_coordinates_lon>16.563583</departure_coordinates_lon><departure_coordinates_lat>48.11972</departure_coordinates_lat><departure_country_code>AT</departure_country_code><departure_country_name>Austria</departure_country_name><departure_city_code>VIE</departure_city_code><departure_city_name>Vienna</departure_city_name><arrival_airport_iata>CDG</arrival_airport_iata><arrival_name_airport>Charles De Gaulle</arrival_name_airport><arrival_coordinates_lon>2.567023</arrival_coordinates_lon><arrival_coordinates_lat>49.003197</arrival_coordinates_lat><arrival_country_code>FR</arrival_country_code><arrival_country_name>France</arrival_country_name><arrival_city_code>PAR</arrival_city_code><arrival_city_name>Paris</arrival_city_name><planes>320</planes><plane_name>Airbus Industrie A320</plane_name></routes><routes><airline_iata>AB</airline_iata><departure_airport_iata>VIE</departure_airport_iata><departure_name_airport>Vienna International</departure_name_airport><departure_coordinates_lon>16.563583</departure_coordinates_lon><departure_coordinates_lat>48.11972</departure_coordinates_lat><departure_country_code>AT</departure_country_code><departure_country_name>Austria</departure_country_name><departure_city_code>VIE</departure_city_code><departure_city_name>Vienna</departure_city_name><arrival_airport_iata>NCE</arrival_airport_iata><arrival_name_airport>Cote D'azur International Airport</arrival_name_airport><arrival_coordinates_lon>7.205232</arrival_coordinates_lon><arrival_coordinates_lat>43.66049</arrival_coordinates_lat><arrival_country_code>FR</arrival_country_code><arrival_country_name>France</arrival_country_name><arrival_city_code>NCE</arrival_city_code><arrival_city_name>Nice</arrival_city_name><planes>320</planes><plane_name>Airbus Industrie A320</plane_name></routes><routes><airline_iata>AC</airline_iata><departure_airport_iata>YUL</departure_airport_iata><departure_name_airport>Pierre Elliott Trudeau International</departure_name_airport><departure_coordinates_lon>-73.74991</departure_coordinates_lon><departure_coordinates_lat>45.457714</departure_coordinates_lat><departure_country_code>CA</departure_country_code><departure_country_name>Canada</departure_country_name><departure_city_code>YMQ</departure_city_code><departure_city_name>Montreal</departure_city_name><arrival_airport_iata>CDG</arrival_airport_iata><arrival_name_airport>Charles De Gaulle</arrival_name_airport><arrival_coordinates_lon>2.567023</arrival_coordinates_lon><arrival_coordinates_lat>49.003197</arrival_coordinates_lat><arrival_country_code>FR</arrival_country_code><arrival_country_name>France</arrival_country_name><arrival_city_code>PAR</arrival_city_code><arrival_city_name>Paris</arrival_city_name><planes>77W</planes><plane_name>Boeing 777-300ER</plane_name></routes><routes><airline_iata>AC</airline_iata><departure_airport_iata>YYZ</departure_airport_iata><departure_name_airport>Lester B. Pearson International</departure_name_airport><departure_coordinates_lon>-79.61146</departure_coordinates_lon><departure_coordinates_lat>43.681583</departure_coordinates_lat><departure_country_code>CA</departure_country_code><departure_country_name>Canada</departure_country_name><departure_city_code>YTO</departure_city_code><departure_city_name>Toronto</departure_city_name><arrival_airport_iata>CDG</arrival_airport_iata><arrival_name_airport>Charles De Gaulle</arrival_name_airport><arrival_coordinates_lon>2.567023</arrival_coordinates_lon><arrival_coordinates_lat>49.003197</arrival_coordinates_lat><arrival_country_code>FR</arrival_country_code><arrival_country_name>France</arrival_country_name><arrival_city_code>PAR</arrival_city_code><arrival_city_name>Paris</arrival_city_name><planes>77W</planes><plane_name>Boeing 777-300ER</plane_name></routes><routes><airline_iata>AF</airline_iata><departure_airport_iata>ABJ</departure_airport_iata><departure_name_airport>Felix Houphouet Boigny</departure_name_airport><departure_coordinates_lon>-3.933015</departure_coordinates_lon><departure_coordinates_lat>5.254879</departure_coordinates_lat><departure_country_code>CI</departure_country_code><departure_country_name>Ivory Coast</departure_country_name><departure_city_code>ABJ</departure_city_code><departure_city_name>Abidjan</departure_city_name><arrival_airport_iata>CDG</arrival_airport_iata><arrival_name_airport>Charles De Gaulle</arrival_name_airport><arrival_coordinates_lon>2.567023</arrival_coordinates_lon><arrival_coordinates_lat>49.003197</arrival_coordinates_lat><arrival_country_code>FR</arrival_country_code><arrival_country_name>France</arrival_country_name><arrival_city_code>PAR</arrival_city_code><arrival_city_name>Paris</arrival_city_name><planes>77W</planes><plane_name>Boeing 777-300ER</plane_name></routes><routes><airline_iata>AF</airline_iata><departure_airport_iata>ABV</departure_airport_iata><departure_name_airport>Nnamdi Azikiwe International Airport</departure_name_airport><departure_coordinates_lon>7.270447</departure_coordinates_lon><departure_coordinates_lat>9.004614</departure_coordinates_lat><departure_country_code>NG</departure_country_code><departure_country_name>Nigeria</departure_country_name><departure_city_code>ABV</departure_city_code><departure_city_name>Abuja</departure_city_name><arrival_airport_iata>CDG</arrival_airport_iata><arrival_name_airport>Charles De Gaulle</arrival_name_airport><arrival_coordinates_lon>2.567023</arrival_coordinates_lon><arrival_coordinates_lat>49.003197</arrival_coordinates_lat><arrival_country_code>FR</arrival_country_code><arrival_country_name>France</arrival_country_name><arrival_city_code>PAR</arrival_city_code><arrival_city_name>Paris</arrival_city_name><planes>332</planes><plane_name>Airbus Industrie A330-200</plane_name></routes><routes><airline_iata>AF</airline_iata><departure_airport_iata>ABZ</departure_airport_iata><departure_name_airport>Dyce</departure_name_airport><departure_coordinates_lon>-2.204186</departure_coordinates_lon><departure_coordinates_lat>57.200253</departure_coordinates_lat><departure_country_code>GB</departure_country_code><departure_country_name>United Kingdom</departure_country_name><departure_city_code>ABZ</departure_city_code><departure_city_name>Aberdeen</departure_city_name><arrival_airport_iata>CDG</arrival_airport_iata><arrival_name_airport>Charles De Gaulle</arrival_name_airport><arrival_coordinates_lon>2.567023</arrival_coordinates_lon><arrival_coordinates_lat>49.003197</arrival_coordinates_lat><arrival_country_code>FR</arrival_country_code><arrival_country_name>France</arrival_country_name><arrival_city_code>PAR</arrival_city_code><arrival_city_name>Paris</arrival_city_name><planes>E70</planes><plane_name>Embraer ERJ-170</plane_name></routes><routes><airline_iata>AF</airline_iata><departure_airport_iata>AGP</departure_airport_iata><departure_name_airport>Pablo Ruiz Picasso</departure_name_airport><departure_coordinates_lon>-4.489616</departure_coordinates_lon><departure_coordinates_lat>36.675182</departure_coordinates_lat><departure_country_code>ES</departure_country_code><departure_country_name>Spain</departure_country_name><departure_city_code>AGP</departure_city_code><departure_city_name>Malaga</departure_city_name><arrival_airport_iata>CDG</arrival_airport_iata><arrival_name_airport>Charles De Gaulle</arrival_name_airport><arrival_coordinates_lon>2.567023</arrival_coordinates_lon><arrival_coordinates_lat>49.003197</arrival_coordinates_lat><arrival_country_code>FR</arrival_country_code><arrival_country_name>France</arrival_country_name><arrival_city_code>PAR</arrival_city_code><arrival_city_name>Paris</arrival_city_name><planes>738</planes><plane_name>Boeing 737-800</plane_name></routes><routes><airline_iata>AF</airline_iata><departure_airport_iata>AGP</departure_airport_iata><departure_name_airport>Pablo Ruiz Picasso</departure_name_airport><departure_coordinates_lon>-4.489616</departure_coordinates_lon><departure_coordinates_lat>36.675182</departure_coordinates_lat><departure_country_code>ES</departure_country_code><departure_country_name>Spain</departure_country_name><departure_city_code>AGP</departure_city_code><departure_city_name>Malaga</departure_city_name><arrival_airport_iata>TLS</arrival_airport_iata><arrival_name_airport>Blagnac</arrival_name_airport><arrival_coordinates_lon>1.374321</arrival_coordinates_lon><arrival_coordinates_lat>43.63007</arrival_coordinates_lat><arrival_country_code>FR</arrival_country_code><arrival_country_name>France</arrival_country_name><arrival_city_code>TLS</arrival_city_code><arrival_city_name>Toulouse</arrival_city_name><planes>319</planes><plane_name>Airbus Industrie A319</plane_name></routes><routes><airline_iata>AF</airline_iata><departure_airport_iata>AJA</departure_airport_iata><departure_name_airport>Campo Dell Oro</departure_name_airport><departure_coordinates_lon>8.794013</departure_coordinates_lon><departure_coordinates_lat>41.91987</departure_coordinates_lat><departure_country_code>FR</departure_country_code><departure_country_name>France</departure_country_name><departure_city_code>AJA</departure_city_code><departure_city_name>Ajaccio</departure_city_name><arrival_airport_iata>LYS</arrival_airport_iata><arrival_name_airport>St-Exupéry</arrival_name_airport><arrival_coordinates_lon>5.080334</arrival_coordinates_lon><arrival_coordinates_lat>45.721424</arrival_coordinates_lat><arrival_country_code>FR</arrival_country_code><arrival_country_name>France</arrival_country_name><arrival_city_code>LYS</arrival_city_code><arrival_city_name>Lyon</arrival_city_name><planes>AT7</planes><plane_name>Aerospatiale/Alenia ATR 72</plane_name></routes><routes><airline_iata>AF</airline_iata><departure_airport_iata>AJA</departure_airport_iata><departure_name_airport>Campo Dell Oro</departure_name_airport><departure_coordinates_lon>8.794013</departure_coordinates_lon><departure_coordinates_lat>41.91987</departure_coordinates_lat><departure_country_code>FR</departure_country_code><departure_country_name>France</departure_country_name><departure_city_code>AJA</departure_city_code><departure_city_name>Ajaccio</departure_city_name><arrival_airport_iata>MRS</arrival_airport_iata><arrival_name_airport>Marseille Provence Airport</arrival_name_airport><arrival_coordinates_lon>5.222137</arrival_coordinates_lon><arrival_coordinates_lat>43.44178</arrival_coordinates_lat><arrival_country_code>FR</arrival_country_code><arrival_country_name>France</arrival_country_name><arrival_city_code>MRS</arrival_city_code><arrival_city_name>Marseille</arrival_city_name><planes>320</planes><plane_name>Airbus Industrie A320</plane_name></routes><routes><airline_iata>AF</airline_iata><departure_airport_iata>AJA</departure_airport_iata><departure_name_airport>Campo Dell Oro</departure_name_airport><departure_coordinates_lon>8.794013</departure_coordinates_lon><departure_coordinates_lat>41.91987</departure_coordinates_lat><departure_country_code>FR</departure_country_code><departure_country_name>France</departure_country_name><departure_city_code>AJA</departure_city_code><departure_city_name>Ajaccio</departure_city_name><arrival_airport_iata>NCE</arrival_airport_iata><arrival_name_airport>Cote D'azur International Airport</arrival_name_airport><arrival_coordinates_lon>7.205232</arrival_coordinates_lon><arrival_coordinates_lat>43.66049</arrival_coordinates_lat><arrival_country_code>FR</arrival_country_code><arrival_country_name>France</arrival_country_name><arrival_city_code>NCE</arrival_city_code><arrival_city_name>Nice</arrival_city_name><planes>AT7</planes><plane_name>Aerospatiale/Alenia ATR 72</plane_name></routes><routes><airline_iata>AF</airline_iata><departure_airport_iata>AJA</departure_airport_iata><departure_name_airport>Campo Dell Oro</departure_name_airport><departure_coordinates_lon>8.794013</departure_coordinates_lon><departure_coordinates_lat>41.91987</departure_coordinates_lat><departure_country_code>FR</departure_country_code><departure_country_name>France</departure_country_name><departure_city_code>AJA</departure_city_code><departure_city_name>Ajaccio</departure_city_name><arrival_airport_iata>ORY</arrival_airport_iata><arrival_name_airport>Orly</arrival_name_airport><arrival_coordinates_lon>2.3597</arrival_coordinates_lon><arrival_coordinates_lat>48.728283</arrival_coordinates_lat><arrival_country_code>FR</arrival_country_code><arrival_country_name>France</arrival_country_name><arrival_city_code>PAR</arrival_city_code><arrival_city_name>Paris</arrival_city_name><planes>321</planes><plane_name>Airbus Industrie A321</plane_name></routes><routes><airline_iata>AF</airline_iata><departure_airport_iata>AJA</departure_airport_iata><departure_name_airport>Campo Dell Oro</departure_name_airport><departure_coordinates_lon>8.794013</departure_coordinates_lon><departure_coordinates_lat>41.91987</departure_coordinates_lat><departure_country_code>FR</departure_country_code><departure_country_name>France</departure_country_name><departure_city_code>AJA</departure_city_code><departure_city_name>Ajaccio</departure_city_name><arrival_airport_iata>ORY</arrival_airport_iata><arrival_name_airport>Orly</arrival_name_airport><arrival_coordinates_lon>2.3597</arrival_coordinates_lon><arrival_coordinates_lat>48.728283</arrival_coordinates_lat><arrival_country_code>FR</arrival_country_code><arrival_country_name>France</arrival_country_name><arrival_city_code>PAR</arrival_city_code><arrival_city_name>Paris</arrival_city_name><planes>320</planes><plane_name>Airbus Industrie A320</plane_name></routes><routes><airline_iata>AF</airline_iata><departure_airport_iata>ALG</departure_airport_iata><departure_name_airport>Houari Boumediene</departure_name_airport><departure_coordinates_lon>3.21167</departure_coordinates_lon><departure_coordinates_lat>36.70058</departure_coordinates_lat><departure_country_code>DZ</departure_country_code><departure_country_name>Algeria</departure_country_name><departure_city_code>ALG</departure_city_code><departure_city_name>Algiers</departure_city_name><arrival_airport_iata>CDG</arrival_airport_iata><arrival_name_airport>Charles De Gaulle</arrival_name_airport><arrival_coordinates_lon>2.567023</arrival_coordinates_lon><arrival_coordinates_lat>49.003197</arrival_coordinates_lat><arrival_country_code>FR</arrival_country_code><arrival_country_name>France</arrival_country_name><arrival_city_code>PAR</arrival_city_code><arrival_city_name>Paris</arrival_city_name><planes>319</planes><plane_name>Airbus Industrie A319</plane_name></routes><routes><airline_iata>AF</airline_iata><departure_airport_iata>ALG</departure_airport_iata><departure_name_airport>Houari Boumediene</departure_name_airport><departure_coordinates_lon>3.21167</departure_coordinates_lon><departure_coordinates_lat>36.70058</departure_coordinates_lat><departure_country_code>DZ</departure_country_code><departure_country_name>Algeria</departure_country_name><departure_city_code>ALG</departure_city_code><departure_city_name>Algiers</departure_city_name><arrival_airport_iata>MRS</arrival_airport_iata><arrival_name_airport>Marseille Provence Airport</arrival_name_airport><arrival_coordinates_lon>5.222137</arrival_coordinates_lon><arrival_coordinates_lat>43.44178</arrival_coordinates_lat><arrival_country_code>FR</arrival_country_code><arrival_country_name>France</arrival_country_name><arrival_city_code>MRS</arrival_city_code><arrival_city_name>Marseille</arrival_city_name><planes>319</planes><plane_name>Airbus Industrie A319</plane_name></routes><routes><airline_iata>AF</airline_iata><departure_airport_iata>AMM</departure_airport_iata><departure_name_airport>Queen Alia International</departure_name_airport><departure_coordinates_lon>35.98932</departure_coordinates_lon><departure_coordinates_lat>31.722534</departure_coordinates_lat><departure_country_code>JO</departure_country_code><departure_country_name>Jordan</departure_country_name><departure_city_code>AMM</departure_city_code><departure_city_name>Amman</departure_city_name><arrival_airport_iata>CDG</arrival_airport_iata><arrival_name_airport>Charles De Gaulle</arrival_name_airport><arrival_coordinates_lon>2.567023</arrival_coordinates_lon><arrival_coordinates_lat>49.003197</arrival_coordinates_lat><arrival_country_code>FR</arrival_country_code><arrival_country_name>France</arrival_country_name><arrival_city_code>PAR</arrival_city_code><arrival_city_name>Paris</arrival_city_name><planes>320</planes><plane_name>Airbus Industrie A320</plane_name></routes><routes><airline_iata>AF</airline_iata><departure_airport_iata>AMS</departure_airport_iata><departure_name_airport>Schiphol</departure_name_airport><departure_coordinates_lon>4.763385</departure_coordinates_lon><departure_coordinates_lat>52.30907</departure_coordinates_lat><departure_country_code>NL</departure_country_code><departure_country_name>Netherlands</departure_country_name><departure_city_code>AMS</departure_city_code><departure_city_name>Amsterdam</departure_city_name><arrival_airport_iata>BOD</arrival_airport_iata><arrival_name_airport>Mérignac</arrival_name_airport><arrival_coordinates_lon>-0.70217</arrival_coordinates_lon><arrival_coordinates_lat>44.83102</arrival_coordinates_lat><arrival_country_code>FR</arrival_country_code><arrival_country_name>France</arrival_country_name><arrival_city_code>BOD</arrival_city_code><arrival_city_name>Bordeaux</arrival_city_name><planes>F70</planes><plane_name>Fokker 70</plane_name></routes><routes><airline_iata>AF</airline_iata><departure_airport_iata>AMS</departure_airport_iata><departure_name_airport>Schiphol</departure_name_airport><departure_coordinates_lon>4.763385</departure_coordinates_lon><departure_coordinates_lat>52.30907</departure_coordinates_lat><departure_country_code>NL</departure_country_code><departure_country_name>Netherlands</departure_country_name><departure_city_code>AMS</departure_city_code><departure_city_name>Amsterdam</departure_city_name><arrival_airport_iata>CDG</arrival_airport_iata><arrival_name_airport>Charles De Gaulle</arrival_name_airport><arrival_coordinates_lon>2.567023</arrival_coordinates_lon><arrival_coordinates_lat>49.003197</arrival_coordinates_lat><arrival_country_code>FR</arrival_country_code><arrival_country_name>France</arrival_country_name><arrival_city_code>PAR</arrival_city_code><arrival_city_name>Paris</arrival_city_name><planes>321</planes><plane_name>Airbus Industrie A321</plane_name></routes><routes><airline_iata>AF</airline_iata><departure_airport_iata>AMS</departure_airport_iata><departure_name_airport>Schiphol</departure_name_airport><departure_coordinates_lon>4.763385</departure_coordinates_lon><departure_coordinates_lat>52.30907</departure_coordinates_lat><departure_country_code>NL</departure_country_code><departure_country_name>Netherlands</departure_country_name><departure_city_code>AMS</departure_city_code><departure_city_name>Amsterdam</departure_city_name><arrival_airport_iata>CDG</arrival_airport_iata><arrival_name_airport>Charles De Gaulle</arrival_name_airport><arrival_coordinates_lon>2.567023</arrival_coordinates_lon><arrival_coordinates_lat>49.003197</arrival_coordinates_lat><arrival_country_code>FR</arrival_country_code><arrival_country_name>France</arrival_country_name><arrival_city_code>PAR</arrival_city_code><arrival_city_name>Paris</arrival_city_name><planes>73H</planes><plane_name>Boeing 737-800 With Winglets</plane_name></routes><routes><airline_iata>AF</airline_iata><departure_airport_iata>AMS</departure_airport_iata><departure_name_airport>Schiphol</departure_name_airport><departure_coordinates_lon>4.763385</departure_coordinates_lon><departure_coordinates_lat>52.30907</departure_coordinates_lat><departure_country_code>NL</departure_country_code><departure_country_name>Netherlands</departure_country_name><departure_city_code>AMS</departure_city_code><departure_city_name>Amsterdam</departure_city_name><arrival_airport_iata>LYS</arrival_airport_iata><arrival_name_airport>St-Exupéry</arrival_name_airport><arrival_coordinates_lon>5.080334</arrival_coordinates_lon><arrival_coordinates_lat>45.721424</arrival_coordinates_lat><arrival_country_code>FR</arrival_country_code><arrival_country_name>France</arrival_country_name><arrival_city_code>LYS</arrival_city_code><arrival_city_name>Lyon</arrival_city_name><planes>E90</planes><plane_name>Embraer ERJ-190</plane_name></routes><routes><airline_iata>AF</airline_iata><departure_airport_iata>AMS</departure_airport_iata><departure_name_airport>Schiphol</departure_name_airport><departure_coordinates_lon>4.763385</departure_coordinates_lon><departure_coordinates_lat>52.30907</departure_coordinates_lat><departure_country_code>NL</departure_country_code><departure_country_name>Netherlands</departure_country_name><departure_city_code>AMS</departure_city_code><departure_city_name>Amsterdam</departure_city_name><arrival_airport_iata>MRS</arrival_airport_iata><arrival_name_airport>Marseille Provence Airport</arrival_name_airport><arrival_coordinates_lon>5.222137</arrival_coordinates_lon><arrival_coordinates_lat>43.44178</arrival_coordinates_lat><arrival_country_code>FR</arrival_country_code><arrival_country_name>France</arrival_country_name><arrival_city_code>MRS</arrival_city_code><arrival_city_name>Marseille</arrival_city_name><planes>319</planes><plane_name>Airbus Industrie A319</plane_name></routes><routes><airline_iata>AF</airline_iata><departure_airport_iata>AMS</departure_airport_iata><departure_name_airport>Schiphol</departure_name_airport><departure_coordinates_lon>4.763385</departure_coordinates_lon><departure_coordinates_lat>52.30907</departure_coordinates_lat><departure_country_code>NL</departure_country_code><departure_country_name>Netherlands</departure_country_name><departure_city_code>AMS</departure_city_code><departure_city_name>Amsterdam</departure_city_name><arrival_airport_iata>NCE</arrival_airport_iata><arrival_name_airport>Cote D'azur International Airport</arrival_name_airport><arrival_coordinates_lon>7.205232</arrival_coordinates_lon><arrival_coordinates_lat>43.66049</arrival_coordinates_lat><arrival_country_code>FR</arrival_country_code><arrival_country_name>France</arrival_country_name><arrival_city_code>NCE</arrival_city_code><arrival_city_name>Nice</arrival_city_name><planes>E90</planes><plane_name>Embraer ERJ-190</plane_name></routes><routes><airline_iata>AF</airline_iata><departure_airport_iata>AMS</departure_airport_iata><departure_name_airport>Schiphol</departure_name_airport><departure_coordinates_lon>4.763385</departure_coordinates_lon><departure_coordinates_lat>52.30907</departure_coordinates_lat><departure_country_code>NL</departure_country_code><departure_country_name>Netherlands</departure_country_name><departure_city_code>AMS</departure_city_code><departure_city_name>Amsterdam</departure_city_name><arrival_airport_iata>NTE</arrival_airport_iata><arrival_name_airport>Nantes Atlantique</arrival_name_airport><arrival_coordinates_lon>-1.601402</arrival_coordinates_lon><arrival_coordinates_lat>47.157623</arrival_coordinates_lat><arrival_country_code>FR</arrival_country_code><arrival_country_name>France</arrival_country_name><arrival_city_code>NTE</arrival_city_code><arrival_city_name>Nantes</arrival_city_name><planes>E70</planes><plane_name>Embraer ERJ-170</plane_name></routes><routes><airline_iata>AF</airline_iata><departure_airport_iata>AMS</departure_airport_iata><departure_name_airport>Schiphol</departure_name_airport><departure_coordinates_lon>4.763385</departure_coordinates_lon><departure_coordinates_lat>52.30907</departure_coordinates_lat><departure_country_code>NL</departure_country_code><departure_country_name>Netherlands</departure_country_name><departure_city_code>AMS</departure_city_code><departure_city_name>Amsterdam</departure_city_name><arrival_airport_iata>PUF</arrival_airport_iata><arrival_name_airport>Pau-Pyrénées</arrival_name_airport><arrival_coordinates_lon>-0.413573</arrival_coordinates_lon><arrival_coordinates_lat>43.382347</arrival_coordinates_lat><arrival_country_code>FR</arrival_country_code><arrival_country_name>France</arrival_country_name><arrival_city_code>PUF</arrival_city_code><arrival_city_name>Pau</arrival_city_name><planes>AR8</planes><plane_name>Avro RJ85 Avroliner</plane_name></routes><routes><airline_iata>AF</airline_iata><departure_airport_iata>AMS</departure_airport_iata><departure_name_airport>Schiphol</departure_name_airport><departure_coordinates_lon>4.763385</departure_coordinates_lon><departure_coordinates_lat>52.30907</departure_coordinates_lat><departure_country_code>NL</departure_country_code><departure_country_name>Netherlands</departure_country_name><departure_city_code>AMS</departure_city_code><departure_city_name>Amsterdam</departure_city_name><arrival_airport_iata>SXB</arrival_airport_iata><arrival_name_airport>Entzheim</arrival_name_airport><arrival_coordinates_lon>7.627674</arrival_coordinates_lon><arrival_coordinates_lat>48.544876</arrival_coordinates_lat><arrival_country_code>FR</arrival_country_code><arrival_country_name>France</arrival_country_name><arrival_city_code>SXB</arrival_city_code><arrival_city_name>Strasbourg</arrival_city_name><planes>ER4</planes><plane_name>Embraer ERJ-145 Regional Jet</plane_name></routes><routes><airline_iata>AF</airline_iata><departure_airport_iata>AMS</departure_airport_iata><departure_name_airport>Schiphol</departure_name_airport><departure_coordinates_lon>4.763385</departure_coordinates_lon><departure_coordinates_lat>52.30907</departure_coordinates_lat><departure_country_code>NL</departure_country_code><departure_country_name>Netherlands</departure_country_name><departure_city_code>AMS</departure_city_code><departure_city_name>Amsterdam</departure_city_name><arrival_airport_iata>TLS</arrival_airport_iata><arrival_name_airport>Blagnac</arrival_name_airport><arrival_coordinates_lon>1.374321</arrival_coordinates_lon><arrival_coordinates_lat>43.63007</arrival_coordinates_lat><arrival_country_code>FR</arrival_country_code><arrival_country_name>France</arrival_country_name><arrival_city_code>TLS</arrival_city_code><arrival_city_name>Toulouse</arrival_city_name><planes>E90</planes><plane_name>Embraer ERJ-190</plane_name></routes><routes><airline_iata>AF</airline_iata><departure_airport_iata>ARN</departure_airport_iata><departure_name_airport>Arlanda</departure_name_airport><departure_coordinates_lon>17.930365</departure_coordinates_lon><departure_coordinates_lat>59.64982</departure_coordinates_lat><departure_country_code>SE</departure_country_code><departure_country_name>Sweden</departure_country_name><departure_city_code>STO</departure_city_code><departure_city_name>Stockholm</departure_city_name><arrival_airport_iata>CDG</arrival_airport_iata><arrival_name_airport>Charles De Gaulle</arrival_name_airport><arrival_coordinates_lon>2.567023</arrival_coordinates_lon><arrival_coordinates_lat>49.003197</arrival_coordinates_lat><arrival_country_code>FR</arrival_country_code><arrival_country_name>France</arrival_country_name><arrival_city_code>PAR</arrival_city_code><arrival_city_name>Paris</arrival_city_name><planes>320</planes><plane_name>Airbus Industrie A320</plane_name></routes><routes><airline_iata>AF</airline_iata><departure_airport_iata>ATH</departure_airport_iata><departure_name_airport>Athens International Airport "Eleftherios Venizelos"</departure_name_airport><departure_coordinates_lon>23.946486</departure_coordinates_lon><departure_coordinates_lat>37.93635</departure_coordinates_lat><departure_country_code>GR</departure_country_code><departure_country_name>Greece</departure_country_name><departure_city_code>ATH</departure_city_code><departure_city_name>Athens</departure_city_name><arrival_airport_iata>CDG</arrival_airport_iata><arrival_name_airport>Charles De Gaulle</arrival_name_airport><arrival_coordinates_lon>2.567023</arrival_coordinates_lon><arrival_coordinates_lat>49.003197</arrival_coordinates_lat><arrival_country_code>FR</arrival_country_code><arrival_country_name>France</arrival_country_name><arrival_city_code>PAR</arrival_city_code><arrival_city_name>Paris</arrival_city_name><planes>320</planes><plane_name>Airbus Industrie A320</plane_name></routes><routes><airline_iata>AF</airline_iata><departure_airport_iata>ATH</departure_airport_iata><departure_name_airport>Athens International Airport "Eleftherios Venizelos"</departure_name_airport><departure_coordinates_lon>23.946486</departure_coordinates_lon><departure_coordinates_lat>37.93635</departure_coordinates_lat><departure_country_code>GR</departure_country_code><departure_country_name>Greece</departure_country_name><departure_city_code>ATH</departure_city_code><departure_city_name>Athens</departure_city_name><arrival_airport_iata>MRS</arrival_airport_iata><arrival_name_airport>Marseille Provence Airport</arrival_name_airport><arrival_coordinates_lon>5.222137</arrival_coordinates_lon><arrival_coordinates_lat>43.44178</arrival_coordinates_lat><arrival_country_code>FR</arrival_country_code><arrival_country_name>France</arrival_country_name><arrival_city_code>MRS</arrival_city_code><arrival_city_name>Marseille</arrival_city_name><planes>319</planes><plane_name>Airbus Industrie A319</plane_name></routes><routes><airline_iata>AF</airline_iata><departure_airport_iata>ATH</departure_airport_iata><departure_name_airport>Athens International Airport "Eleftherios Venizelos"</departure_name_airport><departure_coordinates_lon>23.946486</departure_coordinates_lon><departure_coordinates_lat>37.93635</departure_coordinates_lat><departure_country_code>GR</departure_country_code><departure_country_name>Greece</departure_country_name><departure_city_code>ATH</departure_city_code><departure_city_name>Athens</departure_city_name><arrival_airport_iata>NCE</arrival_airport_iata><arrival_name_airport>Cote D'azur International Airport</arrival_name_airport><arrival_coordinates_lon>7.205232</arrival_coordinates_lon><arrival_coordinates_lat>43.66049</arrival_coordinates_lat><arrival_country_code>FR</arrival_country_code><arrival_country_name>France</arrival_country_name><arrival_city_code>NCE</arrival_city_code><arrival_city_name>Nice</arrival_city_name><planes>320</planes><plane_name>Airbus Industrie A320</plane_name></routes><routes><airline_iata>AF</airline_iata><departure_airport_iata>ATH</departure_airport_iata><departure_name_airport>Athens International Airport "Eleftherios Venizelos"</departure_name_airport><departure_coordinates_lon>23.946486</departure_coordinates_lon><departure_coordinates_lat>37.93635</departure_coordinates_lat><departure_country_code>GR</departure_country_code><departure_country_name>Greece</departure_country_name><departure_city_code>ATH</departure_city_code><departure_city_name>Athens</departure_city_name><arrival_airport_iata>TLS</arrival_airport_iata><arrival_name_airport>Blagnac</arrival_name_airport><arrival_coordinates_lon>1.374321</arrival_coordinates_lon><arrival_coordinates_lat>43.63007</arrival_coordinates_lat><arrival_country_code>FR</arrival_country_code><arrival_country_name>France</arrival_country_name><arrival_city_code>TLS</arrival_city_code><arrival_city_name>Toulouse</arrival_city_name><planes>320</planes><plane_name>Airbus Industrie A320</plane_name></routes><routes><airline_iata>AF</airline_iata><departure_airport_iata>ATL</departure_airport_iata><departure_name_airport>Hartsfield-jackson Atlanta International</departure_name_airport><departure_coordinates_lon>-84.44403</departure_coordinates_lon><departure_coordinates_lat>33.640068</departure_coordinates_lat><departure_country_code>US</departure_country_code><departure_country_name>United States</departure_country_name><departure_city_code>ATL</departure_city_code><departure_city_name>Atlanta</departure_city_name><arrival_airport_iata>CDG</arrival_airport_iata><arrival_name_airport>Charles De Gaulle</arrival_name_airport><arrival_coordinates_lon>2.567023</arrival_coordinates_lon><arrival_coordinates_lat>49.003197</arrival_coordinates_lat><arrival_country_code>FR</arrival_country_code><arrival_country_name>France</arrival_country_name><arrival_city_code>PAR</arrival_city_code><arrival_city_name>Paris</arrival_city_name><planes>77W</planes><plane_name>Boeing 777-300ER</plane_name></routes><routes><airline_iata>AF</airline_iata><departure_airport_iata>ATL</departure_airport_iata><departure_name_airport>Hartsfield-jackson Atlanta International</departure_name_airport><departure_coordinates_lon>-84.44403</departure_coordinates_lon><departure_coordinates_lat>33.640068</departure_coordinates_lat><departure_country_code>US</departure_country_code><departure_country_name>United States</departure_country_name><departure_city_code>ATL</departure_city_code><departure_city_name>Atlanta</departure_city_name><arrival_airport_iata>CDG</arrival_airport_iata><arrival_name_airport>Charles De Gaulle</arrival_name_airport><arrival_coordinates_lon>2.567023</arrival_coordinates_lon><arrival_coordinates_lat>49.003197</arrival_coordinates_lat><arrival_country_code>FR</arrival_country_code><arrival_country_name>France</arrival_country_name><arrival_city_code>PAR</arrival_city_code><arrival_city_name>Paris</arrival_city_name><planes>767</planes><plane_name>Boeing 767</plane_name></routes><routes><airline_iata>AF</airline_iata><departure_airport_iata>BCN</departure_airport_iata><departure_name_airport>El Prat De Llobregat</departure_name_airport><departure_coordinates_lon>2.07593</departure_coordinates_lon><departure_coordinates_lat>41.30303</departure_coordinates_lat><departure_country_code>ES</departure_country_code><departure_country_name>Spain</departure_country_name><departure_city_code>BCN</departure_city_code><departure_city_name>Barcelona</departure_city_name><arrival_airport_iata>BOD</arrival_airport_iata><arrival_name_airport>Mérignac</arrival_name_airport><arrival_coordinates_lon>-0.70217</arrival_coordinates_lon><arrival_coordinates_lat>44.83102</arrival_coordinates_lat><arrival_country_code>FR</arrival_country_code><arrival_country_name>France</arrival_country_name><arrival_city_code>BOD</arrival_city_code><arrival_city_name>Bordeaux</arrival_city_name><planes>E70</planes><plane_name>Embraer ERJ-170</plane_name></routes><routes><airline_iata>AF</airline_iata><departure_airport_iata>BCN</departure_airport_iata><departure_name_airport>El Prat De Llobregat</departure_name_airport><departure_coordinates_lon>2.07593</departure_coordinates_lon><departure_coordinates_lat>41.30303</departure_coordinates_lat><departure_country_code>ES</departure_country_code><departure_country_name>Spain</departure_country_name><departure_city_code>BCN</departure_city_code><departure_city_name>Barcelona</departure_city_name><arrival_airport_iata>CDG</arrival_airport_iata><arrival_name_airport>Charles De Gaulle</arrival_name_airport><arrival_coordinates_lon>2.567023</arrival_coordinates_lon><arrival_coordinates_lat>49.003197</arrival_coordinates_lat><arrival_country_code>FR</arrival_country_code><arrival_country_name>France</arrival_country_name><arrival_city_code>PAR</arrival_city_code><arrival_city_name>Paris</arrival_city_name><planes>320</planes><plane_name>Airbus Industrie A320</plane_name></routes><routes><airline_iata>AF</airline_iata><departure_airport_iata>BCN</departure_airport_iata><departure_name_airport>El Prat De Llobregat</departure_name_airport><departure_coordinates_lon>2.07593</departure_coordinates_lon><departure_coordinates_lat>41.30303</departure_coordinates_lat><departure_country_code>ES</departure_country_code><departure_country_name>Spain</departure_country_name><departure_city_code>BCN</departure_city_code><departure_city_name>Barcelona</departure_city_name><arrival_airport_iata>LYS</arrival_airport_iata><arrival_name_airport>St-Exupéry</arrival_name_airport><arrival_coordinates_lon>5.080334</arrival_coordinates_lon><arrival_coordinates_lat>45.721424</arrival_coordinates_lat><arrival_country_code>FR</arrival_country_code><arrival_country_name>France</arrival_country_name><arrival_city_code>LYS</arrival_city_code><arrival_city_name>Lyon</arrival_city_name><planes>CRJ</planes><plane_name>Canadair Regional Jet</plane_name></routes><routes><airline_iata>AF</airline_iata><departure_airport_iata>BCN</departure_airport_iata><departure_name_airport>El Prat De Llobregat</departure_name_airport><departure_coordinates_lon>2.07593</departure_coordinates_lon><departure_coordinates_lat>41.30303</departure_coordinates_lat><departure_country_code>ES</departure_country_code><departure_country_name>Spain</departure_country_name><departure_city_code>BCN</departure_city_code><departure_city_name>Barcelona</departure_city_name><arrival_airport_iata>ORY</arrival_airport_iata><arrival_name_airport>Orly</arrival_name_airport><arrival_coordinates_lon>2.3597</arrival_coordinates_lon><arrival_coordinates_lat>48.728283</arrival_coordinates_lat><arrival_country_code>FR</arrival_country_code><arrival_country_name>France</arrival_country_name><arrival_city_code>PAR</arrival_city_code><arrival_city_name>Paris</arrival_city_name><planes>CRJ</planes><plane_name>Canadair Regional Jet</plane_name></routes><routes><airline_iata>AF</airline_iata><departure_airport_iata>BEG</departure_airport_iata><departure_name_airport>Belgrade Nikola Tesla</departure_name_airport><departure_coordinates_lon>20.306944</departure_coordinates_lon><departure_coordinates_lat>44.819443</departure_coordinates_lat><departure_country_code>RS</departure_country_code><departure_country_name>Serbia</departure_country_name><departure_city_code>BEG</departure_city_code><departure_city_name>Belgrade</departure_city_name><arrival_airport_iata>CDG</arrival_airport_iata><arrival_name_airport>Charles De Gaulle</arrival_name_airport><arrival_coordinates_lon>2.567023</arrival_coordinates_lon><arrival_coordinates_lat>49.003197</arrival_coordinates_lat><arrival_country_code>FR</arrival_country_code><arrival_country_name>France</arrival_country_name><arrival_city_code>PAR</arrival_city_code><arrival_city_name>Paris</arrival_city_name><planes>319</planes><plane_name>Airbus Industrie A319</plane_name></routes><routes><airline_iata>AF</airline_iata><departure_airport_iata>BES</departure_airport_iata><departure_name_airport>Brest Lesquin</departure_name_airport><departure_coordinates_lon>-4.415827</departure_coordinates_lon><departure_coordinates_lat>48.445374</departure_coordinates_lat><departure_country_code>FR</departure_country_code><departure_country_name>France</departure_country_name><departure_city_code>BES</departure_city_code><departure_city_name>Brest</departure_city_name><arrival_airport_iata>CDG</arrival_airport_iata><arrival_name_airport>Charles De Gaulle</arrival_name_airport><arrival_coordinates_lon>2.567023</arrival_coordinates_lon><arrival_coordinates_lat>49.003197</arrival_coordinates_lat><arrival_country_code>FR</arrival_country_code><arrival_country_name>France</arrival_country_name><arrival_city_code>PAR</arrival_city_code><arrival_city_name>Paris</arrival_city_name><planes>318</planes><plane_name>Airbus Industrie A318</plane_name></routes><routes><airline_iata>AF</airline_iata><departure_airport_iata>BES</departure_airport_iata><departure_name_airport>Brest Lesquin</departure_name_airport><departure_coordinates_lon>-4.415827</departure_coordinates_lon><departure_coordinates_lat>48.445374</departure_coordinates_lat><departure_country_code>FR</departure_country_code><departure_country_name>France</departure_country_name><departure_city_code>BES</departure_city_code><departure_city_name>Brest</departure_city_name><arrival_airport_iata>LYS</arrival_airport_iata><arrival_name_airport>St-Exupéry</arrival_name_airport><arrival_coordinates_lon>5.080334</arrival_coordinates_lon><arrival_coordinates_lat>45.721424</arrival_coordinates_lat><arrival_country_code>FR</arrival_country_code><arrival_country_name>France</arrival_country_name><arrival_city_code>LYS</arrival_city_code><arrival_city_name>Lyon</arrival_city_name><planes>CR7</planes><plane_name>Canadair Regional Jet 700</plane_name></routes><routes><airline_iata>AF</airline_iata><departure_airport_iata>BES</departure_airport_iata><departure_name_airport>Brest Lesquin</departure_name_airport><departure_coordinates_lon>-4.415827</departure_coordinates_lon><departure_coordinates_lat>48.445374</departure_coordinates_lat><departure_country_code>FR</departure_country_code><departure_country_name>France</departure_country_name><departure_city_code>BES</departure_city_code><departure_city_name>Brest</departure_city_name><arrival_airport_iata>MRS</arrival_airport_iata><arrival_name_airport>Marseille Provence Airport</arrival_name_airport><arrival_coordinates_lon>5.222137</arrival_coordinates_lon><arrival_coordinates_lat>43.44178</arrival_coordinates_lat><arrival_country_code>FR</arrival_country_code><arrival_country_name>France</arrival_country_name><arrival_city_code>MRS</arrival_city_code><arrival_city_name>Marseille</arrival_city_name><planes>319</planes><plane_name>Airbus Industrie A319</plane_name></routes><routes><airline_iata>AF</airline_iata><departure_airport_iata>BES</departure_airport_iata><departure_name_airport>Brest Lesquin</departure_name_airport><departure_coordinates_lon>-4.415827</departure_coordinates_lon><departure_coordinates_lat>48.445374</departure_coordinates_lat><departure_country_code>FR</departure_country_code><departure_country_name>France</departure_country_name><departure_city_code>BES</departure_city_code><departure_city_name>Brest</departure_city_name><arrival_airport_iata>NCE</arrival_airport_iata><arrival_name_airport>Cote D'azur International Airport</arrival_name_airport><arrival_coordinates_lon>7.205232</arrival_coordinates_lon><arrival_coordinates_lat>43.66049</arrival_coordinates_lat><arrival_country_code>FR</arrival_country_code><arrival_country_name>France</arrival_country_name><arrival_city_code>NCE</arrival_city_code><arrival_city_name>Nice</arrival_city_name><planes>CR7</planes><plane_name>Canadair Regional Jet 700</plane_name></routes><routes><airline_iata>AF</airline_iata><departure_airport_iata>BES</departure_airport_iata><departure_name_airport>Brest Lesquin</departure_name_airport><departure_coordinates_lon>-4.415827</departure_coordinates_lon><departure_coordinates_lat>48.445374</departure_coordinates_lat><departure_country_code>FR</departure_country_code><departure_country_name>France</departure_country_name><departure_city_code>BES</departure_city_code><departure_city_name>Brest</departure_city_name><arrival_airport_iata>ORY</arrival_airport_iata><arrival_name_airport>Orly</arrival_name_airport><arrival_coordinates_lon>2.3597</arrival_coordinates_lon><arrival_coordinates_lat>48.728283</arrival_coordinates_lat><arrival_country_code>FR</arrival_country_code><arrival_country_name>France</arrival_country_name><arrival_city_code>PAR</arrival_city_code><arrival_city_name>Paris</arrival_city_name><planes>320</planes><plane_name>Airbus Industrie A320</plane_name></routes><routes><airline_iata>AF</airline_iata><departure_airport_iata>BEY</departure_airport_iata><departure_name_airport>Beirut Rafic Hariri Airport</departure_name_airport><departure_coordinates_lon>35.49308</departure_coordinates_lon><departure_coordinates_lat>33.826073</departure_coordinates_lat><departure_country_code>LB</departure_country_code><departure_country_name>Lebanon</departure_country_name><departure_city_code>BEY</departure_city_code><departure_city_name>Beirut</departure_city_name><arrival_airport_iata>CDG</arrival_airport_iata><arrival_name_airport>Charles De Gaulle</arrival_name_airport><arrival_coordinates_lon>2.567023</arrival_coordinates_lon><arrival_coordinates_lat>49.003197</arrival_coordinates_lat><arrival_country_code>FR</arrival_country_code><arrival_country_name>France</arrival_country_name><arrival_city_code>PAR</arrival_city_code><arrival_city_name>Paris</arrival_city_name><planes>77W</planes><plane_name>Boeing 777-300ER</plane_name></routes><routes><airline_iata>AF</airline_iata><departure_airport_iata>BEY</departure_airport_iata><departure_name_airport>Beirut Rafic Hariri Airport</departure_name_airport><departure_coordinates_lon>35.49308</departure_coordinates_lon><departure_coordinates_lat>33.826073</departure_coordinates_lat><departure_country_code>LB</departure_country_code><departure_country_name>Lebanon</departure_country_name><departure_city_code>BEY</departure_city_code><departure_city_name>Beirut</departure_city_name><arrival_airport_iata>CDG</arrival_airport_iata><arrival_name_airport>Charles De Gaulle</arrival_name_airport><arrival_coordinates_lon>2.567023</arrival_coordinates_lon><arrival_coordinates_lat>49.003197</arrival_coordinates_lat><arrival_country_code>FR</arrival_country_code><arrival_country_name>France</arrival_country_name><arrival_city_code>PAR</arrival_city_code><arrival_city_name>Paris</arrival_city_name><planes>332</planes><plane_name>Airbus Industrie A330-200</plane_name></routes><routes><airline_iata>AF</airline_iata><departure_airport_iata>BGF</departure_airport_iata><departure_name_airport>Bangui</departure_name_airport><departure_coordinates_lon>18.520279</departure_coordinates_lon><departure_coordinates_lat>4.396111</departure_coordinates_lat><departure_country_code>CF</departure_country_code><departure_country_name>Central African Republic</departure_country_name><departure_city_code>BGF</departure_city_code><departure_city_name>Bangui</departure_city_name><arrival_airport_iata>CDG</arrival_airport_iata><arrival_name_airport>Charles De Gaulle</arrival_name_airport><arrival_coordinates_lon>2.567023</arrival_coordinates_lon><arrival_coordinates_lat>49.003197</arrival_coordinates_lat><arrival_country_code>FR</arrival_country_code><arrival_country_name>France</arrival_country_name><arrival_city_code>PAR</arrival_city_code><arrival_city_name>Paris</arrival_city_name><planes>343</planes><plane_name>Airbus Industrie A340-300</plane_name></routes><routes><airline_iata>AF</airline_iata><departure_airport_iata>BHX</departure_airport_iata><departure_name_airport>Birmingham International Airport</departure_name_airport><departure_coordinates_lon>-1.733256</departure_coordinates_lon><departure_coordinates_lat>52.45252</departure_coordinates_lat><departure_country_code>GB</departure_country_code><departure_country_name>United Kingdom</departure_country_name><departure_city_code>BHX</departure_city_code><departure_city_name>Birmingham</departure_city_name><arrival_airport_iata>CDG</arrival_airport_iata><arrival_name_airport>Charles De Gaulle</arrival_name_airport><arrival_coordinates_lon>2.567023</arrival_coordinates_lon><arrival_coordinates_lat>49.003197</arrival_coordinates_lat><arrival_country_code>FR</arrival_country_code><arrival_country_name>France</arrival_country_name><arrival_city_code>PAR</arrival_city_code><arrival_city_name>Paris</arrival_city_name><planes>318</planes><plane_name>Airbus Industrie A318</plane_name></routes><routes><airline_iata>AF</airline_iata><departure_airport_iata>BHX</departure_airport_iata><departure_name_airport>Birmingham International Airport</departure_name_airport><departure_coordinates_lon>-1.733256</departure_coordinates_lon><departure_coordinates_lat>52.45252</departure_coordinates_lat><departure_country_code>GB</departure_country_code><departure_country_name>United Kingdom</departure_country_name><departure_city_code>BHX</departure_city_code><departure_city_name>Birmingham</departure_city_name><arrival_airport_iata>CDG</arrival_airport_iata><arrival_name_airport>Charles De Gaulle</arrival_name_airport><arrival_coordinates_lon>2.567023</arrival_coordinates_lon><arrival_coordinates_lat>49.003197</arrival_coordinates_lat><arrival_country_code>FR</arrival_country_code><arrival_country_name>France</arrival_country_name><arrival_city_code>PAR</arrival_city_code><arrival_city_name>Paris</arrival_city_name><planes>E95</planes><plane_name>Embraer ERJ-195</plane_name></routes><routes><airline_iata>AF</airline_iata><departure_airport_iata>BIA</departure_airport_iata><departure_name_airport>Poretta</departure_name_airport><departure_coordinates_lon>9.480124</departure_coordinates_lon><departure_coordinates_lat>42.547615</departure_coordinates_lat><departure_country_code>FR</departure_country_code><departure_country_name>France</departure_country_name><departure_city_code>BIA</departure_city_code><departure_city_name>Bastia</departure_city_name><arrival_airport_iata>MRS</arrival_airport_iata><arrival_name_airport>Marseille Provence Airport</arrival_name_airport><arrival_coordinates_lon>5.222137</arrival_coordinates_lon><arrival_coordinates_lat>43.44178</arrival_coordinates_lat><arrival_country_code>FR</arrival_country_code><arrival_country_name>France</arrival_country_name><arrival_city_code>MRS</arrival_city_code><arrival_city_name>Marseille</arrival_city_name><planes>320</planes><plane_name>Airbus Industrie A320</plane_name></routes><routes><airline_iata>AF</airline_iata><departure_airport_iata>BIA</departure_airport_iata><departure_name_airport>Poretta</departure_name_airport><departure_coordinates_lon>9.480124</departure_coordinates_lon><departure_coordinates_lat>42.547615</departure_coordinates_lat><departure_country_code>FR</departure_country_code><departure_country_name>France</departure_country_name><departure_city_code>BIA</departure_city_code><departure_city_name>Bastia</departure_city_name><arrival_airport_iata>NCE</arrival_airport_iata><arrival_name_airport>Cote D'azur International Airport</arrival_name_airport><arrival_coordinates_lon>7.205232</arrival_coordinates_lon><arrival_coordinates_lat>43.66049</arrival_coordinates_lat><arrival_country_code>FR</arrival_country_code><arrival_country_name>France</arrival_country_name><arrival_city_code>NCE</arrival_city_code><arrival_city_name>Nice</arrival_city_name><planes>AT7</planes><plane_name>Aerospatiale/Alenia ATR 72</plane_name></routes><routes><airline_iata>AF</airline_iata><departure_airport_iata>BIA</departure_airport_iata><departure_name_airport>Poretta</departure_name_airport><departure_coordinates_lon>9.480124</departure_coordinates_lon><departure_coordinates_lat>42.547615</departure_coordinates_lat><departure_country_code>FR</departure_country_code><departure_country_name>France</departure_country_name><departure_city_code>BIA</departure_city_code><departure_city_name>Bastia</departure_city_name><arrival_airport_iata>ORY</arrival_airport_iata><arrival_name_airport>Orly</arrival_name_airport><arrival_coordinates_lon>2.3597</arrival_coordinates_lon><arrival_coordinates_lat>48.728283</arrival_coordinates_lat><arrival_country_code>FR</arrival_country_code><arrival_country_name>France</arrival_country_name><arrival_city_code>PAR</arrival_city_code><arrival_city_name>Paris</arrival_city_name><planes>321</planes><plane_name>Airbus Industrie A321</plane_name></routes><routes><airline_iata>AF</airline_iata><departure_airport_iata>BIA</departure_airport_iata><departure_name_airport>Poretta</departure_name_airport><departure_coordinates_lon>9.480124</departure_coordinates_lon><departure_coordinates_lat>42.547615</departure_coordinates_lat><departure_country_code>FR</departure_country_code><departure_country_name>France</departure_country_name><departure_city_code>BIA</departure_city_code><departure_city_name>Bastia</departure_city_name><arrival_airport_iata>ORY</arrival_airport_iata><arrival_name_airport>Orly</arrival_name_airport><arrival_coordinates_lon>2.3597</arrival_coordinates_lon><arrival_coordinates_lat>48.728283</arrival_coordinates_lat><arrival_country_code>FR</arrival_country_code><arrival_country_name>France</arrival_country_name><arrival_city_code>PAR</arrival_city_code><arrival_city_name>Paris</arrival_city_name><planes>320</planes><plane_name>Airbus Industrie A320</plane_name></routes><routes><airline_iata>AF</airline_iata><departure_airport_iata>BIO</departure_airport_iata><departure_name_airport>Bilbao</departure_name_airport><departure_coordinates_lon>-2.905808</departure_coordinates_lon><departure_coordinates_lat>43.305534</departure_coordinates_lat><departure_country_code>ES</departure_country_code><departure_country_name>Spain</departure_country_name><departure_city_code>BIO</departure_city_code><departure_city_name>Bilbao</departure_city_name><arrival_airport_iata>CDG</arrival_airport_iata><arrival_name_airport>Charles De Gaulle</arrival_name_airport><arrival_coordi