<?xml version="1.0" encoding="utf-8"?>
<route><routes><airline_iata>2J</airline_iata><departure_airport_iata>OUA</departure_airport_iata><departure_name_airport>Ouagadougou</departure_name_airport><departure_coordinates_lon>-1.514283</departure_coordinates_lon><departure_coordinates_lat>12.355019</departure_coordinates_lat><departure_country_code>BF</departure_country_code><departure_country_name>Burkina Faso</departure_country_name><departure_city_code>OUA</departure_city_code><departure_city_name>Ouagadougou</departure_city_name><arrival_airport_iata>ACC</arrival_airport_iata><arrival_name_airport>Kotoka</arrival_name_airport><arrival_coordinates_lon>-0.171769</arrival_coordinates_lon><arrival_coordinates_lat>5.60737</arrival_coordinates_lat><arrival_country_code>GH</arrival_country_code><arrival_country_name>Ghana</arrival_country_name><arrival_city_code>ACC</arrival_city_code><arrival_city_name>Accra</arrival_city_name><planes>CRJ</planes><plane_name>Canadair Regional Jet</plane_name></routes><routes><airline_iata>AA</airline_iata><departure_airport_iata>LHR</departure_airport_iata><departure_name_airport>Heathrow</departure_name_airport><departure_coordinates_lon>-0.453566</departure_coordinates_lon><departure_coordinates_lat>51.469604</departure_coordinates_lat><departure_country_code>GB</departure_country_code><departure_country_name>United Kingdom</departure_country_name><departure_city_code>LON</departure_city_code><departure_city_name>London</departure_city_name><arrival_airport_iata>ACC</arrival_airport_iata><arrival_name_airport>Kotoka</arrival_name_airport><arrival_coordinates_lon>-0.171769</arrival_coordinates_lon><arrival_coordinates_lat>5.60737</arrival_coordinates_lat><arrival_country_code>GH</arrival_country_code><arrival_country_name>Ghana</arrival_country_name><arrival_city_code>ACC</arrival_city_code><arrival_city_name>Accra</arrival_city_name><planes>777</planes><plane_name>Boeing 777</plane_name></routes><routes><airline_iata>AT</airline_iata><departure_airport_iata>LFW</departure_airport_iata><departure_name_airport>Lome</departure_name_airport><departure_coordinates_lon>1.250347</departure_coordinates_lon><departure_coordinates_lat>6.167103</departure_coordinates_lat><departure_country_code>TG</departure_country_code><departure_country_name>Togo</departure_country_name><departure_city_code>LFW</departure_city_code><departure_city_name>Lome</departure_city_name><arrival_airport_iata>ACC</arrival_airport_iata><arrival_name_airport>Kotoka</arrival_name_airport><arrival_coordinates_lon>-0.171769</arrival_coordinates_lon><arrival_coordinates_lat>5.60737</arrival_coordinates_lat><arrival_country_code>GH</arrival_country_code><arrival_country_name>Ghana</arrival_country_name><arrival_city_code>ACC</arrival_city_code><arrival_city_name>Accra</arrival_city_name><planes>73G</planes><plane_name>Boeing 737-700</plane_name></routes><routes><airline_iata>AZ</airline_iata><departure_airport_iata>LOS</departure_airport_iata><departure_name_airport>Murtala Muhammed</departure_name_airport><departure_coordinates_lon>3.321178</departure_coordinates_lon><departure_coordinates_lat>6.577871</departure_coordinates_lat><departure_country_code>NG</departure_country_code><departure_country_name>Nigeria</departure_country_name><departure_city_code>LOS</departure_city_code><departure_city_name>Lagos</departure_city_name><arrival_airport_iata>ACC</arrival_airport_iata><arrival_name_airport>Kotoka</arrival_name_airport><arrival_coordinates_lon>-0.171769</arrival_coordinates_lon><arrival_coordinates_lat>5.60737</arrival_coordinates_lat><arrival_country_code>GH</arrival_country_code><arrival_country_name>Ghana</arrival_country_name><arrival_city_code>ACC</arrival_city_code><arrival_city_name>Accra</arrival_city_name><planes>764</planes><plane_name>Boeing 767-400</plane_name></routes><routes><airline_iata>BA</airline_iata><departure_airport_iata>LHR</departure_airport_iata><departure_name_airport>Heathrow</departure_name_airport><departure_coordinates_lon>-0.453566</departure_coordinates_lon><departure_coordinates_lat>51.469604</departure_coordinates_lat><departure_country_code>GB</departure_country_code><departure_country_name>United Kingdom</departure_country_name><departure_city_code>LON</departure_city_code><departure_city_name>London</departure_city_name><arrival_airport_iata>ACC</arrival_airport_iata><arrival_name_airport>Kotoka</arrival_name_airport><arrival_coordinates_lon>-0.171769</arrival_coordinates_lon><arrival_coordinates_lat>5.60737</arrival_coordinates_lat><arrival_country_code>GH</arrival_country_code><arrival_country_name>Ghana</arrival_country_name><arrival_city_code>ACC</arrival_city_code><arrival_city_name>Accra</arrival_city_name><planes>777</planes><plane_name>Boeing 777</plane_name></routes><routes><airline_iata>DL</airline_iata><departure_airport_iata>JFK</departure_airport_iata><departure_name_airport>John F Kennedy International</departure_name_airport><departure_coordinates_lon>-73.78817</departure_coordinates_lon><departure_coordinates_lat>40.642334</departure_coordinates_lat><departure_country_code>US</departure_country_code><departure_country_name>United States</departure_country_name><departure_city_code>NYC</departure_city_code><departure_city_name>New York</departure_city_name><arrival_airport_iata>ACC</arrival_airport_iata><arrival_name_airport>Kotoka</arrival_name_airport><arrival_coordinates_lon>-0.171769</arrival_coordinates_lon><arrival_coordinates_lat>5.60737</arrival_coordinates_lat><arrival_country_code>GH</arrival_country_code><arrival_country_name>Ghana</arrival_country_name><arrival_city_code>ACC</arrival_city_code><arrival_city_name>Accra</arrival_city_name><planes>767</planes><plane_name>Boeing 767</plane_name></routes><routes><airline_iata>DL</airline_iata><departure_airport_iata>ROB</departure_airport_iata><departure_name_airport>Roberts International</departure_name_airport><departure_coordinates_lon>-10.358889</departure_coordinates_lon><departure_coordinates_lat>6.239722</departure_coordinates_lat><departure_country_code>LR</departure_country_code><departure_country_name>Liberia</departure_country_name><departure_city_code>MLW</departure_city_code><departure_city_name>Monrovia</departure_city_name><arrival_airport_iata>ACC</arrival_airport_iata><arrival_name_airport>Kotoka</arrival_name_airport><arrival_coordinates_lon>-0.171769</arrival_coordinates_lon><arrival_coordinates_lat>5.60737</arrival_coordinates_lat><arrival_country_code>GH</arrival_country_code><arrival_country_name>Ghana</arrival_country_name><arrival_city_code>ACC</arrival_city_code><arrival_city_name>Accra</arrival_city_name><planes>767</planes><plane_name>Boeing 767</plane_name></routes><routes><airline_iata>EK</airline_iata><departure_airport_iata>ABJ</departure_airport_iata><departure_name_airport>Felix Houphouet Boigny</departure_name_airport><departure_coordinates_lon>-3.933015</departure_coordinates_lon><departure_coordinates_lat>5.254879</departure_coordinates_lat><departure_country_code>CI</departure_country_code><departure_country_name>Ivory Coast</departure_country_name><departure_city_code>ABJ</departure_city_code><departure_city_name>Abidjan</departure_city_name><arrival_airport_iata>ACC</arrival_airport_iata><arrival_name_airport>Kotoka</arrival_name_airport><arrival_coordinates_lon>-0.171769</arrival_coordinates_lon><arrival_coordinates_lat>5.60737</arrival_coordinates_lat><arrival_country_code>GH</arrival_country_code><arrival_country_name>Ghana</arrival_country_name><arrival_city_code>ACC</arrival_city_code><arrival_city_name>Accra</arrival_city_name><planes>345</planes><plane_name>Airbus Industrie A340-500</plane_name></routes><routes><airline_iata>EK</airline_iata><departure_airport_iata>DXB</departure_airport_iata><departure_name_airport>Dubai</departure_name_airport><departure_coordinates_lon>55.352917</departure_coordinates_lon><departure_coordinates_lat>25.248665</departure_coordinates_lat><departure_country_code>AE</departure_country_code><departure_country_name>United Arab Emirates</departure_country_name><departure_city_code>DXB</departure_city_code><departure_city_name>Dubai</departure_city_name><arrival_airport_iata>ACC</arrival_airport_iata><arrival_name_airport>Kotoka</arrival_name_airport><arrival_coordinates_lon>-0.171769</arrival_coordinates_lon><arrival_coordinates_lat>5.60737</arrival_coordinates_lat><arrival_country_code>GH</arrival_country_code><arrival_country_name>Ghana</arrival_country_name><arrival_city_code>ACC</arrival_city_code><arrival_city_name>Accra</arrival_city_name><planes>345</planes><plane_name>Airbus Industrie A340-500</plane_name></routes><routes><airline_iata>ET</airline_iata><departure_airport_iata>ABJ</departure_airport_iata><departure_name_airport>Felix Houphouet Boigny</departure_name_airport><departure_coordinates_lon>-3.933015</departure_coordinates_lon><departure_coordinates_lat>5.254879</departure_coordinates_lat><departure_country_code>CI</departure_country_code><departure_country_name>Ivory Coast</departure_country_name><departure_city_code>ABJ</departure_city_code><departure_city_name>Abidjan</departure_city_name><arrival_airport_iata>ACC</arrival_airport_iata><arrival_name_airport>Kotoka</arrival_name_airport><arrival_coordinates_lon>-0.171769</arrival_coordinates_lon><arrival_coordinates_lat>5.60737</arrival_coordinates_lat><arrival_country_code>GH</arrival_country_code><arrival_country_name>Ghana</arrival_country_name><arrival_city_code>ACC</arrival_city_code><arrival_city_name>Accra</arrival_city_name><planes>DH8</planes><plane_name>De Havilland Canada DHC-8 Dash 8 All S.</plane_name></routes><routes><airline_iata>ET</airline_iata><departure_airport_iata>ADD</departure_airport_iata><departure_name_airport>Bole International</departure_name_airport><departure_coordinates_lon>38.7959</departure_coordinates_lon><departure_coordinates_lat>8.983759</departure_coordinates_lat><departure_country_code>ET</departure_country_code><departure_country_name>Ethiopia</departure_country_name><departure_city_code>ADD</departure_city_code><departure_city_name>Addis Ababa</departure_city_name><arrival_airport_iata>ACC</arrival_airport_iata><arrival_name_airport>Kotoka</arrival_name_airport><arrival_coordinates_lon>-0.171769</arrival_coordinates_lon><arrival_coordinates_lat>5.60737</arrival_coordinates_lat><arrival_country_code>GH</arrival_country_code><arrival_country_name>Ghana</arrival_country_name><arrival_city_code>ACC</arrival_city_code><arrival_city_name>Accra</arrival_city_name><planes>763</planes><plane_name>Boeing 767-300</plane_name></routes><routes><airline_iata>ET</airline_iata><departure_airport_iata>LFW</departure_airport_iata><departure_name_airport>Lome</departure_name_airport><departure_coordinates_lon>1.250347</departure_coordinates_lon><departure_coordinates_lat>6.167103</departure_coordinates_lat><departure_country_code>TG</departure_country_code><departure_country_name>Togo</departure_country_name><departure_city_code>LFW</departure_city_code><departure_city_name>Lome</departure_city_name><arrival_airport_iata>ACC</arrival_airport_iata><arrival_name_airport>Kotoka</arrival_name_airport><arrival_coordinates_lon>-0.171769</arrival_coordinates_lon><arrival_coordinates_lat>5.60737</arrival_coordinates_lat><arrival_country_code>GH</arrival_country_code><arrival_country_name>Ghana</arrival_country_name><arrival_city_code>ACC</arrival_city_code><arrival_city_name>Accra</arrival_city_name><planes>DH8</planes><plane_name>De Havilland Canada DHC-8 Dash 8 All S.</plane_name></routes><routes><airline_iata>ET</airline_iata><departure_airport_iata>ROB</departure_airport_iata><departure_name_airport>Roberts International</departure_name_airport><departure_coordinates_lon>-10.358889</departure_coordinates_lon><departure_coordinates_lat>6.239722</departure_coordinates_lat><departure_country_code>LR</departure_country_code><departure_country_name>Liberia</departure_country_name><departure_city_code>MLW</departure_city_code><departure_city_name>Monrovia</departure_city_name><arrival_airport_iata>ACC</arrival_airport_iata><arrival_name_airport>Kotoka</arrival_name_airport><arrival_coordinates_lon>-0.171769</arrival_coordinates_lon><arrival_coordinates_lat>5.60737</arrival_coordinates_lat><arrival_country_code>GH</arrival_country_code><arrival_country_name>Ghana</arrival_country_name><arrival_city_code>ACC</arrival_city_code><arrival_city_name>Accra</arrival_city_name><planes>DH8</planes><plane_name>De Havilland Canada DHC-8 Dash 8 All S.</plane_name></routes><routes><airline_iata>I5</airline_iata><departure_airport_iata>BKO</departure_airport_iata><departure_name_airport>Bamako</departure_name_airport><departure_coordinates_lon>-7.947951</departure_coordinates_lon><departure_coordinates_lat>12.540926</departure_coordinates_lat><departure_country_code>ML</departure_country_code><departure_country_name>Mali</departure_country_name><departure_city_code>BKO</departure_city_code><departure_city_name>Bamako</departure_city_name><arrival_airport_iata>ACC</arrival_airport_iata><arrival_name_airport>Kotoka</arrival_name_airport><arrival_coordinates_lon>-0.171769</arrival_coordinates_lon><arrival_coordinates_lat>5.60737</arrival_coordinates_lat><arrival_country_code>GH</arrival_country_code><arrival_country_name>Ghana</arrival_country_name><arrival_city_code>ACC</arrival_city_code><arrival_city_name>Accra</arrival_city_name><planes>CRJ</planes><plane_name>Canadair Regional Jet</plane_name></routes><routes><airline_iata>I5</airline_iata><departure_airport_iata>ROB</departure_airport_iata><departure_name_airport>Roberts International</departure_name_airport><departure_coordinates_lon>-10.358889</departure_coordinates_lon><departure_coordinates_lat>6.239722</departure_coordinates_lat><departure_country_code>LR</departure_country_code><departure_country_name>Liberia</departure_country_name><departure_city_code>MLW</departure_city_code><departure_city_name>Monrovia</departure_city_name><arrival_airport_iata>ACC</arrival_airport_iata><arrival_name_airport>Kotoka</arrival_name_airport><arrival_coordinates_lon>-0.171769</arrival_coordinates_lon><arrival_coordinates_lat>5.60737</arrival_coordinates_lat><arrival_country_code>GH</arrival_country_code><arrival_country_name>Ghana</arrival_country_name><arrival_city_code>ACC</arrival_city_code><arrival_city_name>Accra</arrival_city_name><planes>CRJ</planes><plane_name>Canadair Regional Jet</plane_name></routes><routes><airline_iata>IB</airline_iata><departure_airport_iata>MAD</departure_airport_iata><departure_name_airport>Barajas</departure_name_airport><departure_coordinates_lon>-3.570209</departure_coordinates_lon><departure_coordinates_lat>40.46515</departure_coordinates_lat><departure_country_code>ES</departure_country_code><departure_country_name>Spain</departure_country_name><departure_city_code>MAD</departure_city_code><departure_city_name>Madrid</departure_city_name><arrival_airport_iata>ACC</arrival_airport_iata><arrival_name_airport>Kotoka</arrival_name_airport><arrival_coordinates_lon>-0.171769</arrival_coordinates_lon><arrival_coordinates_lat>5.60737</arrival_coordinates_lat><arrival_country_code>GH</arrival_country_code><arrival_country_name>Ghana</arrival_country_name><arrival_city_code>ACC</arrival_city_code><arrival_city_name>Accra</arrival_city_name><planes>319</planes><plane_name>Airbus Industrie A319</plane_name></routes><routes><airline_iata>KL</airline_iata><departure_airport_iata>AMS</departure_airport_iata><departure_name_airport>Schiphol</departure_name_airport><departure_coordinates_lon>4.763385</departure_coordinates_lon><departure_coordinates_lat>52.30907</departure_coordinates_lat><departure_country_code>NL</departure_country_code><departure_country_name>Netherlands</departure_country_name><departure_city_code>AMS</departure_city_code><departure_city_name>Amsterdam</departure_city_name><arrival_airport_iata>ACC</arrival_airport_iata><arrival_name_airport>Kotoka</arrival_name_airport><arrival_coordinates_lon>-0.171769</arrival_coordinates_lon><arrival_coordinates_lat>5.60737</arrival_coordinates_lat><arrival_country_code>GH</arrival_country_code><arrival_country_name>Ghana</arrival_country_name><arrival_city_code>ACC</arrival_city_code><arrival_city_name>Accra</arrival_city_name><planes>330</planes><plane_name>Airbus Industrie A330</plane_name></routes><routes><airline_iata>KQ</airline_iata><departure_airport_iata>FNA</departure_airport_iata><departure_name_airport>Lungi International</departure_name_airport><departure_coordinates_lon>-13.196944</departure_coordinates_lon><departure_coordinates_lat>8.6175</departure_coordinates_lat><departure_country_code>SL</departure_country_code><departure_country_name>Sierra Leone</departure_country_name><departure_city_code>FNA</departure_city_code><departure_city_name>Freetown</departure_city_name><arrival_airport_iata>ACC</arrival_airport_iata><arrival_name_airport>Kotoka</arrival_name_airport><arrival_coordinates_lon>-0.171769</arrival_coordinates_lon><arrival_coordinates_lat>5.60737</arrival_coordinates_lat><arrival_country_code>GH</arrival_country_code><arrival_country_name>Ghana</arrival_country_name><arrival_city_code>ACC</arrival_city_code><arrival_city_name>Accra</arrival_city_name><planes>738</planes><plane_name>Boeing 737-800</plane_name></routes><routes><airline_iata>KQ</airline_iata><departure_airport_iata>NBO</departure_airport_iata><departure_name_airport>Jomo Kenyatta International</departure_name_airport><departure_coordinates_lon>36.92578</departure_coordinates_lon><departure_coordinates_lat>-1.319167</departure_coordinates_lat><departure_country_code>KE</departure_country_code><departure_country_name>Kenya</departure_country_name><departure_city_code>NBO</departure_city_code><departure_city_name>Nairobi</departure_city_name><arrival_airport_iata>ACC</arrival_airport_iata><arrival_name_airport>Kotoka</arrival_name_airport><arrival_coordinates_lon>-0.171769</arrival_coordinates_lon><arrival_coordinates_lat>5.60737</arrival_coordinates_lat><arrival_country_code>GH</arrival_country_code><arrival_country_name>Ghana</arrival_country_name><arrival_city_code>ACC</arrival_city_code><arrival_city_name>Accra</arrival_city_name><planes>738</planes><plane_name>Boeing 737-800</plane_name></routes><routes><airline_iata>KQ</airline_iata><departure_airport_iata>ROB</departure_airport_iata><departure_name_airport>Roberts International</departure_name_airport><departure_coordinates_lon>-10.358889</departure_coordinates_lon><departure_coordinates_lat>6.239722</departure_coordinates_lat><departure_country_code>LR</departure_country_code><departure_country_name>Liberia</departure_country_name><departure_city_code>MLW</departure_city_code><departure_city_name>Monrovia</departure_city_name><arrival_airport_iata>ACC</arrival_airport_iata><arrival_name_airport>Kotoka</arrival_name_airport><arrival_coordinates_lon>-0.171769</arrival_coordinates_lon><arrival_coordinates_lat>5.60737</arrival_coordinates_lat><arrival_country_code>GH</arrival_country_code><arrival_country_name>Ghana</arrival_country_name><arrival_city_code>ACC</arrival_city_code><arrival_city_name>Accra</arrival_city_name><planes>738</planes><plane_name>Boeing 737-800</plane_name></routes><routes><airline_iata>LH</airline_iata><departure_airport_iata>FRA</departure_airport_iata><departure_name_airport>Frankfurt International Airport</departure_name_airport><departure_coordinates_lon>8.570773</departure_coordinates_lon><departure_coordinates_lat>50.050735</departure_coordinates_lat><departure_country_code>DE</departure_country_code><departure_country_name>Germany</departure_country_name><departure_city_code>FRA</departure_city_code><departure_city_name>Frankfurt</departure_city_name><arrival_airport_iata>ACC</arrival_airport_iata><arrival_name_airport>Kotoka</arrival_name_airport><arrival_coordinates_lon>-0.171769</arrival_coordinates_lon><arrival_coordinates_lat>5.60737</arrival_coordinates_lat><arrival_country_code>GH</arrival_country_code><arrival_country_name>Ghana</arrival_country_name><arrival_city_code>ACC</arrival_city_code><arrival_city_name>Accra</arrival_city_name><planes>73H</planes><plane_name>Boeing 737-800 With Winglets</plane_name></routes><routes><airline_iata>ME</airline_iata><departure_airport_iata>KAN</departure_airport_iata><departure_name_airport>Aminu Kano International Airport</departure_name_airport><departure_coordinates_lon>8.522271</departure_coordinates_lon><departure_coordinates_lat>12.045549</departure_coordinates_lat><departure_country_code>NG</departure_country_code><departure_country_name>Nigeria</departure_country_name><departure_city_code>KAN</departure_city_code><departure_city_name>Kano</departure_city_name><arrival_airport_iata>ACC</arrival_airport_iata><arrival_name_airport>Kotoka</arrival_name_airport><arrival_coordinates_lon>-0.171769</arrival_coordinates_lon><arrival_coordinates_lat>5.60737</arrival_coordinates_lat><arrival_country_code>GH</arrival_country_code><arrival_country_name>Ghana</arrival_country_name><arrival_city_code>ACC</arrival_city_code><arrival_city_name>Accra</arrival_city_name><planes>332</planes><plane_name>Airbus Industrie A330-200</plane_name></routes><routes><airline_iata>ME</airline_iata><departure_airport_iata>LOS</departure_airport_iata><departure_name_airport>Murtala Muhammed</departure_name_airport><departure_coordinates_lon>3.321178</departure_coordinates_lon><departure_coordinates_lat>6.577871</departure_coordinates_lat><departure_country_code>NG</departure_country_code><departure_country_name>Nigeria</departure_country_name><departure_city_code>LOS</departure_city_code><departure_city_name>Lagos</departure_city_name><arrival_airport_iata>ACC</arrival_airport_iata><arrival_name_airport>Kotoka</arrival_name_airport><arrival_coordinates_lon>-0.171769</arrival_coordinates_lon><arrival_coordinates_lat>5.60737</arrival_coordinates_lat><arrival_country_code>GH</arrival_country_code><arrival_country_name>Ghana</arrival_country_name><arrival_city_code>ACC</arrival_city_code><arrival_city_name>Accra</arrival_city_name><planes>332</planes><plane_name>Airbus Industrie A330-200</plane_name></routes><routes><airline_iata>MS</airline_iata><departure_airport_iata>CAI</departure_airport_iata><departure_name_airport>Cairo International Airport</departure_name_airport><departure_coordinates_lon>31.40647</departure_coordinates_lon><departure_coordinates_lat>30.120106</departure_coordinates_lat><departure_country_code>EG</departure_country_code><departure_country_name>Egypt</departure_country_name><departure_city_code>CAI</departure_city_code><departure_city_name>Cairo</departure_city_name><arrival_airport_iata>ACC</arrival_airport_iata><arrival_name_airport>Kotoka</arrival_name_airport><arrival_coordinates_lon>-0.171769</arrival_coordinates_lon><arrival_coordinates_lat>5.60737</arrival_coordinates_lat><arrival_country_code>GH</arrival_country_code><arrival_country_name>Ghana</arrival_country_name><arrival_city_code>ACC</arrival_city_code><arrival_city_name>Accra</arrival_city_name><planes>738</planes><plane_name>Boeing 737-800</plane_name></routes><routes><airline_iata>O4</airline_iata><departure_airport_iata>ACC</departure_airport_iata><departure_name_airport>Kotoka</departure_name_airport><departure_coordinates_lon>-0.171769</departure_coordinates_lon><departure_coordinates_lat>5.60737</departure_coordinates_lat><departure_country_code>GH</departure_country_code><departure_country_name>Ghana</departure_country_name><departure_city_code>ACC</departure_city_code><departure_city_name>Accra</departure_city_name><arrival_airport_iata>KMS</arrival_airport_iata><arrival_name_airport>Kumasi</arrival_name_airport><arrival_coordinates_lon>-1.591111</arrival_coordinates_lon><arrival_coordinates_lat>6.7125</arrival_coordinates_lat><arrival_country_code>GH</arrival_country_code><arrival_country_name>Ghana</arrival_country_name><arrival_city_code>KMS</arrival_city_code><arrival_city_name>Kumasi</arrival_city_name><planes>ATR</planes><plane_name>Aerospatiale/Alenia ATR</plane_name></routes><routes><airline_iata>O4</airline_iata><departure_airport_iata>ACC</departure_airport_iata><departure_name_airport>Kotoka</departure_name_airport><departure_coordinates_lon>-0.171769</departure_coordinates_lon><departure_coordinates_lat>5.60737</departure_coordinates_lat><departure_country_code>GH</departure_country_code><departure_country_name>Ghana</departure_country_name><departure_city_code>ACC</departure_city_code><departure_city_name>Accra</departure_city_name><arrival_airport_iata>TKD</arrival_airport_iata><arrival_name_airport>Takoradi</arrival_name_airport><arrival_coordinates_lon>-1.775</arrival_coordinates_lon><arrival_coordinates_lat>4.891667</arrival_coordinates_lat><arrival_country_code>GH</arrival_country_code><arrival_country_name>Ghana</arrival_country_name><arrival_city_code>TKD</arrival_city_code><arrival_city_name>Takoradi</arrival_city_name><planes>ATR</planes><plane_name>Aerospatiale/Alenia ATR</plane_name></routes><routes><airline_iata>O4</airline_iata><departure_airport_iata>ACC</departure_airport_iata><departure_name_airport>Kotoka</departure_name_airport><departure_coordinates_lon>-0.171769</departure_coordinates_lon><departure_coordinates_lat>5.60737</departure_coordinates_lat><departure_country_code>GH</departure_country_code><departure_country_name>Ghana</departure_country_name><departure_city_code>ACC</departure_city_code><departure_city_name>Accra</departure_city_name><arrival_airport_iata>TML</arrival_airport_iata><arrival_name_airport>Tamale</arrival_name_airport><arrival_coordinates_lon>-0.879167</arrival_coordinates_lon><arrival_coordinates_lat>9.406944</arrival_coordinates_lat><arrival_country_code>GH</arrival_country_code><arrival_country_name>Ghana</arrival_country_name><arrival_city_code>TML</arrival_city_code><arrival_city_name>Tamale</arrival_city_name><planes>ATR</planes><plane_name>Aerospatiale/Alenia ATR</plane_name></routes><routes><airline_iata>O4</airline_iata><departure_airport_iata>KMS</departure_airport_iata><departure_name_airport>Kumasi</departure_name_airport><departure_coordinates_lon>-1.591111</departure_coordinates_lon><departure_coordinates_lat>6.7125</departure_coordinates_lat><departure_country_code>GH</departure_country_code><departure_country_name>Ghana</departure_country_name><departure_city_code>KMS</departure_city_code><departure_city_name>Kumasi</departure_city_name><arrival_airport_iata>ACC</arrival_airport_iata><arrival_name_airport>Kotoka</arrival_name_airport><arrival_coordinates_lon>-0.171769</arrival_coordinates_lon><arrival_coordinates_lat>5.60737</arrival_coordinates_lat><arrival_country_code>GH</arrival_country_code><arrival_country_name>Ghana</arrival_country_name><arrival_city_code>ACC</arrival_city_code><arrival_city_name>Accra</arrival_city_name><planes>ATR</planes><plane_name>Aerospatiale/Alenia ATR</plane_name></routes><routes><airline_iata>O4</airline_iata><departure_airport_iata>NYI</departure_airport_iata><departure_name_airport>Sunyani</departure_name_airport><departure_coordinates_lon>-2.333333</departure_coordinates_lon><departure_coordinates_lat>7.333333</departure_coordinates_lat><departure_country_code>GH</departure_country_code><departure_country_name>Ghana</departure_country_name><departure_city_code>NYI</departure_city_code><departure_city_name>Sunyani</departure_city_name><arrival_airport_iata>ACC</arrival_airport_iata><arrival_name_airport>Kotoka</arrival_name_airport><arrival_coordinates_lon>-0.171769</arrival_coordinates_lon><arrival_coordinates_lat>5.60737</arrival_coordinates_lat><arrival_country_code>GH</arrival_country_code><arrival_country_name>Ghana</arrival_country_name><arrival_city_code>ACC</arrival_city_code><arrival_city_name>Accra</arrival_city_name><planes>ATR</planes><plane_name>Aerospatiale/Alenia ATR</plane_name></routes><routes><airline_iata>O4</airline_iata><departure_airport_iata>TKD</departure_airport_iata><departure_name_airport>Takoradi</departure_name_airport><departure_coordinates_lon>-1.775</departure_coordinates_lon><departure_coordinates_lat>4.891667</departure_coordinates_lat><departure_country_code>GH</departure_country_code><departure_country_name>Ghana</departure_country_name><departure_city_code>TKD</departure_city_code><departure_city_name>Takoradi</departure_city_name><arrival_airport_iata>ACC</arrival_airport_iata><arrival_name_airport>Kotoka</arrival_name_airport><arrival_coordinates_lon>-0.171769</arrival_coordinates_lon><arrival_coordinates_lat>5.60737</arrival_coordinates_lat><arrival_country_code>GH</arrival_country_code><arrival_country_name>Ghana</arrival_country_name><arrival_city_code>ACC</arrival_city_code><arrival_city_name>Accra</arrival_city_name><planes>ATR</planes><plane_name>Aerospatiale/Alenia ATR</plane_name></routes><routes><airline_iata>O4</airline_iata><departure_airport_iata>TML</departure_airport_iata><departure_name_airport>Tamale</departure_name_airport><departure_coordinates_lon>-0.879167</departure_coordinates_lon><departure_coordinates_lat>9.406944</departure_coordinates_lat><departure_country_code>GH</departure_country_code><departure_country_name>Ghana</departure_country_name><departure_city_code>TML</departure_city_code><departure_city_name>Tamale</departure_city_name><arrival_airport_iata>ACC</arrival_airport_iata><arrival_name_airport>Kotoka</arrival_name_airport><arrival_coordinates_lon>-0.171769</arrival_coordinates_lon><arrival_coordinates_lat>5.60737</arrival_coordinates_lat><arrival_country_code>GH</arrival_country_code><arrival_country_name>Ghana</arrival_country_name><arrival_city_code>ACC</arrival_city_code><arrival_city_name>Accra</arrival_city_name><planes>ATR</planes><plane_name>Aerospatiale/Alenia ATR</plane_name></routes><routes><airline_iata>SA</airline_iata><departure_airport_iata>ABJ</departure_airport_iata><departure_name_airport>Felix Houphouet Boigny</departure_name_airport><departure_coordinates_lon>-3.933015</departure_coordinates_lon><departure_coordinates_lat>5.254879</departure_coordinates_lat><departure_country_code>CI</departure_country_code><departure_country_name>Ivory Coast</departure_country_name><departure_city_code>ABJ</departure_city_code><departure_city_name>Abidjan</departure_city_name><arrival_airport_iata>ACC</arrival_airport_iata><arrival_name_airport>Kotoka</arrival_name_airport><arrival_coordinates_lon>-0.171769</arrival_coordinates_lon><arrival_coordinates_lat>5.60737</arrival_coordinates_lat><arrival_country_code>GH</arrival_country_code><arrival_country_name>Ghana</arrival_country_name><arrival_city_code>ACC</arrival_city_code><arrival_city_name>Accra</arrival_city_name><planes>332</planes><plane_name>Airbus Industrie A330-200</plane_name></routes><routes><airline_iata>SA</airline_iata><departure_airport_iata>JNB</departure_airport_iata><departure_name_airport>Oliver Reginald Tambo International (Jan Smuts International)</departure_name_airport><departure_coordinates_lon>28.231314</departure_coordinates_lon><departure_coordinates_lat>-26.132664</departure_coordinates_lat><departure_country_code>ZA</departure_country_code><departure_country_name>South Africa</departure_country_name><departure_city_code>JNB</departure_city_code><departure_city_name>Johannesburg</departure_city_name><arrival_airport_iata>ACC</arrival_airport_iata><arrival_name_airport>Kotoka</arrival_name_airport><arrival_coordinates_lon>-0.171769</arrival_coordinates_lon><arrival_coordinates_lat>5.60737</arrival_coordinates_lat><arrival_country_code>GH</arrival_country_code><arrival_country_name>Ghana</arrival_country_name><arrival_city_code>ACC</arrival_city_code><arrival_city_name>Accra</arrival_city_name><planes>332</planes><plane_name>Airbus Industrie A330-200</plane_name></routes><routes><airline_iata>SW</airline_iata><departure_airport_iata>WDH</departure_airport_iata><departure_name_airport>Hosea Kutako International (J. G. Strijdom)</departure_name_airport><departure_coordinates_lon>17.463202</departure_coordinates_lon><departure_coordinates_lat>-22.487345</departure_coordinates_lat><departure_country_code>NA</departure_country_code><departure_country_name>Namibia</departure_country_name><departure_city_code>WDH</departure_city_code><departure_city_name>Windhoek</departure_city_name><arrival_airport_iata>ACC</arrival_airport_iata><arrival_name_airport>Kotoka</arrival_name_airport><arrival_coordinates_lon>-0.171769</arrival_coordinates_lon><arrival_coordinates_lat>5.60737</arrival_coordinates_lat><arrival_country_code>GH</arrival_country_code><arrival_country_name>Ghana</arrival_country_name><arrival_city_code>ACC</arrival_city_code><arrival_city_name>Accra</arrival_city_name><planes>319</planes><plane_name>Airbus Industrie A319</plane_name></routes><routes><airline_iata>TK</airline_iata><departure_airport_iata>IST</departure_airport_iata><departure_name_airport>Ataturk</departure_name_airport><departure_coordinates_lon>28.815277</departure_coordinates_lon><departure_coordinates_lat>40.976665</departure_coordinates_lat><departure_country_code>TR</departure_country_code><departure_country_name>Turkey</departure_country_name><departure_city_code>IST</departure_city_code><departure_city_name>Istanbul</departure_city_name><arrival_airport_iata>ACC</arrival_airport_iata><arrival_name_airport>Kotoka</arrival_name_airport><arrival_coordinates_lon>-0.171769</arrival_coordinates_lon><arrival_coordinates_lat>5.60737</arrival_coordinates_lat><arrival_country_code>GH</arrival_country_code><arrival_country_name>Ghana</arrival_country_name><arrival_city_code>ACC</arrival_city_code><arrival_city_name>Accra</arrival_city_name><planes>739</planes><plane_name>Boeing 737-900</plane_name></routes><routes><airline_iata>TP</airline_iata><departure_airport_iata>LIS</departure_airport_iata><departure_name_airport>Lisbon Portela</departure_name_airport><departure_coordinates_lon>-9.128165</departure_coordinates_lon><departure_coordinates_lat>38.770042</departure_coordinates_lat><departure_country_code>PT</departure_country_code><departure_country_name>Portugal</departure_country_name><departure_city_code>LIS</departure_city_code><departure_city_name>Lisbon</departure_city_name><arrival_airport_iata>ACC</arrival_airport_iata><arrival_name_airport>Kotoka</arrival_name_airport><arrival_coordinates_lon>-0.171769</arrival_coordinates_lon><arrival_coordinates_lat>5.60737</arrival_coordinates_lat><arrival_country_code>GH</arrival_country_code><arrival_country_name>Ghana</arrival_country_name><arrival_city_code>ACC</arrival_city_code><arrival_city_name>Accra</arrival_city_name><planes>320</planes><plane_name>Airbus Industrie A320</plane_name></routes><routes><airline_iata>VS</airline_iata><departure_airport_iata>LHR</departure_airport_iata><departure_name_airport>Heathrow</departure_name_airport><departure_coordinates_lon>-0.453566</departure_coordinates_lon><departure_coordinates_lat>51.469604</departure_coordinates_lat><departure_country_code>GB</departure_country_code><departure_country_name>United Kingdom</departure_country_name><departure_city_code>LON</departure_city_code><departure_city_name>London</departure_city_name><arrival_airport_iata>ACC</arrival_airport_iata><arrival_name_airport>Kotoka</arrival_name_airport><arrival_coordinates_lon>-0.171769</arrival_coordinates_lon><arrival_coordinates_lat>5.60737</arrival_coordinates_lat><arrival_country_code>GH</arrival_country_code><arrival_country_name>Ghana</arrival_country_name><arrival_city_code>ACC</arrival_city_code><arrival_city_name>Accra</arrival_city_name><planes>343</planes><plane_name>Airbus Industrie A340-300</plane_name></routes><routes><airline_iata>W3</airline_iata><departure_airport_iata>ABV</departure_airport_iata><departure_name_airport>Nnamdi Azikiwe International Airport</departure_name_airport><departure_coordinates_lon>7.270447</departure_coordinates_lon><departure_coordinates_lat>9.004614</departure_coordinates_lat><departure_country_code>NG</departure_country_code><departure_country_name>Nigeria</departure_country_name><departure_city_code>ABV</departure_city_code><departure_city_name>Abuja</departure_city_name><arrival_airport_iata>ACC</arrival_airport_iata><arrival_name_airport>Kotoka</arrival_name_airport><arrival_coordinates_lon>-0.171769</arrival_coordinates_lon><arrival_coordinates_lat>5.60737</arrival_coordinates_lat><arrival_country_code>GH</arrival_country_code><arrival_country_name>Ghana</arrival_country_name><arrival_city_code>ACC</arrival_city_code><arrival_city_name>Accra</arrival_city_name><planes>CR9</planes><plane_name>Canadair Regional Jet 900</plane_name></routes><routes><airline_iata>W3</airline_iata><departure_airport_iata>LOS</departure_airport_iata><departure_name_airport>Murtala Muhammed</departure_name_airport><departure_coordinates_lon>3.321178</departure_coordinates_lon><departure_coordinates_lat>6.577871</departure_coordinates_lat><departure_country_code>NG</departure_country_code><departure_country_name>Nigeria</departure_country_name><departure_city_code>LOS</departure_city_code><departure_city_name>Lagos</departure_city_name><arrival_airport_iata>ACC</arrival_airport_iata><arrival_name_airport>Kotoka</arrival_name_airport><arrival_coordinates_lon>-0.171769</arrival_coordinates_lon><arrival_coordinates_lat>5.60737</arrival_coordinates_lat><arrival_country_code>GH</arrival_country_code><arrival_country_name>Ghana</arrival_country_name><arrival_city_code>ACC</arrival_city_code><arrival_city_name>Accra</arrival_city_name><planes>CR9</planes><plane_name>Canadair Regional Jet 900</plane_name></routes><routes><airline_iata>W3</airline_iata><departure_airport_iata>ROB</departure_airport_iata><departure_name_airport>Roberts International</departure_name_airport><departure_coordinates_lon>-10.358889</departure_coordinates_lon><departure_coordinates_lat>6.239722</departure_coordinates_lat><departure_country_code>LR</departure_country_code><departure_country_name>Liberia</departure_country_name><departure_city_code>MLW</departure_city_code><departure_city_name>Monrovia</departure_city_name><arrival_airport_iata>ACC</arrival_airport_iata><arrival_name_airport>Kotoka</arrival_name_airport><arrival_coordinates_lon>-0.171769</arrival_coordinates_lon><arrival_coordinates_lat>5.60737</arrival_coordinates_lat><arrival_country_code>GH</arrival_country_code><arrival_country_name>Ghana</arrival_country_name><arrival_city_code>ACC</arrival_city_code><arrival_city_name>Accra</arrival_city_name><planes>CR9</planes><plane_name>Canadair Regional Jet 900</plane_name></routes></route>
