<?xml version="1.0" encoding="utf-8"?>
<route><routes><airline_iata>4U</airline_iata><departure_airport_iata>CGN</departure_airport_iata><departure_name_airport>Cologne/bonn</departure_name_airport><departure_coordinates_lon>7.122224</departure_coordinates_lon><departure_coordinates_lat>50.878365</departure_coordinates_lat><departure_country_code>DE</departure_country_code><departure_country_name>Germany</departure_country_name><departure_city_code>CGN</departure_city_code><departure_city_name>Cologne</departure_city_name><arrival_airport_iata>BUD</arrival_airport_iata><arrival_name_airport>Liszt Ferenc International</arrival_name_airport><arrival_coordinates_lon>19.261621</arrival_coordinates_lon><arrival_coordinates_lat>47.433037</arrival_coordinates_lat><arrival_country_code>HU</arrival_country_code><arrival_country_name>Hungary</arrival_country_name><arrival_city_code>BUD</arrival_city_code><arrival_city_name>Budapest</arrival_city_name><planes>319</planes><plane_name>Airbus Industrie A319</plane_name></routes><routes><airline_iata>4U</airline_iata><departure_airport_iata>STR</departure_airport_iata><departure_name_airport>Stuttgart Echterdingen</departure_name_airport><departure_coordinates_lon>9.193624</departure_coordinates_lon><departure_coordinates_lat>48.69073</departure_coordinates_lat><departure_country_code>DE</departure_country_code><departure_country_name>Germany</departure_country_name><departure_city_code>STR</departure_city_code><departure_city_name>Stuttgart</departure_city_name><arrival_airport_iata>BUD</arrival_airport_iata><arrival_name_airport>Liszt Ferenc International</arrival_name_airport><arrival_coordinates_lon>19.261621</arrival_coordinates_lon><arrival_coordinates_lat>47.433037</arrival_coordinates_lat><arrival_country_code>HU</arrival_country_code><arrival_country_name>Hungary</arrival_country_name><arrival_city_code>BUD</arrival_city_code><arrival_city_name>Budapest</arrival_city_name><planes>319</planes><plane_name>Airbus Industrie A319</plane_name></routes><routes><airline_iata>A3</airline_iata><departure_airport_iata>ATH</departure_airport_iata><departure_name_airport>Athens International Airport "Eleftherios Venizelos"</departure_name_airport><departure_coordinates_lon>23.946486</departure_coordinates_lon><departure_coordinates_lat>37.93635</departure_coordinates_lat><departure_country_code>GR</departure_country_code><departure_country_name>Greece</departure_country_name><departure_city_code>ATH</departure_city_code><departure_city_name>Athens</departure_city_name><arrival_airport_iata>BUD</arrival_airport_iata><arrival_name_airport>Liszt Ferenc International</arrival_name_airport><arrival_coordinates_lon>19.261621</arrival_coordinates_lon><arrival_coordinates_lat>47.433037</arrival_coordinates_lat><arrival_country_code>HU</arrival_country_code><arrival_country_name>Hungary</arrival_country_name><arrival_city_code>BUD</arrival_city_code><arrival_city_name>Budapest</arrival_city_name><planes>320</planes><plane_name>Airbus Industrie A320</plane_name></routes><routes><airline_iata>AA</airline_iata><departure_airport_iata>LHR</departure_airport_iata><departure_name_airport>Heathrow</departure_name_airport><departure_coordinates_lon>-0.453566</departure_coordinates_lon><departure_coordinates_lat>51.469604</departure_coordinates_lat><departure_country_code>GB</departure_country_code><departure_country_name>United Kingdom</departure_country_name><departure_city_code>LON</departure_city_code><departure_city_name>London</departure_city_name><arrival_airport_iata>BUD</arrival_airport_iata><arrival_name_airport>Liszt Ferenc International</arrival_name_airport><arrival_coordinates_lon>19.261621</arrival_coordinates_lon><arrival_coordinates_lat>47.433037</arrival_coordinates_lat><arrival_country_code>HU</arrival_country_code><arrival_country_name>Hungary</arrival_country_name><arrival_city_code>BUD</arrival_city_code><arrival_city_name>Budapest</arrival_city_name><planes>320</planes><plane_name>Airbus Industrie A320</plane_name></routes><routes><airline_iata>AB</airline_iata><departure_airport_iata>TXL</departure_airport_iata><departure_name_airport>Berlin-tegel / Otto Lilienthal</departure_name_airport><departure_coordinates_lon>13.291722</departure_coordinates_lon><departure_coordinates_lat>52.553944</departure_coordinates_lat><departure_country_code>DE</departure_country_code><departure_country_name>Germany</departure_country_name><departure_city_code>BER</departure_city_code><departure_city_name>Berlin</departure_city_name><arrival_airport_iata>BUD</arrival_airport_iata><arrival_name_airport>Liszt Ferenc International</arrival_name_airport><arrival_coordinates_lon>19.261621</arrival_coordinates_lon><arrival_coordinates_lat>47.433037</arrival_coordinates_lat><arrival_country_code>HU</arrival_country_code><arrival_country_name>Hungary</arrival_country_name><arrival_city_code>BUD</arrival_city_code><arrival_city_name>Budapest</arrival_city_name><planes>73G</planes><plane_name>Boeing 737-700</plane_name></routes><routes><airline_iata>AF</airline_iata><departure_airport_iata>CDG</departure_airport_iata><departure_name_airport>Charles De Gaulle</departure_name_airport><departure_coordinates_lon>2.567023</departure_coordinates_lon><departure_coordinates_lat>49.003197</departure_coordinates_lat><departure_country_code>FR</departure_country_code><departure_country_name>France</departure_country_name><departure_city_code>PAR</departure_city_code><departure_city_name>Paris</departure_city_name><arrival_airport_iata>BUD</arrival_airport_iata><arrival_name_airport>Liszt Ferenc International</arrival_name_airport><arrival_coordinates_lon>19.261621</arrival_coordinates_lon><arrival_coordinates_lat>47.433037</arrival_coordinates_lat><arrival_country_code>HU</arrival_country_code><arrival_country_name>Hungary</arrival_country_name><arrival_city_code>BUD</arrival_city_code><arrival_city_name>Budapest</arrival_city_name><planes>320</planes><plane_name>Airbus Industrie A320</plane_name></routes><routes><airline_iata>AF</airline_iata><departure_airport_iata>LYS</departure_airport_iata><departure_name_airport>St-Exupéry</departure_name_airport><departure_coordinates_lon>5.080334</departure_coordinates_lon><departure_coordinates_lat>45.721424</departure_coordinates_lat><departure_country_code>FR</departure_country_code><departure_country_name>France</departure_country_name><departure_city_code>LYS</departure_city_code><departure_city_name>Lyon</departure_city_name><arrival_airport_iata>BUD</arrival_airport_iata><arrival_name_airport>Liszt Ferenc International</arrival_name_airport><arrival_coordinates_lon>19.261621</arrival_coordinates_lon><arrival_coordinates_lat>47.433037</arrival_coordinates_lat><arrival_country_code>HU</arrival_country_code><arrival_country_name>Hungary</arrival_country_name><arrival_city_code>BUD</arrival_city_code><arrival_city_name>Budapest</arrival_city_name><planes>CRK</planes><plane_name></plane_name></routes><routes><airline_iata>AY</airline_iata><departure_airport_iata>HEL</departure_airport_iata><departure_name_airport>Helsinki-vantaa</departure_name_airport><departure_coordinates_lon>24.96645</departure_coordinates_lon><departure_coordinates_lat>60.31795</departure_coordinates_lat><departure_country_code>FI</departure_country_code><departure_country_name>Finland</departure_country_name><departure_city_code>HEL</departure_city_code><departure_city_name>Helsinki</departure_city_name><arrival_airport_iata>BUD</arrival_airport_iata><arrival_name_airport>Liszt Ferenc International</arrival_name_airport><arrival_coordinates_lon>19.261621</arrival_coordinates_lon><arrival_coordinates_lat>47.433037</arrival_coordinates_lat><arrival_country_code>HU</arrival_country_code><arrival_country_name>Hungary</arrival_country_name><arrival_city_code>BUD</arrival_city_code><arrival_city_name>Budapest</arrival_city_name><planes>320</planes><plane_name>Airbus Industrie A320</plane_name></routes><routes><airline_iata>AZ</airline_iata><departure_airport_iata>FCO</departure_airport_iata><departure_name_airport>Leonardo Da Vinci (Fiumicino)</departure_name_airport><departure_coordinates_lon>12.250346</departure_coordinates_lon><departure_coordinates_lat>41.794594</departure_coordinates_lat><departure_country_code>IT</departure_country_code><departure_country_name>Italy</departure_country_name><departure_city_code>ROM</departure_city_code><departure_city_name>Rome</departure_city_name><arrival_airport_iata>BUD</arrival_airport_iata><arrival_name_airport>Liszt Ferenc International</arrival_name_airport><arrival_coordinates_lon>19.261621</arrival_coordinates_lon><arrival_coordinates_lat>47.433037</arrival_coordinates_lat><arrival_country_code>HU</arrival_country_code><arrival_country_name>Hungary</arrival_country_name><arrival_city_code>BUD</arrival_city_code><arrival_city_name>Budapest</arrival_city_name><planes>32S</planes><plane_name>Airbus Industrie A318/319/320/321</plane_name></routes><routes><airline_iata>BA</airline_iata><departure_airport_iata>LHR</departure_airport_iata><departure_name_airport>Heathrow</departure_name_airport><departure_coordinates_lon>-0.453566</departure_coordinates_lon><departure_coordinates_lat>51.469604</departure_coordinates_lat><departure_country_code>GB</departure_country_code><departure_country_name>United Kingdom</departure_country_name><departure_city_code>LON</departure_city_code><departure_city_name>London</departure_city_name><arrival_airport_iata>BUD</arrival_airport_iata><arrival_name_airport>Liszt Ferenc International</arrival_name_airport><arrival_coordinates_lon>19.261621</arrival_coordinates_lon><arrival_coordinates_lat>47.433037</arrival_coordinates_lat><arrival_country_code>HU</arrival_country_code><arrival_country_name>Hungary</arrival_country_name><arrival_city_code>BUD</arrival_city_code><arrival_city_name>Budapest</arrival_city_name><planes>320</planes><plane_name>Airbus Industrie A320</plane_name></routes><routes><airline_iata>BT</airline_iata><departure_airport_iata>RIX</departure_airport_iata><departure_name_airport>Riga International</departure_name_airport><departure_coordinates_lon>23.979807</departure_coordinates_lon><departure_coordinates_lat>56.92208</departure_coordinates_lat><departure_country_code>LV</departure_country_code><departure_country_name>Latvia</departure_country_name><departure_city_code>RIX</departure_city_code><departure_city_name>Riga</departure_city_name><arrival_airport_iata>BUD</arrival_airport_iata><arrival_name_airport>Liszt Ferenc International</arrival_name_airport><arrival_coordinates_lon>19.261621</arrival_coordinates_lon><arrival_coordinates_lat>47.433037</arrival_coordinates_lat><arrival_country_code>HU</arrival_country_code><arrival_country_name>Hungary</arrival_country_name><arrival_city_code>BUD</arrival_city_code><arrival_city_name>Budapest</arrival_city_name><planes>DH4</planes><plane_name>De Havilland Canada DHC-8-400 Dash 8/8Q</plane_name></routes><routes><airline_iata>DY</airline_iata><departure_airport_iata>ARN</departure_airport_iata><departure_name_airport>Arlanda</departure_name_airport><departure_coordinates_lon>17.930365</departure_coordinates_lon><departure_coordinates_lat>59.64982</departure_coordinates_lat><departure_country_code>SE</departure_country_code><departure_country_name>Sweden</departure_country_name><departure_city_code>STO</departure_city_code><departure_city_name>Stockholm</departure_city_name><arrival_airport_iata>BUD</arrival_airport_iata><arrival_name_airport>Liszt Ferenc International</arrival_name_airport><arrival_coordinates_lon>19.261621</arrival_coordinates_lon><arrival_coordinates_lat>47.433037</arrival_coordinates_lat><arrival_country_code>HU</arrival_country_code><arrival_country_name>Hungary</arrival_country_name><arrival_city_code>BUD</arrival_city_code><arrival_city_name>Budapest</arrival_city_name><planes>73H</planes><plane_name>Boeing 737-800 With Winglets</plane_name></routes><routes><airline_iata>DY</airline_iata><departure_airport_iata>CPH</departure_airport_iata><departure_name_airport>Kastrup</departure_name_airport><departure_coordinates_lon>12.647601</departure_coordinates_lon><departure_coordinates_lat>55.62905</departure_coordinates_lat><departure_country_code>DK</departure_country_code><departure_country_name>Denmark</departure_country_name><departure_city_code>CPH</departure_city_code><departure_city_name>Copenhagen</departure_city_name><arrival_airport_iata>BUD</arrival_airport_iata><arrival_name_airport>Liszt Ferenc International</arrival_name_airport><arrival_coordinates_lon>19.261621</arrival_coordinates_lon><arrival_coordinates_lat>47.433037</arrival_coordinates_lat><arrival_country_code>HU</arrival_country_code><arrival_country_name>Hungary</arrival_country_name><arrival_city_code>BUD</arrival_city_code><arrival_city_name>Budapest</arrival_city_name><planes>733</planes><plane_name>Boeing 737-300</plane_name></routes><routes><airline_iata>DY</airline_iata><departure_airport_iata>OSL</departure_airport_iata><departure_name_airport>Gardermoen</departure_name_airport><departure_coordinates_lon>11.100411</departure_coordinates_lon><departure_coordinates_lat>60.19419</departure_coordinates_lat><departure_country_code>NO</departure_country_code><departure_country_name>Norway</departure_country_name><departure_city_code>OSL</departure_city_code><departure_city_name>Oslo</departure_city_name><arrival_airport_iata>BUD</arrival_airport_iata><arrival_name_airport>Liszt Ferenc International</arrival_name_airport><arrival_coordinates_lon>19.261621</arrival_coordinates_lon><arrival_coordinates_lat>47.433037</arrival_coordinates_lat><arrival_country_code>HU</arrival_country_code><arrival_country_name>Hungary</arrival_country_name><arrival_city_code>BUD</arrival_city_code><arrival_city_name>Budapest</arrival_city_name><planes>733</planes><plane_name>Boeing 737-300</plane_name></routes><routes><airline_iata>EI</airline_iata><departure_airport_iata>DUB</departure_airport_iata><departure_name_airport>Dublin International</departure_name_airport><departure_coordinates_lon>-6.24357</departure_coordinates_lon><departure_coordinates_lat>53.42728</departure_coordinates_lat><departure_country_code>IE</departure_country_code><departure_country_name>Ireland</departure_country_name><departure_city_code>DUB</departure_city_code><departure_city_name>Dublin</departure_city_name><arrival_airport_iata>BUD</arrival_airport_iata><arrival_name_airport>Liszt Ferenc International</arrival_name_airport><arrival_coordinates_lon>19.261621</arrival_coordinates_lon><arrival_coordinates_lat>47.433037</arrival_coordinates_lat><arrival_country_code>HU</arrival_country_code><arrival_country_name>Hungary</arrival_country_name><arrival_city_code>BUD</arrival_city_code><arrival_city_name>Budapest</arrival_city_name><planes>320</planes><plane_name>Airbus Industrie A320</plane_name></routes><routes><airline_iata>EY</airline_iata><departure_airport_iata>PRG</departure_airport_iata><departure_name_airport>Prague Vaclav Havel Airport</departure_name_airport><departure_coordinates_lon>14.266638</departure_coordinates_lon><departure_coordinates_lat>50.10619</departure_coordinates_lat><departure_country_code>CZ</departure_country_code><departure_country_name>Czech Republic</departure_country_name><departure_city_code>PRG</departure_city_code><departure_city_name>Prague</departure_city_name><arrival_airport_iata>BUD</arrival_airport_iata><arrival_name_airport>Liszt Ferenc International</arrival_name_airport><arrival_coordinates_lon>19.261621</arrival_coordinates_lon><arrival_coordinates_lat>47.433037</arrival_coordinates_lat><arrival_country_code>HU</arrival_country_code><arrival_country_name>Hungary</arrival_country_name><arrival_city_code>BUD</arrival_city_code><arrival_city_name>Budapest</arrival_city_name><planes>735</planes><plane_name>Boeing 737-500</plane_name></routes><routes><airline_iata>FR</airline_iata><departure_airport_iata>AGP</departure_airport_iata><departure_name_airport>Pablo Ruiz Picasso</departure_name_airport><departure_coordinates_lon>-4.489616</departure_coordinates_lon><departure_coordinates_lat>36.675182</departure_coordinates_lat><departure_country_code>ES</departure_country_code><departure_country_name>Spain</departure_country_name><departure_city_code>AGP</departure_city_code><departure_city_name>Malaga</departure_city_name><arrival_airport_iata>BUD</arrival_airport_iata><arrival_name_airport>Liszt Ferenc International</arrival_name_airport><arrival_coordinates_lon>19.261621</arrival_coordinates_lon><arrival_coordinates_lat>47.433037</arrival_coordinates_lat><arrival_country_code>HU</arrival_country_code><arrival_country_name>Hungary</arrival_country_name><arrival_city_code>BUD</arrival_city_code><arrival_city_name>Budapest</arrival_city_name><planes>738</planes><plane_name>Boeing 737-800</plane_name></routes><routes><airline_iata>FR</airline_iata><departure_airport_iata>ALC</departure_airport_iata><departure_name_airport>Alicante El Altet</departure_name_airport><departure_coordinates_lon>-0.557381</departure_coordinates_lon><departure_coordinates_lat>38.287098</departure_coordinates_lat><departure_country_code>ES</departure_country_code><departure_country_name>Spain</departure_country_name><departure_city_code>ALC</departure_city_code><departure_city_name>Alicante</departure_city_name><arrival_airport_iata>BUD</arrival_airport_iata><arrival_name_airport>Liszt Ferenc International</arrival_name_airport><arrival_coordinates_lon>19.261621</arrival_coordinates_lon><arrival_coordinates_lat>47.433037</arrival_coordinates_lat><arrival_country_code>HU</arrival_country_code><arrival_country_name>Hungary</arrival_country_name><arrival_city_code>BUD</arrival_city_code><arrival_city_name>Budapest</arrival_city_name><planes>738</planes><plane_name>Boeing 737-800</plane_name></routes><routes><airline_iata>FR</airline_iata><departure_airport_iata>BCN</departure_airport_iata><departure_name_airport>El Prat De Llobregat</departure_name_airport><departure_coordinates_lon>2.07593</departure_coordinates_lon><departure_coordinates_lat>41.30303</departure_coordinates_lat><departure_country_code>ES</departure_country_code><departure_country_name>Spain</departure_country_name><departure_city_code>BCN</departure_city_code><departure_city_name>Barcelona</departure_city_name><arrival_airport_iata>BUD</arrival_airport_iata><arrival_name_airport>Liszt Ferenc International</arrival_name_airport><arrival_coordinates_lon>19.261621</arrival_coordinates_lon><arrival_coordinates_lat>47.433037</arrival_coordinates_lat><arrival_country_code>HU</arrival_country_code><arrival_country_name>Hungary</arrival_country_name><arrival_city_code>BUD</arrival_city_code><arrival_city_name>Budapest</arrival_city_name><planes>738</planes><plane_name>Boeing 737-800</plane_name></routes><routes><airline_iata>FR</airline_iata><departure_airport_iata>BGY</departure_airport_iata><departure_name_airport>Bergamo - Orio al Serio</departure_name_airport><departure_coordinates_lon>9.698713</departure_coordinates_lon><departure_coordinates_lat>45.665314</departure_coordinates_lat><departure_country_code>IT</departure_country_code><departure_country_name>Italy</departure_country_name><departure_city_code>MIL</departure_city_code><departure_city_name>Milan</departure_city_name><arrival_airport_iata>BUD</arrival_airport_iata><arrival_name_airport>Liszt Ferenc International</arrival_name_airport><arrival_coordinates_lon>19.261621</arrival_coordinates_lon><arrival_coordinates_lat>47.433037</arrival_coordinates_lat><arrival_country_code>HU</arrival_country_code><arrival_country_name>Hungary</arrival_country_name><arrival_city_code>BUD</arrival_city_code><arrival_city_name>Budapest</arrival_city_name><planes>738</planes><plane_name>Boeing 737-800</plane_name></routes><routes><airline_iata>FR</airline_iata><departure_airport_iata>BHX</departure_airport_iata><departure_name_airport>Birmingham International Airport</departure_name_airport><departure_coordinates_lon>-1.733256</departure_coordinates_lon><departure_coordinates_lat>52.45252</departure_coordinates_lat><departure_country_code>GB</departure_country_code><departure_country_name>United Kingdom</departure_country_name><departure_city_code>BHX</departure_city_code><departure_city_name>Birmingham</departure_city_name><arrival_airport_iata>BUD</arrival_airport_iata><arrival_name_airport>Liszt Ferenc International</arrival_name_airport><arrival_coordinates_lon>19.261621</arrival_coordinates_lon><arrival_coordinates_lat>47.433037</arrival_coordinates_lat><arrival_country_code>HU</arrival_country_code><arrival_country_name>Hungary</arrival_country_name><arrival_city_code>BUD</arrival_city_code><arrival_city_name>Budapest</arrival_city_name><planes>738</planes><plane_name>Boeing 737-800</plane_name></routes><routes><airline_iata>FR</airline_iata><departure_airport_iata>BLL</departure_airport_iata><departure_name_airport>Billund</departure_name_airport><departure_coordinates_lon>9.147874</departure_coordinates_lon><departure_coordinates_lat>55.747383</departure_coordinates_lat><departure_country_code>DK</departure_country_code><departure_country_name>Denmark</departure_country_name><departure_city_code>BLL</departure_city_code><departure_city_name>Billund</departure_city_name><arrival_airport_iata>BUD</arrival_airport_iata><arrival_name_airport>Liszt Ferenc International</arrival_name_airport><arrival_coordinates_lon>19.261621</arrival_coordinates_lon><arrival_coordinates_lat>47.433037</arrival_coordinates_lat><arrival_country_code>HU</arrival_country_code><arrival_country_name>Hungary</arrival_country_name><arrival_city_code>BUD</arrival_city_code><arrival_city_name>Budapest</arrival_city_name><planes>738</planes><plane_name>Boeing 737-800</plane_name></routes><routes><airline_iata>FR</airline_iata><departure_airport_iata>BLQ</departure_airport_iata><departure_name_airport>Guglielmo Marconi</departure_name_airport><departure_coordinates_lon>11.293289</departure_coordinates_lon><departure_coordinates_lat>44.529266</departure_coordinates_lat><departure_country_code>IT</departure_country_code><departure_country_name>Italy</departure_country_name><departure_city_code>BLQ</departure_city_code><departure_city_name>Bologna</departure_city_name><arrival_airport_iata>BUD</arrival_airport_iata><arrival_name_airport>Liszt Ferenc International</arrival_name_airport><arrival_coordinates_lon>19.261621</arrival_coordinates_lon><arrival_coordinates_lat>47.433037</arrival_coordinates_lat><arrival_country_code>HU</arrival_country_code><arrival_country_name>Hungary</arrival_country_name><arrival_city_code>BUD</arrival_city_code><arrival_city_name>Budapest</arrival_city_name><planes>738</planes><plane_name>Boeing 737-800</plane_name></routes><routes><airline_iata>FR</airline_iata><departure_airport_iata>BRS</departure_airport_iata><departure_name_airport>Bristol</departure_name_airport><departure_coordinates_lon>-2.710659</departure_coordinates_lon><departure_coordinates_lat>51.386757</departure_coordinates_lat><departure_country_code>GB</departure_country_code><departure_country_name>United Kingdom</departure_country_name><departure_city_code>BRS</departure_city_code><departure_city_name>Bristol</departure_city_name><arrival_airport_iata>BUD</arrival_airport_iata><arrival_name_airport>Liszt Ferenc International</arrival_name_airport><arrival_coordinates_lon>19.261621</arrival_coordinates_lon><arrival_coordinates_lat>47.433037</arrival_coordinates_lat><arrival_country_code>HU</arrival_country_code><arrival_country_name>Hungary</arrival_country_name><arrival_city_code>BUD</arrival_city_code><arrival_city_name>Budapest</arrival_city_name><planes>738</planes><plane_name>Boeing 737-800</plane_name></routes><routes><airline_iata>FR</airline_iata><departure_airport_iata>BVA</departure_airport_iata><departure_name_airport>Beauvais-Tille</departure_name_airport><departure_coordinates_lon>2.110815</departure_coordinates_lon><departure_coordinates_lat>49.459488</departure_coordinates_lat><departure_country_code>FR</departure_country_code><departure_country_name>France</departure_country_name><departure_city_code>PAR</departure_city_code><departure_city_name>Paris</departure_city_name><arrival_airport_iata>BUD</arrival_airport_iata><arrival_name_airport>Liszt Ferenc International</arrival_name_airport><arrival_coordinates_lon>19.261621</arrival_coordinates_lon><arrival_coordinates_lat>47.433037</arrival_coordinates_lat><arrival_country_code>HU</arrival_country_code><arrival_country_name>Hungary</arrival_country_name><arrival_city_code>BUD</arrival_city_code><arrival_city_name>Budapest</arrival_city_name><planes>738</planes><plane_name>Boeing 737-800</plane_name></routes><routes><airline_iata>FR</airline_iata><departure_airport_iata>CIA</departure_airport_iata><departure_name_airport>Ciampino</departure_name_airport><departure_coordinates_lon>12.590987</departure_coordinates_lon><departure_coordinates_lat>41.799065</departure_coordinates_lat><departure_country_code>IT</departure_country_code><departure_country_name>Italy</departure_country_name><departure_city_code>ROM</departure_city_code><departure_city_name>Rome</departure_city_name><arrival_airport_iata>BUD</arrival_airport_iata><arrival_name_airport>Liszt Ferenc International</arrival_name_airport><arrival_coordinates_lon>19.261621</arrival_coordinates_lon><arrival_coordinates_lat>47.433037</arrival_coordinates_lat><arrival_country_code>HU</arrival_country_code><arrival_country_name>Hungary</arrival_country_name><arrival_city_code>BUD</arrival_city_code><arrival_city_name>Budapest</arrival_city_name><planes>738</planes><plane_name>Boeing 737-800</plane_name></routes><routes><airline_iata>FR</airline_iata><departure_airport_iata>CRL</departure_airport_iata><departure_name_airport>Charleroi Brussels South</departure_name_airport><departure_coordinates_lon>4.451703</departure_coordinates_lon><departure_coordinates_lat>50.456696</departure_coordinates_lat><departure_country_code>BE</departure_country_code><departure_country_name>Belgium</departure_country_name><departure_city_code>BRU</departure_city_code><departure_city_name>Brussels</departure_city_name><arrival_airport_iata>BUD</arrival_airport_iata><arrival_name_airport>Liszt Ferenc International</arrival_name_airport><arrival_coordinates_lon>19.261621</arrival_coordinates_lon><arrival_coordinates_lat>47.433037</arrival_coordinates_lat><arrival_country_code>HU</arrival_country_code><arrival_country_name>Hungary</arrival_country_name><arrival_city_code>BUD</arrival_city_code><arrival_city_name>Budapest</arrival_city_name><planes>738</planes><plane_name>Boeing 737-800</plane_name></routes><routes><airline_iata>FR</airline_iata><departure_airport_iata>DUB</departure_airport_iata><departure_name_airport>Dublin International</departure_name_airport><departure_coordinates_lon>-6.24357</departure_coordinates_lon><departure_coordinates_lat>53.42728</departure_coordinates_lat><departure_country_code>IE</departure_country_code><departure_country_name>Ireland</departure_country_name><departure_city_code>DUB</departure_city_code><departure_city_name>Dublin</departure_city_name><arrival_airport_iata>BUD</arrival_airport_iata><arrival_name_airport>Liszt Ferenc International</arrival_name_airport><arrival_coordinates_lon>19.261621</arrival_coordinates_lon><arrival_coordinates_lat>47.433037</arrival_coordinates_lat><arrival_country_code>HU</arrival_country_code><arrival_country_name>Hungary</arrival_country_name><arrival_city_code>BUD</arrival_city_code><arrival_city_name>Budapest</arrival_city_name><planes>738</planes><plane_name>Boeing 737-800</plane_name></routes><routes><airline_iata>FR</airline_iata><departure_airport_iata>EIN</departure_airport_iata><departure_name_airport>Eindhoven</departure_name_airport><departure_coordinates_lon>5.391795</departure_coordinates_lon><departure_coordinates_lat>51.457954</departure_coordinates_lat><departure_country_code>NL</departure_country_code><departure_country_name>Netherlands</departure_country_name><departure_city_code>EIN</departure_city_code><departure_city_name>Eindhoven</departure_city_name><arrival_airport_iata>BUD</arrival_airport_iata><arrival_name_airport>Liszt Ferenc International</arrival_name_airport><arrival_coordinates_lon>19.261621</arrival_coordinates_lon><arrival_coordinates_lat>47.433037</arrival_coordinates_lat><arrival_country_code>HU</arrival_country_code><arrival_country_name>Hungary</arrival_country_name><arrival_city_code>BUD</arrival_city_code><arrival_city_name>Budapest</arrival_city_name><planes>738</planes><plane_name>Boeing 737-800</plane_name></routes><routes><airline_iata>FR</airline_iata><departure_airport_iata>FKB</departure_airport_iata><departure_name_airport>Karlsruhe/Baden-Baden</departure_name_airport><departure_coordinates_lon>8.089752</departure_coordinates_lon><departure_coordinates_lat>48.781033</departure_coordinates_lat><departure_country_code>DE</departure_country_code><departure_country_name>Germany</departure_country_name><departure_city_code>FKB</departure_city_code><departure_city_name>Karlsruhe</departure_city_name><arrival_airport_iata>BUD</arrival_airport_iata><arrival_name_airport>Liszt Ferenc International</arrival_name_airport><arrival_coordinates_lon>19.261621</arrival_coordinates_lon><arrival_coordinates_lat>47.433037</arrival_coordinates_lat><arrival_country_code>HU</arrival_country_code><arrival_country_name>Hungary</arrival_country_name><arrival_city_code>BUD</arrival_city_code><arrival_city_name>Budapest</arrival_city_name><planes>738</planes><plane_name>Boeing 737-800</plane_name></routes><routes><airline_iata>FR</airline_iata><departure_airport_iata>FMM</departure_airport_iata><departure_name_airport>Memmingen-Allgäu</departure_name_airport><departure_coordinates_lon>10.239444</departure_coordinates_lon><departure_coordinates_lat>47.98861</departure_coordinates_lat><departure_country_code>DE</departure_country_code><departure_country_name>Germany</departure_country_name><departure_city_code>FMM</departure_city_code><departure_city_name>Memmingen</departure_city_name><arrival_airport_iata>BUD</arrival_airport_iata><arrival_name_airport>Liszt Ferenc International</arrival_name_airport><arrival_coordinates_lon>19.261621</arrival_coordinates_lon><arrival_coordinates_lat>47.433037</arrival_coordinates_lat><arrival_country_code>HU</arrival_country_code><arrival_country_name>Hungary</arrival_country_name><arrival_city_code>BUD</arrival_city_code><arrival_city_name>Budapest</arrival_city_name><planes>738</planes><plane_name>Boeing 737-800</plane_name></routes><routes><airline_iata>FR</airline_iata><departure_airport_iata>GSE</departure_airport_iata><departure_name_airport>Gothenburg City Airport</departure_name_airport><departure_coordinates_lon>11.864513</departure_coordinates_lon><departure_coordinates_lat>57.77775</departure_coordinates_lat><departure_country_code>SE</departure_country_code><departure_country_name>Sweden</departure_country_name><departure_city_code>GOT</departure_city_code><departure_city_name>Gothenburg</departure_city_name><arrival_airport_iata>BUD</arrival_airport_iata><arrival_name_airport>Liszt Ferenc International</arrival_name_airport><arrival_coordinates_lon>19.261621</arrival_coordinates_lon><arrival_coordinates_lat>47.433037</arrival_coordinates_lat><arrival_country_code>HU</arrival_country_code><arrival_country_name>Hungary</arrival_country_name><arrival_city_code>BUD</arrival_city_code><arrival_city_name>Budapest</arrival_city_name><planes>738</planes><plane_name>Boeing 737-800</plane_name></routes><routes><airline_iata>FR</airline_iata><departure_airport_iata>KRK</departure_airport_iata><departure_name_airport>John Paul II Balice International</departure_name_airport><departure_coordinates_lon>19.793743</departure_coordinates_lon><departure_coordinates_lat>50.075493</departure_coordinates_lat><departure_country_code>PL</departure_country_code><departure_country_name>Poland</departure_country_name><departure_city_code>KRK</departure_city_code><departure_city_name>Krakow</departure_city_name><arrival_airport_iata>BUD</arrival_airport_iata><arrival_name_airport>Liszt Ferenc International</arrival_name_airport><arrival_coordinates_lon>19.261621</arrival_coordinates_lon><arrival_coordinates_lat>47.433037</arrival_coordinates_lat><arrival_country_code>HU</arrival_country_code><arrival_country_name>Hungary</arrival_country_name><arrival_city_code>BUD</arrival_city_code><arrival_city_name>Budapest</arrival_city_name><planes>738</planes><plane_name>Boeing 737-800</plane_name></routes><routes><airline_iata>FR</airline_iata><departure_airport_iata>LBC</departure_airport_iata><departure_name_airport>Lübeck Blankensee</departure_name_airport><departure_coordinates_lon>10.701162</departure_coordinates_lon><departure_coordinates_lat>53.80527</departure_coordinates_lat><departure_country_code>DE</departure_country_code><departure_country_name>Germany</departure_country_name><departure_city_code>HAM</departure_city_code><departure_city_name>Hamburg</departure_city_name><arrival_airport_iata>BUD</arrival_airport_iata><arrival_name_airport>Liszt Ferenc International</arrival_name_airport><arrival_coordinates_lon>19.261621</arrival_coordinates_lon><arrival_coordinates_lat>47.433037</arrival_coordinates_lat><arrival_country_code>HU</arrival_country_code><arrival_country_name>Hungary</arrival_country_name><arrival_city_code>BUD</arrival_city_code><arrival_city_name>Budapest</arrival_city_name><planes>738</planes><plane_name>Boeing 737-800</plane_name></routes><routes><airline_iata>FR</airline_iata><departure_airport_iata>MAD</departure_airport_iata><departure_name_airport>Barajas</departure_name_airport><departure_coordinates_lon>-3.570209</departure_coordinates_lon><departure_coordinates_lat>40.46515</departure_coordinates_lat><departure_country_code>ES</departure_country_code><departure_country_name>Spain</departure_country_name><departure_city_code>MAD</departure_city_code><departure_city_name>Madrid</departure_city_name><arrival_airport_iata>BUD</arrival_airport_iata><arrival_name_airport>Liszt Ferenc International</arrival_name_airport><arrival_coordinates_lon>19.261621</arrival_coordinates_lon><arrival_coordinates_lat>47.433037</arrival_coordinates_lat><arrival_country_code>HU</arrival_country_code><arrival_country_name>Hungary</arrival_country_name><arrival_city_code>BUD</arrival_city_code><arrival_city_name>Budapest</arrival_city_name><planes>738</planes><plane_name>Boeing 737-800</plane_name></routes><routes><airline_iata>FR</airline_iata><departure_airport_iata>MAN</departure_airport_iata><departure_name_airport>Ringway International Airport</departure_name_airport><departure_coordinates_lon>-2.273354</departure_coordinates_lon><departure_coordinates_lat>53.362907</departure_coordinates_lat><departure_country_code>GB</departure_country_code><departure_country_name>United Kingdom</departure_country_name><departure_city_code>MAN</departure_city_code><departure_city_name>Manchester</departure_city_name><arrival_airport_iata>BUD</arrival_airport_iata><arrival_name_airport>Liszt Ferenc International</arrival_name_airport><arrival_coordinates_lon>19.261621</arrival_coordinates_lon><arrival_coordinates_lat>47.433037</arrival_coordinates_lat><arrival_country_code>HU</arrival_country_code><arrival_country_name>Hungary</arrival_country_name><arrival_city_code>BUD</arrival_city_code><arrival_city_name>Budapest</arrival_city_name><planes>738</planes><plane_name>Boeing 737-800</plane_name></routes><routes><airline_iata>FR</airline_iata><departure_airport_iata>NRN</departure_airport_iata><departure_name_airport>Weeze</departure_name_airport><departure_coordinates_lon>6.150168</departure_coordinates_lon><departure_coordinates_lat>51.599285</departure_coordinates_lat><departure_country_code>DE</departure_country_code><departure_country_name>Germany</departure_country_name><departure_city_code>DUS</departure_city_code><departure_city_name>Dusseldorf</departure_city_name><arrival_airport_iata>BUD</arrival_airport_iata><arrival_name_airport>Liszt Ferenc International</arrival_name_airport><arrival_coordinates_lon>19.261621</arrival_coordinates_lon><arrival_coordinates_lat>47.433037</arrival_coordinates_lat><arrival_country_code>HU</arrival_country_code><arrival_country_name>Hungary</arrival_country_name><arrival_city_code>BUD</arrival_city_code><arrival_city_name>Budapest</arrival_city_name><planes>738</planes><plane_name>Boeing 737-800</plane_name></routes><routes><airline_iata>FR</airline_iata><departure_airport_iata>NYO</departure_airport_iata><departure_name_airport>Skavsta</departure_name_airport><departure_coordinates_lon>16.922867</departure_coordinates_lon><departure_coordinates_lat>58.78425</departure_coordinates_lat><departure_country_code>SE</departure_country_code><departure_country_name>Sweden</departure_country_name><departure_city_code>STO</departure_city_code><departure_city_name>Stockholm</departure_city_name><arrival_airport_iata>BUD</arrival_airport_iata><arrival_name_airport>Liszt Ferenc International</arrival_name_airport><arrival_coordinates_lon>19.261621</arrival_coordinates_lon><arrival_coordinates_lat>47.433037</arrival_coordinates_lat><arrival_country_code>HU</arrival_country_code><arrival_country_name>Hungary</arrival_country_name><arrival_city_code>BUD</arrival_city_code><arrival_city_name>Budapest</arrival_city_name><planes>738</planes><plane_name>Boeing 737-800</plane_name></routes><routes><airline_iata>FR</airline_iata><departure_airport_iata>PFO</departure_airport_iata><departure_name_airport>International</departure_name_airport><departure_coordinates_lon>32.489105</departure_coordinates_lon><departure_coordinates_lat>34.71155</departure_coordinates_lat><departure_country_code>CY</departure_country_code><departure_country_name>Cyprus</departure_country_name><departure_city_code>PFO</departure_city_code><departure_city_name>Paphos</departure_city_name><arrival_airport_iata>BUD</arrival_airport_iata><arrival_name_airport>Liszt Ferenc International</arrival_name_airport><arrival_coordinates_lon>19.261621</arrival_coordinates_lon><arrival_coordinates_lat>47.433037</arrival_coordinates_lat><arrival_country_code>HU</arrival_country_code><arrival_country_name>Hungary</arrival_country_name><arrival_city_code>BUD</arrival_city_code><arrival_city_name>Budapest</arrival_city_name><planes>738</planes><plane_name>Boeing 737-800</plane_name></routes><routes><airline_iata>FR</airline_iata><departure_airport_iata>PSA</departure_airport_iata><departure_name_airport>Galileo Galilei</departure_name_airport><departure_coordinates_lon>10.399915</departure_coordinates_lon><departure_coordinates_lat>43.69871</departure_coordinates_lat><departure_country_code>IT</departure_country_code><departure_country_name>Italy</departure_country_name><departure_city_code>PSA</departure_city_code><departure_city_name>Pisa</departure_city_name><arrival_airport_iata>BUD</arrival_airport_iata><arrival_name_airport>Liszt Ferenc International</arrival_name_airport><arrival_coordinates_lon>19.261621</arrival_coordinates_lon><arrival_coordinates_lat>47.433037</arrival_coordinates_lat><arrival_country_code>HU</arrival_country_code><arrival_country_name>Hungary</arrival_country_name><arrival_city_code>BUD</arrival_city_code><arrival_city_name>Budapest</arrival_city_name><planes>738</planes><plane_name>Boeing 737-800</plane_name></routes><routes><airline_iata>FR</airline_iata><departure_airport_iata>RYG</departure_airport_iata><departure_name_airport>Moss Airport</departure_name_airport><departure_coordinates_lon>10.800161</departure_coordinates_lon><departure_coordinates_lat>59.37903</departure_coordinates_lat><departure_country_code>NO</departure_country_code><departure_country_name>Norway</departure_country_name><departure_city_code>OSL</departure_city_code><departure_city_name>Oslo</departure_city_name><arrival_airport_iata>BUD</arrival_airport_iata><arrival_name_airport>Liszt Ferenc International</arrival_name_airport><arrival_coordinates_lon>19.261621</arrival_coordinates_lon><arrival_coordinates_lat>47.433037</arrival_coordinates_lat><arrival_country_code>HU</arrival_country_code><arrival_country_name>Hungary</arrival_country_name><arrival_city_code>BUD</arrival_city_code><arrival_city_name>Budapest</arrival_city_name><planes>738</planes><plane_name>Boeing 737-800</plane_name></routes><routes><airline_iata>FR</airline_iata><departure_airport_iata>SKG</departure_airport_iata><departure_name_airport>Macedonia International</departure_name_airport><departure_coordinates_lon>22.972221</departure_coordinates_lon><departure_coordinates_lat>40.520832</departure_coordinates_lat><departure_country_code>GR</departure_country_code><departure_country_name>Greece</departure_country_name><departure_city_code>SKG</departure_city_code><departure_city_name>Thessaloniki</departure_city_name><arrival_airport_iata>BUD</arrival_airport_iata><arrival_name_airport>Liszt Ferenc International</arrival_name_airport><arrival_coordinates_lon>19.261621</arrival_coordinates_lon><arrival_coordinates_lat>47.433037</arrival_coordinates_lat><arrival_country_code>HU</arrival_country_code><arrival_country_name>Hungary</arrival_country_name><arrival_city_code>BUD</arrival_city_code><arrival_city_name>Budapest</arrival_city_name><planes>738</planes><plane_name>Boeing 737-800</plane_name></routes><routes><airline_iata>FR</airline_iata><departure_airport_iata>STN</departure_airport_iata><departure_name_airport>Stansted</departure_name_airport><departure_coordinates_lon>0.262703</departure_coordinates_lon><departure_coordinates_lat>51.889267</departure_coordinates_lat><departure_country_code>GB</departure_country_code><departure_country_name>United Kingdom</departure_country_name><departure_city_code>LON</departure_city_code><departure_city_name>London</departure_city_name><arrival_airport_iata>BUD</arrival_airport_iata><arrival_name_airport>Liszt Ferenc International</arrival_name_airport><arrival_coordinates_lon>19.261621</arrival_coordinates_lon><arrival_coordinates_lat>47.433037</arrival_coordinates_lat><arrival_country_code>HU</arrival_country_code><arrival_country_name>Hungary</arrival_country_name><arrival_city_code>BUD</arrival_city_code><arrival_city_name>Budapest</arrival_city_name><planes>738</planes><plane_name>Boeing 737-800</plane_name></routes><routes><airline_iata>FR</airline_iata><departure_airport_iata>TMP</departure_airport_iata><departure_name_airport>Tampere-pirkkala</departure_name_airport><departure_coordinates_lon>23.617563</departure_coordinates_lon><departure_coordinates_lat>61.42045</departure_coordinates_lat><departure_country_code>FI</departure_country_code><departure_country_name>Finland</departure_country_name><departure_city_code>TMP</departure_city_code><departure_city_name>Tampere</departure_city_name><arrival_airport_iata>BUD</arrival_airport_iata><arrival_name_airport>Liszt Ferenc International</arrival_name_airport><arrival_coordinates_lon>19.261621</arrival_coordinates_lon><arrival_coordinates_lat>47.433037</arrival_coordinates_lat><arrival_country_code>HU</arrival_country_code><arrival_country_name>Hungary</arrival_country_name><arrival_city_code>BUD</arrival_city_code><arrival_city_name>Budapest</arrival_city_name><planes>738</planes><plane_name>Boeing 737-800</plane_name></routes><routes><airline_iata>FR</airline_iata><departure_airport_iata>TSF</departure_airport_iata><departure_name_airport>S. Angelo</departure_name_airport><departure_coordinates_lon>12.204444</departure_coordinates_lon><departure_coordinates_lat>45.655113</departure_coordinates_lat><departure_country_code>IT</departure_country_code><departure_country_name>Italy</departure_country_name><departure_city_code>VCE</departure_city_code><departure_city_name>Venice</departure_city_name><arrival_airport_iata>BUD</arrival_airport_iata><arrival_name_airport>Liszt Ferenc International</arrival_name_airport><arrival_coordinates_lon>19.261621</arrival_coordinates_lon><arrival_coordinates_lat>47.433037</arrival_coordinates_lat><arrival_country_code>HU</arrival_country_code><arrival_country_name>Hungary</arrival_country_name><arrival_city_code>BUD</arrival_city_code><arrival_city_name>Budapest</arrival_city_name><planes>738</planes><plane_name>Boeing 737-800</plane_name></routes><routes><airline_iata>FR</airline_iata><departure_airport_iata>WMI</departure_airport_iata><departure_name_airport>Modlin</departure_name_airport><departure_coordinates_lon>20.651667</departure_coordinates_lon><departure_coordinates_lat>52.45111</departure_coordinates_lat><departure_country_code>PL</departure_country_code><departure_country_name>Poland</departure_country_name><departure_city_code>WMI</departure_city_code><departure_city_name>Nowy Dwor Mazowiecki</departure_city_name><arrival_airport_iata>BUD</arrival_airport_iata><arrival_name_airport>Liszt Ferenc International</arrival_name_airport><arrival_coordinates_lon>19.261621</arrival_coordinates_lon><arrival_coordinates_lat>47.433037</arrival_coordinates_lat><arrival_country_code>HU</arrival_country_code><arrival_country_name>Hungary</arrival_country_name><arrival_city_code>BUD</arrival_city_code><arrival_city_name>Budapest</arrival_city_name><planes>738</planes><plane_name>Boeing 737-800</plane_name></routes><routes><airline_iata>HV</airline_iata><departure_airport_iata>AMS</departure_airport_iata><departure_name_airport>Schiphol</departure_name_airport><departure_coordinates_lon>4.763385</departure_coordinates_lon><departure_coordinates_lat>52.30907</departure_coordinates_lat><departure_country_code>NL</departure_country_code><departure_country_name>Netherlands</departure_country_name><departure_city_code>AMS</departure_city_code><departure_city_name>Amsterdam</departure_city_name><arrival_airport_iata>BUD</arrival_airport_iata><arrival_name_airport>Liszt Ferenc International</arrival_name_airport><arrival_coordinates_lon>19.261621</arrival_coordinates_lon><arrival_coordinates_lat>47.433037</arrival_coordinates_lat><arrival_country_code>HU</arrival_country_code><arrival_country_name>Hungary</arrival_country_name><arrival_city_code>BUD</arrival_city_code><arrival_city_name>Budapest</arrival_city_name><planes>737</planes><plane_name>Boeing 737</plane_name></routes><routes><airline_iata>KL</airline_iata><departure_airport_iata>AMS</departure_airport_iata><departure_name_airport>Schiphol</departure_name_airport><departure_coordinates_lon>4.763385</departure_coordinates_lon><departure_coordinates_lat>52.30907</departure_coordinates_lat><departure_country_code>NL</departure_country_code><departure_country_name>Netherlands</departure_country_name><departure_city_code>AMS</departure_city_code><departure_city_name>Amsterdam</departure_city_name><arrival_airport_iata>BUD</arrival_airport_iata><arrival_name_airport>Liszt Ferenc International</arrival_name_airport><arrival_coordinates_lon>19.261621</arrival_coordinates_lon><arrival_coordinates_lat>47.433037</arrival_coordinates_lat><arrival_country_code>HU</arrival_country_code><arrival_country_name>Hungary</arrival_country_name><arrival_city_code>BUD</arrival_city_code><arrival_city_name>Budapest</arrival_city_name><planes>737</planes><plane_name>Boeing 737</plane_name></routes><routes><airline_iata>KM</airline_iata><departure_airport_iata>MLA</departure_airport_iata><departure_name_airport>Malta International</departure_name_airport><departure_coordinates_lon>14.495401</departure_coordinates_lon><departure_coordinates_lat>35.849777</departure_coordinates_lat><departure_country_code>MT</departure_country_code><departure_country_name>Malta</departure_country_name><departure_city_code>MLA</departure_city_code><departure_city_name>Gudja</departure_city_name><arrival_airport_iata>BUD</arrival_airport_iata><arrival_name_airport>Liszt Ferenc International</arrival_name_airport><arrival_coordinates_lon>19.261621</arrival_coordinates_lon><arrival_coordinates_lat>47.433037</arrival_coordinates_lat><arrival_country_code>HU</arrival_country_code><arrival_country_name>Hungary</arrival_country_name><arrival_city_code>BUD</arrival_city_code><arrival_city_name>Budapest</arrival_city_name><planes>320</planes><plane_name>Airbus Industrie A320</plane_name></routes><routes><airline_iata>LH</airline_iata><departure_airport_iata>DUS</departure_airport_iata><departure_name_airport>Düsseldorf International Airport</departure_name_airport><departure_coordinates_lon>6.76558</departure_coordinates_lon><departure_coordinates_lat>51.278328</departure_coordinates_lat><departure_country_code>DE</departure_country_code><departure_country_name>Germany</departure_country_name><departure_city_code>DUS</departure_city_code><departure_city_name>Dusseldorf</departure_city_name><arrival_airport_iata>BUD</arrival_airport_iata><arrival_name_airport>Liszt Ferenc International</arrival_name_airport><arrival_coordinates_lon>19.261621</arrival_coordinates_lon><arrival_coordinates_lat>47.433037</arrival_coordinates_lat><arrival_country_code>HU</arrival_country_code><arrival_country_name>Hungary</arrival_country_name><arrival_city_code>BUD</arrival_city_code><arrival_city_name>Budapest</arrival_city_name><planes>735</planes><plane_name>Boeing 737-500</plane_name></routes><routes><airline_iata>LH</airline_iata><departure_airport_iata>DUS</departure_airport_iata><departure_name_airport>Düsseldorf International Airport</departure_name_airport><departure_coordinates_lon>6.76558</departure_coordinates_lon><departure_coordinates_lat>51.278328</departure_coordinates_lat><departure_country_code>DE</departure_country_code><departure_country_name>Germany</departure_country_name><departure_city_code>DUS</departure_city_code><departure_city_name>Dusseldorf</departure_city_name><arrival_airport_iata>BUD</arrival_airport_iata><arrival_name_airport>Liszt Ferenc International</arrival_name_airport><arrival_coordinates_lon>19.261621</arrival_coordinates_lon><arrival_coordinates_lat>47.433037</arrival_coordinates_lat><arrival_country_code>HU</arrival_country_code><arrival_country_name>Hungary</arrival_country_name><arrival_city_code>BUD</arrival_city_code><arrival_city_name>Budapest</arrival_city_name><planes>CR9</planes><plane_name>Canadair Regional Jet 900</plane_name></routes><routes><airline_iata>LH</airline_iata><departure_airport_iata>FRA</departure_airport_iata><departure_name_airport>Frankfurt International Airport</departure_name_airport><departure_coordinates_lon>8.570773</departure_coordinates_lon><departure_coordinates_lat>50.050735</departure_coordinates_lat><departure_country_code>DE</departure_country_code><departure_country_name>Germany</departure_country_name><departure_city_code>FRA</departure_city_code><departure_city_name>Frankfurt</departure_city_name><arrival_airport_iata>BUD</arrival_airport_iata><arrival_name_airport>Liszt Ferenc International</arrival_name_airport><arrival_coordinates_lon>19.261621</arrival_coordinates_lon><arrival_coordinates_lat>47.433037</arrival_coordinates_lat><arrival_country_code>HU</arrival_country_code><arrival_country_name>Hungary</arrival_country_name><arrival_city_code>BUD</arrival_city_code><arrival_city_name>Budapest</arrival_city_name><planes>319</planes><plane_name>Airbus Industrie A319</plane_name></routes><routes><airline_iata>LH</airline_iata><departure_airport_iata>HAM</departure_airport_iata><departure_name_airport>Hamburg Airport</departure_name_airport><departure_coordinates_lon>10.006414</departure_coordinates_lon><departure_coordinates_lat>53.63128</departure_coordinates_lat><departure_country_code>DE</departure_country_code><departure_country_name>Germany</departure_country_name><departure_city_code>HAM</departure_city_code><departure_city_name>Hamburg</departure_city_name><arrival_airport_iata>BUD</arrival_airport_iata><arrival_name_airport>Liszt Ferenc International</arrival_name_airport><arrival_coordinates_lon>19.261621</arrival_coordinates_lon><arrival_coordinates_lat>47.433037</arrival_coordinates_lat><arrival_country_code>HU</arrival_country_code><arrival_country_name>Hungary</arrival_country_name><arrival_city_code>BUD</arrival_city_code><arrival_city_name>Budapest</arrival_city_name><planes>CR9</planes><plane_name>Canadair Regional Jet 900</plane_name></routes><routes><airline_iata>LH</airline_iata><departure_airport_iata>MUC</departure_airport_iata><departure_name_airport>Franz Josef Strauss</departure_name_airport><departure_coordinates_lon>11.790143</departure_coordinates_lon><departure_coordinates_lat>48.353004</departure_coordinates_lat><departure_country_code>DE</departure_country_code><departure_country_name>Germany</departure_country_name><departure_city_code>MUC</departure_city_code><departure_city_name>Munich</departure_city_name><arrival_airport_iata>BUD</arrival_airport_iata><arrival_name_airport>Liszt Ferenc International</arrival_name_airport><arrival_coordinates_lon>19.261621</arrival_coordinates_lon><arrival_coordinates_lat>47.433037</arrival_coordinates_lat><arrival_country_code>HU</arrival_country_code><arrival_country_name>Hungary</arrival_country_name><arrival_city_code>BUD</arrival_city_code><arrival_city_name>Budapest</arrival_city_name><planes>320</planes><plane_name>Airbus Industrie A320</plane_name></routes><routes><airline_iata>LH</airline_iata><departure_airport_iata>MUC</departure_airport_iata><departure_name_airport>Franz Josef Strauss</departure_name_airport><departure_coordinates_lon>11.790143</departure_coordinates_lon><departure_coordinates_lat>48.353004</departure_coordinates_lat><departure_country_code>DE</departure_country_code><departure_country_name>Germany</departure_country_name><departure_city_code>MUC</departure_city_code><departure_city_name>Munich</departure_city_name><arrival_airport_iata>BUD</arrival_airport_iata><arrival_name_airport>Liszt Ferenc International</arrival_name_airport><arrival_coordinates_lon>19.261621</arrival_coordinates_lon><arrival_coordinates_lat>47.433037</arrival_coordinates_lat><arrival_country_code>HU</arrival_country_code><arrival_country_name>Hungary</arrival_country_name><arrival_city_code>BUD</arrival_city_code><arrival_city_name>Budapest</arrival_city_name><planes>CR9</planes><plane_name>Canadair Regional Jet 900</plane_name></routes><routes><airline_iata>LH</airline_iata><departure_airport_iata>TXL</departure_airport_iata><departure_name_airport>Berlin-tegel / Otto Lilienthal</departure_name_airport><departure_coordinates_lon>13.291722</departure_coordinates_lon><departure_coordinates_lat>52.553944</departure_coordinates_lat><departure_country_code>DE</departure_country_code><departure_country_name>Germany</departure_country_name><departure_city_code>BER</departure_city_code><departure_city_name>Berlin</departure_city_name><arrival_airport_iata>BUD</arrival_airport_iata><arrival_name_airport>Liszt Ferenc International</arrival_name_airport><arrival_coordinates_lon>19.261621</arrival_coordinates_lon><arrival_coordinates_lat>47.433037</arrival_coordinates_lat><arrival_country_code>HU</arrival_country_code><arrival_country_name>Hungary</arrival_country_name><arrival_city_code>BUD</arrival_city_code><arrival_city_name>Budapest</arrival_city_name><planes>CR9</planes><plane_name>Canadair Regional Jet 900</plane_name></routes><routes><airline_iata>LO</airline_iata><departure_airport_iata>WAW</departure_airport_iata><departure_name_airport>Frederic Chopin</departure_name_airport><departure_coordinates_lon>20.97329</departure_coordinates_lon><departure_coordinates_lat>52.170906</departure_coordinates_lat><departure_country_code>PL</departure_country_code><departure_country_name>Poland</departure_country_name><departure_city_code>WAW</departure_city_code><departure_city_name>Warsaw</departure_city_name><arrival_airport_iata>BUD</arrival_airport_iata><arrival_name_airport>Liszt Ferenc International</arrival_name_airport><arrival_coordinates_lon>19.261621</arrival_coordinates_lon><arrival_coordinates_lat>47.433037</arrival_coordinates_lat><arrival_country_code>HU</arrival_country_code><arrival_country_name>Hungary</arrival_country_name><arrival_city_code>BUD</arrival_city_code><arrival_city_name>Budapest</arrival_city_name><planes>E75</planes><plane_name>Embraer ERJ-175</plane_name></routes><routes><airline_iata>LS</airline_iata><departure_airport_iata>EDI</departure_airport_iata><departure_name_airport>Edinburgh</departure_name_airport><departure_coordinates_lon>-3.364177</departure_coordinates_lon><departure_coordinates_lat>55.948143</departure_coordinates_lat><departure_country_code>GB</departure_country_code><departure_country_name>United Kingdom</departure_country_name><departure_city_code>EDI</departure_city_code><departure_city_name>Edinburgh</departure_city_name><arrival_airport_iata>BUD</arrival_airport_iata><arrival_name_airport>Liszt Ferenc International</arrival_name_airport><arrival_coordinates_lon>19.261621</arrival_coordinates_lon><arrival_coordinates_lat>47.433037</arrival_coordinates_lat><arrival_country_code>HU</arrival_country_code><arrival_country_name>Hungary</arrival_country_name><arrival_city_code>BUD</arrival_city_code><arrival_city_name>Budapest</arrival_city_name><planes>733</planes><plane_name>Boeing 737-300</plane_name></routes><routes><airline_iata>LS</airline_iata><departure_airport_iata>LBA</departure_airport_iata><departure_name_airport>Leeds/bradford</departure_name_airport><departure_coordinates_lon>-1.659985</departure_coordinates_lon><departure_coordinates_lat>53.86934</departure_coordinates_lat><departure_country_code>GB</departure_country_code><departure_country_name>United Kingdom</departure_country_name><departure_city_code>LBA</departure_city_code><departure_city_name>Leeds</departure_city_name><arrival_airport_iata>BUD</arrival_airport_iata><arrival_name_airport>Liszt Ferenc International</arrival_name_airport><arrival_coordinates_lon>19.261621</arrival_coordinates_lon><arrival_coordinates_lat>47.433037</arrival_coordinates_lat><arrival_country_code>HU</arrival_country_code><arrival_country_name>Hungary</arrival_country_name><arrival_city_code>BUD</arrival_city_code><arrival_city_name>Budapest</arrival_city_name><planes>733</planes><plane_name>Boeing 737-300</plane_name></routes><routes><airline_iata>LS</airline_iata><departure_airport_iata>MAN</departure_airport_iata><departure_name_airport>Ringway International Airport</departure_name_airport><departure_coordinates_lon>-2.273354</departure_coordinates_lon><departure_coordinates_lat>53.362907</departure_coordinates_lat><departure_country_code>GB</departure_country_code><departure_country_name>United Kingdom</departure_country_name><departure_city_code>MAN</departure_city_code><departure_city_name>Manchester</departure_city_name><arrival_airport_iata>BUD</arrival_airport_iata><arrival_name_airport>Liszt Ferenc International</arrival_name_airport><arrival_coordinates_lon>19.261621</arrival_coordinates_lon><arrival_coordinates_lat>47.433037</arrival_coordinates_lat><arrival_country_code>HU</arrival_country_code><arrival_country_name>Hungary</arrival_country_name><arrival_city_code>BUD</arrival_city_code><arrival_city_name>Budapest</arrival_city_name><planes>733</planes><plane_name>Boeing 737-300</plane_name></routes><routes><airline_iata>LX</airline_iata><departure_airport_iata>ZRH</departure_airport_iata><departure_name_airport>Zurich</departure_name_airport><departure_coordinates_lon>8.561746</departure_coordinates_lon><departure_coordinates_lat>47.450603</departure_coordinates_lat><departure_country_code>CH</departure_country_code><departure_country_name>Switzerland</departure_country_name><departure_city_code>ZRH</departure_city_code><departure_city_name>Zurich</departure_city_name><arrival_airport_iata>BUD</arrival_airport_iata><arrival_name_airport>Liszt Ferenc International</arrival_name_airport><arrival_coordinates_lon>19.261621</arrival_coordinates_lon><arrival_coordinates_lat>47.433037</arrival_coordinates_lat><arrival_country_code>HU</arrival_country_code><arrival_country_name>Hungary</arrival_country_name><arrival_city_code>BUD</arrival_city_code><arrival_city_name>Budapest</arrival_city_name><planes>100</planes><plane_name>Fokker 100</plane_name></routes><routes><airline_iata>LY</airline_iata><departure_airport_iata>TLV</departure_airport_iata><departure_name_airport>Ben Gurion International</departure_name_airport><departure_coordinates_lon>34.870743</departure_coordinates_lon><departure_coordinates_lat>32.000454</departure_coordinates_lat><departure_country_code>IL</departure_country_code><departure_country_name>Israel</departure_country_name><departure_city_code>TLV</departure_city_code><departure_city_name>Tel Aviv Yafo</departure_city_name><arrival_airport_iata>BUD</arrival_airport_iata><arrival_name_airport>Liszt Ferenc International</arrival_name_airport><arrival_coordinates_lon>19.261621</arrival_coordinates_lon><arrival_coordinates_lat>47.433037</arrival_coordinates_lat><arrival_country_code>HU</arrival_country_code><arrival_country_name>Hungary</arrival_country_name><arrival_city_code>BUD</arrival_city_code><arrival_city_name>Budapest</arrival_city_name><planes>73G</planes><plane_name>Boeing 737-700</plane_name></routes><routes><airline_iata>MS</airline_iata><departure_airport_iata>CAI</departure_airport_iata><departure_name_airport>Cairo International Airport</departure_name_airport><departure_coordinates_lon>31.40647</departure_coordinates_lon><departure_coordinates_lat>30.120106</departure_coordinates_lat><departure_country_code>EG</departure_country_code><departure_country_name>Egypt</departure_country_name><departure_city_code>CAI</departure_city_code><departure_city_name>Cairo</departure_city_name><arrival_airport_iata>BUD</arrival_airport_iata><arrival_name_airport>Liszt Ferenc International</arrival_name_airport><arrival_coordinates_lon>19.261621</arrival_coordinates_lon><arrival_coordinates_lat>47.433037</arrival_coordinates_lat><arrival_country_code>HU</arrival_country_code><arrival_country_name>Hungary</arrival_country_name><arrival_city_code>BUD</arrival_city_code><arrival_city_name>Budapest</arrival_city_name><planes>E70</planes><plane_name>Embraer ERJ-170</plane_name></routes><routes><airline_iata>OK</airline_iata><departure_airport_iata>PRG</departure_airport_iata><departure_name_airport>Prague Vaclav Havel Airport</departure_name_airport><departure_coordinates_lon>14.266638</departure_coordinates_lon><departure_coordinates_lat>50.10619</departure_coordinates_lat><departure_country_code>CZ</departure_country_code><departure_country_name>Czech Republic</departure_country_name><departure_city_code>PRG</departure_city_code><departure_city_name>Prague</departure_city_name><arrival_airport_iata>BUD</arrival_airport_iata><arrival_name_airport>Liszt Ferenc International</arrival_name_airport><arrival_coordinates_lon>19.261621</arrival_coordinates_lon><arrival_coordinates_lat>47.433037</arrival_coordinates_lat><arrival_country_code>HU</arrival_country_code><arrival_country_name>Hungary</arrival_country_name><arrival_city_code>BUD</arrival_city_code><arrival_city_name>Budapest</arrival_city_name><planes>735</planes><plane_name>Boeing 737-500</plane_name></routes><routes><airline_iata>OS</airline_iata><departure_airport_iata>VIE</departure_airport_iata><departure_name_airport>Vienna International</departure_name_airport><departure_coordinates_lon>16.563583</departure_coordinates_lon><departure_coordinates_lat>48.11972</departure_coordinates_lat><departure_country_code>AT</departure_country_code><departure_country_name>Austria</departure_country_name><departure_city_code>VIE</departure_city_code><departure_city_name>Vienna</departure_city_name><arrival_airport_iata>BUD</arrival_airport_iata><arrival_name_airport>Liszt Ferenc International</arrival_name_airport><arrival_coordinates_lon>19.261621</arrival_coordinates_lon><arrival_coordinates_lat>47.433037</arrival_coordinates_lat><arrival_country_code>HU</arrival_country_code><arrival_country_name>Hungary</arrival_country_name><arrival_city_code>BUD</arrival_city_code><arrival_city_name>Budapest</arrival_city_name><planes>DH4</planes><plane_name>De Havilland Canada DHC-8-400 Dash 8/8Q</plane_name></routes><routes><airline_iata>QR</airline_iata><departure_airport_iata>DOH</departure_airport_iata><departure_name_airport>Doha International</departure_name_airport><departure_coordinates_lon>51.558067</departure_coordinates_lon><departure_coordinates_lat>25.267569</departure_coordinates_lat><departure_country_code>QA</departure_country_code><departure_country_name>Qatar</departure_country_name><departure_city_code>DOH</departure_city_code><departure_city_name>Doha</departure_city_name><arrival_airport_iata>BUD</arrival_airport_iata><arrival_name_airport>Liszt Ferenc International</arrival_name_airport><arrival_coordinates_lon>19.261621</arrival_coordinates_lon><arrival_coordinates_lat>47.433037</arrival_coordinates_lat><arrival_country_code>HU</arrival_country_code><arrival_country_name>Hungary</arrival_country_name><arrival_city_code>BUD</arrival_city_code><arrival_city_name>Budapest</arrival_city_name><planes>320</planes><plane_name>Airbus Industrie A320</plane_name></routes><routes><airline_iata>QR</airline_iata><departure_airport_iata>ZAG</departure_airport_iata><departure_name_airport>Pleso</departure_name_airport><departure_coordinates_lon>16.06152</departure_coordinates_lon><departure_coordinates_lat>45.733242</departure_coordinates_lat><departure_country_code>HR</departure_country_code><departure_country_name>Croatia</departure_country_name><departure_city_code>ZAG</departure_city_code><departure_city_name>Zagreb</departure_city_name><arrival_airport_iata>BUD</arrival_airport_iata><arrival_name_airport>Liszt Ferenc International</arrival_name_airport><arrival_coordinates_lon>19.261621</arrival_coordinates_lon><arrival_coordinates_lat>47.433037</arrival_coordinates_lat><arrival_country_code>HU</arrival_country_code><arrival_country_name>Hungary</arrival_country_name><arrival_city_code>BUD</arrival_city_code><arrival_city_name>Budapest</arrival_city_name><planes>320</planes><plane_name>Airbus Industrie A320</plane_name></routes><routes><airline_iata>RO</airline_iata><departure_airport_iata>OTP</departure_airport_iata><departure_name_airport>Henri Coanda International</departure_name_airport><departure_coordinates_lon>26.077063</departure_coordinates_lon><departure_coordinates_lat>44.571156</departure_coordinates_lat><departure_country_code>RO</departure_country_code><departure_country_name>Romania</departure_country_name><departure_city_code>BUH</departure_city_code><departure_city_name>Bucharest</departure_city_name><arrival_airport_iata>BUD</arrival_airport_iata><arrival_name_airport>Liszt Ferenc International</arrival_name_airport><arrival_coordinates_lon>19.261621</arrival_coordinates_lon><arrival_coordinates_lat>47.433037</arrival_coordinates_lat><arrival_country_code>HU</arrival_country_code><arrival_country_name>Hungary</arrival_country_name><arrival_city_code>BUD</arrival_city_code><arrival_city_name>Budapest</arrival_city_name><planes>AT5</planes><plane_name>Aerospatiale/Alenia ATR 42-500</plane_name></routes><routes><airline_iata>SN</airline_iata><departure_airport_iata>BRU</departure_airport_iata><departure_name_airport>Brussels Airport</departure_name_airport><departure_coordinates_lon>4.483602</departure_coordinates_lon><departure_coordinates_lat>50.89717</departure_coordinates_lat><departure_country_code>BE</departure_country_code><departure_country_name>Belgium</departure_country_name><departure_city_code>BRU</departure_city_code><departure_city_name>Brussels</departure_city_name><arrival_airport_iata>BUD</arrival_airport_iata><arrival_name_airport>Liszt Ferenc International</arrival_name_airport><arrival_coordinates_lon>19.261621</arrival_coordinates_lon><arrival_coordinates_lat>47.433037</arrival_coordinates_lat><arrival_country_code>HU</arrival_country_code><arrival_country_name>Hungary</arrival_country_name><arrival_city_code>BUD</arrival_city_code><arrival_city_name>Budapest</arrival_city_name><planes>AR1</planes><plane_name>Avro RJ100 Avroliner</plane_name></routes><routes><airline_iata>SU</airline_iata><departure_airport_iata>SVO</departure_airport_iata><departure_name_airport>Sheremetyevo International</departure_name_airport><departure_coordinates_lon>37.416573</departure_coordinates_lon><departure_coordinates_lat>55.966324</departure_coordinates_lat><departure_country_code>RU</departure_country_code><departure_country_name>Russia</departure_country_name><departure_city_code>MOW</departure_city_code><departure_city_name>Moscow</departure_city_name><arrival_airport_iata>BUD</arrival_airport_iata><arrival_name_airport>Liszt Ferenc International</arrival_name_airport><arrival_coordinates_lon>19.261621</arrival_coordinates_lon><arrival_coordinates_lat>47.433037</arrival_coordinates_lat><arrival_country_code>HU</arrival_country_code><arrival_country_name>Hungary</arrival_country_name><arrival_city_code>BUD</arrival_city_code><arrival_city_name>Budapest</arrival_city_name><planes>320</planes><plane_name>Airbus Industrie A320</plane_name></routes><routes><airline_iata>SX</airline_iata><departure_airport_iata>BRN</departure_airport_iata><departure_name_airport>Belp</departure_name_airport><departure_coordinates_lon>7.50356</departure_coordinates_lon><departure_coordinates_lat>46.911728</departure_coordinates_lat><departure_country_code>CH</departure_country_code><departure_country_name>Switzerland</departure_country_name><departure_city_code>BRN</departure_city_code><departure_city_name>Berne</departure_city_name><arrival_airport_iata>BUD</arrival_airport_iata><arrival_name_airport>Liszt Ferenc International</arrival_name_airport><arrival_coordinates_lon>19.261621</arrival_coordinates_lon><arrival_coordinates_lat>47.433037</arrival_coordinates_lat><arrival_country_code>HU</arrival_country_code><arrival_country_name>Hungary</arrival_country_name><arrival_city_code>BUD</arrival_city_code><arrival_city_name>Budapest</arrival_city_name><planes>D38</planes><plane_name>Fairchild Dornier Do-328</plane_name></routes><routes><airline_iata>TK</airline_iata><departure_airport_iata>IST</departure_airport_iata><departure_name_airport>Ataturk</departure_name_airport><departure_coordinates_lon>28.815277</departure_coordinates_lon><departure_coordinates_lat>40.976665</departure_coordinates_lat><departure_country_code>TR</departure_country_code><departure_country_name>Turkey</departure_country_name><departure_city_code>IST</departure_city_code><departure_city_name>Istanbul</departure_city_name><arrival_airport_iata>BUD</arrival_airport_iata><arrival_name_airport>Liszt Ferenc International</arrival_name_airport><arrival_coordinates_lon>19.261621</arrival_coordinates_lon><arrival_coordinates_lat>47.433037</arrival_coordinates_lat><arrival_country_code>HU</arrival_country_code><arrival_country_name>Hungary</arrival_country_name><arrival_city_code>BUD</arrival_city_code><arrival_city_name>Budapest</arrival_city_name><planes>321</planes><plane_name>Airbus Industrie A321</plane_name></routes><routes><airline_iata>TP</airline_iata><departure_airport_iata>LIS</departure_airport_iata><departure_name_airport>Lisbon Portela</departure_name_airport><departure_coordinates_lon>-9.128165</departure_coordinates_lon><departure_coordinates_lat>38.770042</departure_coordinates_lat><departure_country_code>PT</departure_country_code><departure_country_name>Portugal</departure_country_name><departure_city_code>LIS</departure_city_code><departure_city_name>Lisbon</departure_city_name><arrival_airport_iata>BUD</arrival_airport_iata><arrival_name_airport>Liszt Ferenc International</arrival_name_airport><arrival_coordinates_lon>19.261621</arrival_coordinates_lon><arrival_coordinates_lat>47.433037</arrival_coordinates_lat><arrival_country_code>HU</arrival_country_code><arrival_country_name>Hungary</arrival_country_name><arrival_city_code>BUD</arrival_city_code><arrival_city_name>Budapest</arrival_city_name><planes>320</planes><plane_name>Airbus Industrie A320</plane_name></routes><routes><airline_iata>TP</airline_iata><departure_airport_iata>PRG</departure_airport_iata><departure_name_airport>Prague Vaclav Havel Airport</departure_name_airport><departure_coordinates_lon>14.266638</departure_coordinates_lon><departure_coordinates_lat>50.10619</departure_coordinates_lat><departure_country_code>CZ</departure_country_code><departure_country_name>Czech Republic</departure_country_name><departure_city_code>PRG</departure_city_code><departure_city_name>Prague</departure_city_name><arrival_airport_iata>BUD</arrival_airport_iata><arrival_name_airport>Liszt Ferenc International</arrival_name_airport><arrival_coordinates_lon>19.261621</arrival_coordinates_lon><arrival_coordinates_lat>47.433037</arrival_coordinates_lat><arrival_country_code>HU</arrival_country_code><arrival_country_name>Hungary</arrival_country_name><arrival_city_code>BUD</arrival_city_code><arrival_city_name>Budapest</arrival_city_name><planes>319</planes><plane_name>Airbus Industrie A319</plane_name></routes><routes><airline_iata>U2</airline_iata><departure_airport_iata>CDG</departure_airport_iata><departure_name_airport>Charles De Gaulle</departure_name_airport><departure_coordinates_lon>2.567023</departure_coordinates_lon><departure_coordinates_lat>49.003197</departure_coordinates_lat><departure_country_code>FR</departure_country_code><departure_country_name>France</departure_country_name><departure_city_code>PAR</departure_city_code><departure_city_name>Paris</departure_city_name><arrival_airport_iata>BUD</arrival_airport_iata><arrival_name_airport>Liszt Ferenc International</arrival_name_airport><arrival_coordinates_lon>19.261621</arrival_coordinates_lon><arrival_coordinates_lat>47.433037</arrival_coordinates_lat><arrival_country_code>HU</arrival_country_code><arrival_country_name>Hungary</arrival_country_name><arrival_city_code>BUD</arrival_city_code><arrival_city_name>Budapest</arrival_city_name><planes>319</planes><plane_name>Airbus Industrie A319</plane_name></routes><routes><airline_iata>U2</airline_iata><departure_airport_iata>DTM</departure_airport_iata><departure_name_airport>Dortmund</departure_name_airport><departure_coordinates_lon>7.613139</departure_coordinates_lon><departure_coordinates_lat>51.514828</departure_coordinates_lat><departure_country_code>DE</departure_country_code><departure_country_name>Germany</departure_country_name><departure_city_code>DTM</departure_city_code><departure_city_name>Dortmund</departure_city_name><arrival_airport_iata>BUD</arrival_airport_iata><arrival_name_airport>Liszt Ferenc International</arrival_name_airport><arrival_coordinates_lon>19.261621</arrival_coordinates_lon><arrival_coordinates_lat>47.433037</arrival_coordinates_lat><arrival_country_code>HU</arrival_country_code><arrival_country_name>Hungary</arrival_country_name><arrival_city_code>BUD</arrival_city_code><arrival_city_name>Budapest</arrival_city_name><planes>319</planes><plane_name>Airbus Industrie A319</plane_name></routes><routes><airline_iata>U2</airline_iata><departure_airport_iata>GVA</departure_airport_iata><departure_name_airport>Geneve-cointrin</departure_name_airport><departure_coordinates_lon>6.105774</departure_coordinates_lon><departure_coordinates_lat>46.229633</departure_coordinates_lat><departure_country_code>CH</departure_country_code><departure_country_name>Switzerland</departure_country_name><departure_city_code>GVA</departure_city_code><departure_city_name>Geneva</departure_city_name><arrival_airport_iata>BUD</arrival_airport_iata><arrival_name_airport>Liszt Ferenc International</arrival_name_airport><arrival_coordinates_lon>19.261621</arrival_coordinates_lon><arrival_coordinates_lat>47.433037</arrival_coordinates_lat><arrival_country_code>HU</arrival_country_code><arrival_country_name>Hungary</arrival_country_name><arrival_city_code>BUD</arrival_city_code><arrival_city_name>Budapest</arrival_city_name><planes>319</planes><plane_name>Airbus Industrie A319</plane_name></routes><routes><airline_iata>U2</airline_iata><departure_airport_iata>LGW</departure_airport_iata><departure_name_airport>Gatwick</departure_name_airport><departure_coordinates_lon>-0.161863</departure_coordinates_lon><departure_coordinates_lat>51.156807</departure_coordinates_lat><departure_country_code>GB</departure_country_code><departure_country_name>United Kingdom</departure_country_name><departure_city_code>LON</departure_city_code><departure_city_name>London</departure_city_name><arrival_airport_iata>BUD</arrival_airport_iata><arrival_name_airport>Liszt Ferenc International</arrival_name_airport><arrival_coordinates_lon>19.261621</arrival_coordinates_lon><arrival_coordinates_lat>47.433037</arrival_coordinates_lat><arrival_country_code>HU</arrival_country_code><arrival_country_name>Hungary</arrival_country_name><arrival_city_code>BUD</arrival_city_code><arrival_city_name>Budapest</arrival_city_name><planes>319</planes><plane_name>Airbus Industrie A319</plane_name></routes><routes><airline_iata>U2</airline_iata><departure_airport_iata>LTN</departure_airport_iata><departure_name_airport>Luton Airport</departure_name_airport><departure_coordinates_lon>-0.376232</departure_coordinates_lon><departure_coordinates_lat>51.87977</departure_coordinates_lat><departure_country_code>GB</departure_country_code><departure_country_name>United Kingdom</departure_country_name><departure_city_code>LON</departure_city_code><departure_city_name>London</departure_city_name><arrival_airport_iata>BUD</arrival_airport_iata><arrival_name_airport>Liszt Ferenc International</arrival_name_airport><arrival_coordinates_lon>19.261621</arrival_coordinates_lon><arrival_coordinates_lat>47.433037</arrival_coordinates_lat><arrival_country_code>HU</arrival_country_code><arrival_country_name>Hungary</arrival_country_name><arrival_city_code>BUD</arrival_city_code><arrival_city_name>Budapest</arrival_city_name><planes>319</planes><plane_name>Airbus Industrie A319</plane_name></routes><routes><airline_iata>U2</airline_iata><departure_airport_iata>SXF</departure_airport_iata><departure_name_airport>Berlin-Schoenefeld</departure_name_airport><departure_coordinates_lon>13.521388</departure_coordinates_lon><departure_coordinates_lat>52.370277</departure_coordinates_lat><departure_country_code>DE</departure_country_code><departure_country_name>Germany</departure_country_name><departure_city_code>BER</departure_city_code><departure_city_name>Berlin</departure_city_name><arrival_airport_iata>BUD</arrival_airport_iata><arrival_name_airport>Liszt Ferenc International</arrival_name_airport><arrival_coordinates_lon>19.261621</arrival_coordinates_lon><arrival_coordinates_lat>47.433037</arrival_coordinates_lat><arrival_country_code>HU</arrival_country_code><arrival_country_name>Hungary</arrival_country_name><arrival_city_code>BUD</arrival_city_code><arrival_city_name>Budapest</arrival_city_name><planes>320</planes><plane_name>Airbus Industrie A320</plane_name></routes><routes><airline_iata>U6</airline_iata><departure_airport_iata>SVX</departure_airport_iata><departure_name_airport>Koltsovo International</departure_name_airport><departure_coordinates_lon>60.804314</departure_coordinates_lon><departure_coordinates_lat>56.750336</departure_coordinates_lat><departure_country_code>RU</departure_country_code><departure_country_name>Russia</departure_country_name><departure_city_code>SVX</departure_city_code><departure_city_name>Ekaterinburg</departure_city_name><arrival_airport_iata>BUD</arrival_airport_iata><arrival_name_airport>Liszt Ferenc International</arrival_name_airport><arrival_coordinates_lon>19.261621</arrival_coordinates_lon><arrival_coordinates_lat>47.433037</arrival_coordinates_lat><arrival_country_code>HU</arrival_country_code><arrival_country_name>Hungary</arrival_country_name><arrival_city_code>BUD</arrival_city_code><arrival_city_name>Budapest</arrival_city_name><planes>320</planes><plane_name>Airbus Industrie A320</plane_name></routes><routes><airline_iata>VV</airline_iata><departure_airport_iata>KBP</departure_airport_iata><departure_name_airport>Boryspil (Borispol)</departure_name_airport><departure_coordinates_lon>30.895206</departure_coordinates_lon><departure_coordinates_lat>50.341244</departure_coordinates_lat><departure_country_code>UA</departure_country_code><departure_country_name>Ukraine</departure_country_name><departure_city_code>IEV</departure_city_code><departure_city_name>Kiev</departure_city_name><arrival_airport_iata>BUD</arrival_airport_iata><arrival_name_airport>Liszt Ferenc International</arrival_name_airport><arrival_coordinates_lon>19.261621</arrival_coordinates_lon><arrival_coordinates_lat>47.433037</arrival_coordinates_lat><arrival_country_code>HU</arrival_country_code><arrival_country_name>Hungary</arrival_country_name><arrival_city_code>BUD</arrival_city_code><arrival_city_name>Budapest</arrival_city_name><planes>ER4</planes><plane_name>Embraer ERJ-145 Regional Jet</plane_name></routes><routes><airline_iata>W6</airline_iata><departure_airport_iata>BCN</departure_airport_iata><departure_name_airport>El Prat De Llobregat</departure_name_airport><departure_coordinates_lon>2.07593</departure_coordinates_lon><departure_coordinates_lat>41.30303</departure_coordinates_lat><departure_country_code>ES</departure_country_code><departure_country_name>Spain</departure_country_name><departure_city_code>BCN</departure_city_code><departure_city_name>Barcelona</departure_city_name><arrival_airport_iata>BUD</arrival_airport_iata><arrival_name_airport>Liszt Ferenc International</arrival_name_airport><arrival_coordinates_lon>19.261621</arrival_coordinates_lon><arrival_coordinates_lat>47.433037</arrival_coordinates_lat><arrival_country_code>HU</arrival_country_code><arrival_country_name>Hungary</arrival_country_name><arrival_city_code>BUD</arrival_city_code><arrival_city_name>Budapest</arrival_city_name><planes>320</planes><plane_name>Airbus Industrie A320</plane_name></routes><routes><airline_iata>W6</airline_iata><departure_airport_iata>BRI</departure_airport_iata><departure_name_airport>Palese</departure_name_airport><departure_coordinates_lon>16.76391</departure_coordinates_lon><departure_coordinates_lat>41.13388</departure_coordinates_lat><departure_country_code>IT</departure_country_code><departure_country_name>Italy</departure_country_name><departure_city_code>BRI</departure_city_code><departure_city_name>Bari</departure_city_name><arrival_airport_iata>BUD</arrival_airport_iata><arrival_name_airport>Liszt Ferenc International</arrival_name_airport><arrival_coordinates_lon>19.261621</arrival_coordinates_lon><arrival_coordinates_lat>47.433037</arrival_coordinates_lat><arrival_country_code>HU</arrival_country_code><arrival_country_name>Hungary</arrival_country_name><arrival_city_code>BUD</arrival_city_code><arrival_city_name>Budapest</arrival_city_name><planes>320</planes><plane_name>Airbus Industrie A320</plane_name></routes><routes><airline_iata>W6</airline_iata><departure_airport_iata>CRL</departure_airport_iata><departure_name_airport>Charleroi Brussels South</departure_name_airport><departure_coordinates_lon>4.451703</departure_coordinates_lon><departure_coordinates_lat>50.456696</departure_coordinates_lat><departure_country_code>BE</departure_country_code><departure_country_name>Belgium</departure_country_name><departure_city_code>BRU</departure_city_code><departure_city_name>Brussels</departure_city_name><arrival_airport_iata>BUD</arrival_airport_iata><arrival_name_airport>Liszt Ferenc International</arrival_name_airport><arrival_coordinates_lon>19.261621</arrival_coordinates_lon><arrival_coordinates_lat>47.433037</arrival_coordinates_lat><arrival_country_code>HU</arrival_country_code><arrival_country_name>Hungary</arrival_country_name><arrival_city_code>BUD</arrival_city_code><arrival_city_name>Budapest</arrival_city_name><planes>320</planes><plane_name>Airbus Industrie A320</plane_name></routes><routes><airline_iata>W6</airline_iata><departure_airport_iata>CTA</departure_airport_iata><departure_name_airport>Fontanarossa</departure_name_airport><departure_coordinates_lon>15.065877</departure_coordinates_lon><departure_coordinates_lat>37.47066</departure_coordinates_lat><departure_country_code>IT</departure_country_code><departure_country_name>Italy</departure_country_name><departure_city_code>CTA</departure_city_code><departure_city_name>Catania</departure_city_name><arrival_airport_iata>BUD</arrival_airport_iata><arrival_name_airport>Liszt Ferenc International</arrival_name_airport><arrival_coordinates_lon>19.261621</arrival_coordinates_lon><arrival_coordinates_lat>47.433037</arrival_coordinates_lat><arrival_country_code>HU</arrival_country_code><arrival_country_name>Hungary</arrival_country_name><arrival_city_code>BUD</arrival_city_code><arrival_city_name>Budapest</arrival_city_name><planes>320</planes><plane_name>Airbus Industrie A320</plane_name></routes><routes><airline_iata>W6</airline_iata><departure_airport_iata>DTM</departure_airport_iata><departure_name_airport>Dortmund</departure_name_airport><departure_coordinates_lon>7.613139</departure_coordinates_lon><departure_coordinates_lat>51.514828</departure_coordinates_lat><departure_country_code>DE</departure_country_code><departure_country_name>Germany</departure_country_name><departure_city_code>DTM</departure_city_code><departure_city_name>Dortmund</departure_city_name><arrival_airport_iata>BUD</arrival_airport_iata><arrival_name_airport>Liszt Ferenc International</arrival_name_airport><arrival_coordinates_lon>19.261621</arrival_coordinates_lon><arrival_coordinates_lat>47.433037</arrival_coordinates_lat><arrival_country_code>HU</arrival_country_code><arrival_country_name>Hungary</arrival_country_name><arrival_city_code>BUD</arrival_city_code><arrival_city_name>Budapest</arrival_city_name><planes>320</planes><plane_name>Airbus Industrie A320</plane_name></routes><routes><airline_iata>W6</airline_iata><departure_airport_iata>EIN</departure_airport_iata><departure_name_airport>Eindhoven</departure_name_airport><departure_coordinates_lon>5.391795</departure_coordinates_lon><departure_coordinates_lat>51.457954</departure_coordinates_lat><departure_country_code>NL</departure_country_code><departure_country_name>Netherlands</departure_country_name><departure_city_code>EIN</departure_city_code><departure_city_name>Eindhoven</departure_city_name><arrival_airport_iata>BUD</arrival_airport_iata><arrival_name_airport>Liszt Ferenc International</arrival_name_airport><arrival_coordinates_lon>19.261621</arrival_coordinates_lon><arrival_coordinates_lat>47.433037</arrival_coordinates_lat><arrival_country_code>HU</arrival_country_code><arrival_country_name>Hungary</arrival_country_name><arrival_city_code>BUD</arrival_city_code><arrival_city_name>Budapest</arrival_city_name><planes>320</planes><plane_name>Airbus Industrie A320</plane_name></routes><routes><airline_iata>W6</airline_iata><departure_airport_iata>FCO</departure_airport_iata><departure_name_airport>Leonardo Da Vinci (Fiumicino)</departure_name_airport><departure_coordinates_lon>12.250346</departure_coordinates_lon><departure_coordinates_lat>41.794594</departure_coordinates_lat><departure_country_code>IT</departure_country_code><departure_country_name>Italy</departure_country_name><departure_city_code>ROM</departure_city_code><departure_city_name>Rome</departure_city_name><arrival_airport_iata>BUD</arrival_airport_iata><arrival_name_airport>Liszt Ferenc International</arrival_name_airport><arrival_coordinates_lon>19.261621</arrival_coordinates_lon><arrival_coordinates_lat>47.433037</arrival_coordinates_lat><arrival_country_code>HU</arrival_country_code><arrival_country_name>Hungary</arrival_country_name><arrival_city_code>BUD</arrival_city_code><arrival_city_name>Budapest</arrival_city_name><planes>320</planes><plane_name>Airbus Industrie A320</plane_name></routes><routes><airline_iata>W6</airline_iata><departure_airport_iata>GSE</departure_airport_iata><departure_name_airport>Gothenburg City Airport</departure_name_airport><departure_coordinates_lon>11.864513</departure_coordinates_lon><departure_coordinates_lat>57.77775</departure_coordinates_lat><departure_country_code>SE</departure_country_code><departure_country_name>Sweden</departure_country_name><departure_city_code>GOT</departure_city_code><departure_city_name>Gothenburg</departure_city_name><arrival_airport_iata>BUD</arrival_airport_iata><arrival_name_airport>Liszt Ferenc International</arrival_name_airport><arrival_coordinates_lon>19.261621</arrival_coordinates_lon><arrival_coordinates_lat>47.433037</arrival_coordinates_lat><arrival_country_code>HU</arrival_country_code><arrival_country_name>Hungary</arrival_country_name><arrival_city_code>BUD</arrival_city_code><arrival_city_name>Budapest</arrival_city_name><planes>320</planes><plane_name>Airbus Industrie A320</plane_name></routes><routes><airline_iata>W6</airline_iata><departure_airport_iata>HHN</departure_airport_iata><departure_name_airport>Frankfurt-Hahn</departure_name_airport><departure_coordinates_lon>7.264167</departure_coordinates_lon><departure_coordinates_lat>49.948334</departure_coordinates_lat><departure_country_code>DE</departure_country_code><departure_country_name>Germany</departure_country_name><departure_city_code>FRA</departure_city_code><departure_city_name>Frankfurt</departure_city_name><arrival_airport_iata>BUD</arrival_airport_iata><arrival_name_airport>Liszt Ferenc International</arrival_name_airport><arrival_coordinates_lon>19.261621</arrival_coordinates_lon><arrival_coordinates_lat>47.433037</arrival_coordinates_lat><arrival_country_code>HU</arrival_country_code><arrival_country_name>Hungary</arrival_country_name><arrival_city_code>BUD</arrival_city_code><arrival_city_name>Budapest</arrival_city_name><planes>320</planes><plane_name>Airbus Industrie A320</plane_name></routes><routes><airline_iata>W6</airline_iata><departure_airport_iata>LCA</departure_airport_iata><departure_name_airport>Larnaca</departure_name_airport><departure_coordinates_lon>33.62599</departure_coordinates_lon><departure_coordinates_lat>34.880867</departure_coordinates_lat><departure_country_code>CY</departure_country_code><departure_country_name>Cyprus</departure_country_name><departure_city_code>LCA</departure_city_code><departure_city_name>Larnaca</departure_city_name><arrival_airport_iata>BUD</arrival_airport_iata><arrival_name_airport>Liszt Ferenc International</arrival_name_airport><arrival_coordinates_lon>19.261621</arrival_coordinates_lon><arrival_coordinates_lat>47.433037</arrival_coordinates_lat><arrival_country_code>HU</arrival_country_code><arrival_country_name>Hungary</arrival_country_name><arrival_city_code>BUD</arrival_city_code><arrival_city_name>Budapest</arrival_city_name><planes>320</planes><plane_name>Airbus Industrie A320</plane_name></routes><routes><airline_iata>W6</airline_iata><departure_airport_iata>LTN</departure_airport_iata><departure_name_airport>Luton Airport</departure_name_airport><departure_coordinates_lon>-0.376232</departure_coordinates_lon><departure_coordinates_lat>51.87977</departure_coordinates_lat><departure_country_code>GB</departure_country_code><departure_country_name>United Kingdom</departure_country_name><departure_city_code>LON</departure_city_code><departure_city_name>London</departure_city_name><arrival_airport_iata>BUD</arrival_airport_iata><arrival_name_airport>Liszt Ferenc International</arrival_name_airport><arrival_coordinates_lon>19.261621</arrival_coordinates_lon><arrival_coordinates_lat>47.433037</arrival_coordinates_lat><arrival_country_code>HU</arrival_country_code><arrival_country_name>Hungary</arrival_country_name><arrival_city_code>BUD</arrival_city_code><arrival_city_name>Budapest</arrival_city_name><planes>320</planes><plane_name>Airbus Industrie A320</plane_name></routes><routes><airline_iata>W6</airline_iata><departure_airport_iata>LTN</departure_airport_iata><departure_name_airport>Luton Airport</departure_name_airport><departure_coordinates_lon>-0.376232</departure_coordinates_lon><departure_coordinates_lat>51.87977</departure_coordinates_lat><departure_country_code>GB</departure_country_code><departure_country_name>United Kingdom</departure_country_name><departure_city_code>LON</departure_city_code><departure_city_name>London</departure_city_name><arrival_airport_iata>DEB</arrival_airport_iata><arrival_name_airport>Debrecen</arrival_name_airport><arrival_coordinates_lon>21.7</arrival_coordinates_lon><arrival_coordinates_lat>47.55</arrival_coordinates_lat><arrival_country_code>HU</arrival_country_code><arrival_country_name>Hungary</arrival_country_name><arrival_city_code>DEB</arrival_city_code><arrival_city_name>Debrecen</arrival_city_name><planes>320</planes><plane_name>Airbus Industrie A320</plane_name></routes><routes><airline_iata>W6</airline_iata><departure_airport_iata>MAD</departure_airport_iata><departure_name_airport>Barajas</departure_name_airport><departure_coordinates_lon>-3.570209</departure_coordinates_lon><departure_coordinates_lat>40.46515</departure_coordinates_lat><departure_country_code>ES</departure_country_code><departure_country_name>Spain</departure_country_name><departure_city_code>MAD</departure_city_code><departure_city_name>Madrid</departure_city_name><arrival_airport_iata>BUD</arrival_airport_iata><arrival_name_airport>Liszt Ferenc International</arrival_name_airport><arrival_coordinates_lon>19.261621</arrival_coordinates_lon><arrival_coordinates_lat>47.433037</arrival_coordinates_lat><arrival_country_code>HU</arrival_country_code><arrival_country_name>Hungary</arrival_country_name><arrival_city_code>BUD</arrival_city_code><arrival_city_name>Budapest</arrival_city_name><planes>320</planes><plane_name>Airbus Industrie A320</plane_name></routes><routes><airline_iata>W6</airline_iata><departure_airport_iata>MMX</departure_airport_iata><departure_name_airport>Sturup</departure_name_airport><departure_coordinates_lon>13.363727</departure_coordinates_lon><departure_coordinates_lat>55.538757</departure_coordinates_lat><departure_country_code>SE</departure_country_code><departure_country_name>Sweden</departure_country_name><departure_city_code>MMA</departure_city_code><departure_city_name>Malmo</departure_city_name><arrival_airport_iata>BUD</arrival_airport_iata><arrival_name_airport>Liszt Ferenc International</arrival_name_airport><arrival_coordinates_lon>19.261621</arrival_coordinates_lon><arrival_coordinates_lat>47.433037</arrival_coordinates_lat><arrival_country_code>HU</arrival_country_code><arrival_country_name>Hungary</arrival_country_name><arrival_city_code>BUD</arrival_city_code><arrival_city_name>Budapest</arrival_city_name><planes>320</planes><plane_name>Airbus Industrie A320</plane_name></routes><routes><airline_iata>W6</airline_iata><departure_airport_iata>MXP</departure_airport_iata><departure_name_airport>Milano Malpensa</departure_name_airport><departure_coordinates_lon>8.71237</departure_coordinates_lon><departure_coordinates_lat>45.627403</departure_coordinates_lat><departure_country_code>IT</departure_country_code><departure_country_name>Italy</departure_country_name><departure_city_code>MIL</departure_city_code><departure_city_name>Milan</departure_city_name><arrival_airport_iata>BUD</arrival_airport_iata><arrival_name_airport>Liszt Ferenc International</arrival_name_airport><arrival_coordinates_lon>19.261621</arrival_coordinates_lon><arrival_coordinates_lat>47.433037</arrival_coordinates_lat><arrival_country_code>HU</arrival_country_code><arrival_country_name>Hungary</arrival_country_name><arrival_city_code>BUD</arrival_city_code><arrival_city_name>Budapest</arrival_city_name><planes>320</planes><plane_name>Airbus Industrie A320</plane_name></routes><routes><airline_iata>W6</airline_iata><departure_airport_iata>NAP</departure_airport_iata><departure_name_airport>Capodichino</departure_name_airport><departure_coordinates_lon>14.291667</departure_coordinates_lon><departure_coordinates_lat>40.886112</departure_coordinates_lat><departure_country_code>IT</departure_country_code><departure_country_name>Italy</departure_country_name><departure_city_code>NAP</departure_city_code><departure_city_name>Napoli</departure_city_name><arrival_airport_iata>BUD</arrival_airport_iata><arrival_name_airport>Liszt Ferenc International</arrival_name_airport><arrival_coordinates_lon>19.261621</arrival_coordinates_lon><arrival_coordinates_lat>47.433037</arrival_coordinates_lat><arrival_country_code>HU</arrival_country_code><arrival_country_name>Hungary</arrival_country_name><arrival_city_code>BUD</arrival_city_code><arrival_city_name>Budapest</arrival_city_name><planes>320</planes><plane_name>Airbus Industrie A320</plane_name></routes><routes><airline_iata>W6</airline_iata><departure_airport_iata>NYO</departure_airport_iata><departure_name_airport>Skavsta</departure_name_airport><departure_coordinates_lon>16.922867</departure_coordinates_lon><departure_coordinates_lat>58.78425</departure_coordinates_lat><departure_country_code>SE</departure_country_code><departure_country_name>Sweden</departure_country_name><departure_city_code>STO</departure_city_code><departure_city_name>Stockholm</departure_city_name><arrival_airport_iata>BUD</arrival_airport_iata><arrival_name_airport>Liszt Ferenc International</arrival_name_airport><arrival_coordinates_lon>19.261621</arrival_coordinates_lon><arrival_coordinates_lat>47.433037</arrival_coordinates_lat><arrival_country_code>HU</arrival_country_code><arrival_country_name>Hungary</arrival_country_name><arrival_city_code>BUD</arrival_city_code><arrival_city_name>Budapest</arrival_city_name><planes>320</planes><plane_name>Airbus Industrie A320</plane_name></routes><routes><airline_iata>W6</airline_iata><departure_airport_iata>TGM</departure_airport_iata><departure_name_airport>Transilvania</departure_name_airport><departure_coordinates_lon>24.533333</departure_coordinates_lon><departure_coordinates_lat>46.533333</departure_coordinates_lat><departure_country_code>RO</departure_country_code><departure_country_name>Romania</departure_country_name><departure_city_code>TGM</departure_city_code><departure_city_name>Tirgu Mures</departure_city_name><arrival_airport_iata>BUD</arrival_airport_iata><arrival_name_airport>Liszt Ferenc International</arrival_name_airport><arrival_coordinates_lon>19.261621</arrival_coordinates_lon><arrival_coordinates_lat>47.433037</arrival_coordinates_lat><arrival_country_code>HU</arrival_country_code><arrival_country_name>Hungary</arrival_country_name><arrival_city_code>BUD</arrival_city_code><arrival_city_name>Budapest</arrival_city_name><planes>320</planes><plane_name>Airbus Industrie A320</plane_name></routes><routes><airline_iata>W6</airline_iata><departure_airport_iata>TKU</departure_airport_iata><departure_name_airport>Turku</departure_name_airport><departure_coordinates_lon>22.28098</departure_coordinates_lon><departure_coordinates_lat>60.512794</departure_coordinates_lat><departure_country_code>FI</departure_country_code><departure_country_name>Finland</departure_country_name><departure_city_code>TKU</departure_city_code><departure_city_name>Turku</departure_city_name><arrival_airport_iata>BUD</arrival_airport_iata><arrival_name_airport>Liszt Ferenc International</arrival_name_airport><arrival_coordinates_lon>19.261621</arrival_coordinates_lon><arrival_coordinates_lat>47.433037</arrival_coordinates_lat><arrival_country_code>HU</arrival_country_code><arrival_country_name>Hungary</arrival_country_name><arrival_city_code>BUD</arrival_city_code><arrival_city_name>Budapest</arrival_city_name><planes>320</planes><plane_name>Airbus Industrie A320</plane_name></routes><routes><airline_iata>W6</airline_iata><departure_airport_iata>WMI</departure_airport_iata><departure_name_airport>Modlin</departure_name_airport><departure_coordinates_lon>20.651667</departure_coordinates_lon><departure_coordinates_lat>52.45111</departure_coordinates_lat><departure_country_code>PL</dep