<?xml version="1.0" encoding="utf-8"?>
<route><routes><airline_iata>3U</airline_iata><departure_airport_iata>NNG</departure_airport_iata><departure_name_airport>Nanning</departure_name_airport><departure_coordinates_lon>108.1675</departure_coordinates_lon><departure_coordinates_lat>22.61321</departure_coordinates_lat><departure_country_code>CN</departure_country_code><departure_country_name>China</departure_country_name><departure_city_code>NNG</departure_city_code><departure_city_name>Nanning</departure_city_name><arrival_airport_iata>CGK</arrival_airport_iata><arrival_name_airport>Soekarno-Hatta International</arrival_name_airport><arrival_coordinates_lon>106.655525</arrival_coordinates_lon><arrival_coordinates_lat>-6.130643</arrival_coordinates_lat><arrival_country_code>ID</arrival_country_code><arrival_country_name>Indonesia</arrival_country_name><arrival_city_code>JKT</arrival_city_code><arrival_city_name>Jakarta</arrival_city_name><planes>320</planes><plane_name>Airbus Industrie A320</plane_name></routes><routes><airline_iata>5J</airline_iata><departure_airport_iata>MNL</departure_airport_iata><departure_name_airport>Ninoy Aquino International</departure_name_airport><departure_coordinates_lon>121.01251</departure_coordinates_lon><departure_coordinates_lat>14.509602</departure_coordinates_lat><departure_country_code>PH</departure_country_code><departure_country_name>Philippines</departure_country_name><departure_city_code>MNL</departure_city_code><departure_city_name>Manila</departure_city_name><arrival_airport_iata>CGK</arrival_airport_iata><arrival_name_airport>Soekarno-Hatta International</arrival_name_airport><arrival_coordinates_lon>106.655525</arrival_coordinates_lon><arrival_coordinates_lat>-6.130643</arrival_coordinates_lat><arrival_country_code>ID</arrival_country_code><arrival_country_name>Indonesia</arrival_country_name><arrival_city_code>JKT</arrival_city_code><arrival_city_name>Jakarta</arrival_city_name><planes>319</planes><plane_name>Airbus Industrie A319</plane_name></routes><routes><airline_iata>AF</airline_iata><departure_airport_iata>KUL</departure_airport_iata><departure_name_airport>Kuala Lumpur International Airport (klia)</departure_name_airport><departure_coordinates_lon>101.70539</departure_coordinates_lon><departure_coordinates_lat>2.755672</departure_coordinates_lat><departure_country_code>MY</departure_country_code><departure_country_name>Malaysia</departure_country_name><departure_city_code>KUL</departure_city_code><departure_city_name>Kuala Lumpur</departure_city_name><arrival_airport_iata>CGK</arrival_airport_iata><arrival_name_airport>Soekarno-Hatta International</arrival_name_airport><arrival_coordinates_lon>106.655525</arrival_coordinates_lon><arrival_coordinates_lat>-6.130643</arrival_coordinates_lat><arrival_country_code>ID</arrival_country_code><arrival_country_name>Indonesia</arrival_country_name><arrival_city_code>JKT</arrival_city_code><arrival_city_name>Jakarta</arrival_city_name><planes>777</planes><plane_name>Boeing 777</plane_name></routes><routes><airline_iata>AK</airline_iata><departure_airport_iata>BKI</departure_airport_iata><departure_name_airport>Kota-Kinabalu International Airport</departure_name_airport><departure_coordinates_lon>116.05075</departure_coordinates_lon><departure_coordinates_lat>5.923961</departure_coordinates_lat><departure_country_code>MY</departure_country_code><departure_country_name>Malaysia</departure_country_name><departure_city_code>BKI</departure_city_code><departure_city_name>Kota-Kinabalu</departure_city_name><arrival_airport_iata>CGK</arrival_airport_iata><arrival_name_airport>Soekarno-Hatta International</arrival_name_airport><arrival_coordinates_lon>106.655525</arrival_coordinates_lon><arrival_coordinates_lat>-6.130643</arrival_coordinates_lat><arrival_country_code>ID</arrival_country_code><arrival_country_name>Indonesia</arrival_country_name><arrival_city_code>JKT</arrival_city_code><arrival_city_name>Jakarta</arrival_city_name><planes>320</planes><plane_name>Airbus Industrie A320</plane_name></routes><routes><airline_iata>AK</airline_iata><departure_airport_iata>KUL</departure_airport_iata><departure_name_airport>Kuala Lumpur International Airport (klia)</departure_name_airport><departure_coordinates_lon>101.70539</departure_coordinates_lon><departure_coordinates_lat>2.755672</departure_coordinates_lat><departure_country_code>MY</departure_country_code><departure_country_name>Malaysia</departure_country_name><departure_city_code>KUL</departure_city_code><departure_city_name>Kuala Lumpur</departure_city_name><arrival_airport_iata>BDO</arrival_airport_iata><arrival_name_airport>Husein Sastranegara</arrival_name_airport><arrival_coordinates_lon>107.58178</arrival_coordinates_lon><arrival_coordinates_lat>-6.904648</arrival_coordinates_lat><arrival_country_code>ID</arrival_country_code><arrival_country_name>Indonesia</arrival_country_name><arrival_city_code>BDO</arrival_city_code><arrival_city_name>Bandung</arrival_city_name><planes>320</planes><plane_name>Airbus Industrie A320</plane_name></routes><routes><airline_iata>AK</airline_iata><departure_airport_iata>KUL</departure_airport_iata><departure_name_airport>Kuala Lumpur International Airport (klia)</departure_name_airport><departure_coordinates_lon>101.70539</departure_coordinates_lon><departure_coordinates_lat>2.755672</departure_coordinates_lat><departure_country_code>MY</departure_country_code><departure_country_name>Malaysia</departure_country_name><departure_city_code>KUL</departure_city_code><departure_city_name>Kuala Lumpur</departure_city_name><arrival_airport_iata>BPN</arrival_airport_iata><arrival_name_airport>Sepingan</arrival_name_airport><arrival_coordinates_lon>116.90082</arrival_coordinates_lon><arrival_coordinates_lat>-1.260623</arrival_coordinates_lat><arrival_country_code>ID</arrival_country_code><arrival_country_name>Indonesia</arrival_country_name><arrival_city_code>BPN</arrival_city_code><arrival_city_name>Balikpapan</arrival_city_name><planes>320</planes><plane_name>Airbus Industrie A320</plane_name></routes><routes><airline_iata>AK</airline_iata><departure_airport_iata>KUL</departure_airport_iata><departure_name_airport>Kuala Lumpur International Airport (klia)</departure_name_airport><departure_coordinates_lon>101.70539</departure_coordinates_lon><departure_coordinates_lat>2.755672</departure_coordinates_lat><departure_country_code>MY</departure_country_code><departure_country_name>Malaysia</departure_country_name><departure_city_code>KUL</departure_city_code><departure_city_name>Kuala Lumpur</departure_city_name><arrival_airport_iata>BTJ</arrival_airport_iata><arrival_name_airport>Sultan Iskandarmuda Airport</arrival_name_airport><arrival_coordinates_lon>95.41833</arrival_coordinates_lon><arrival_coordinates_lat>5.518021</arrival_coordinates_lat><arrival_country_code>ID</arrival_country_code><arrival_country_name>Indonesia</arrival_country_name><arrival_city_code>BTJ</arrival_city_code><arrival_city_name>Banda Aceh</arrival_city_name><planes>320</planes><plane_name>Airbus Industrie A320</plane_name></routes><routes><airline_iata>AK</airline_iata><departure_airport_iata>KUL</departure_airport_iata><departure_name_airport>Kuala Lumpur International Airport (klia)</departure_name_airport><departure_coordinates_lon>101.70539</departure_coordinates_lon><departure_coordinates_lat>2.755672</departure_coordinates_lat><departure_country_code>MY</departure_country_code><departure_country_name>Malaysia</departure_country_name><departure_city_code>KUL</departure_city_code><departure_city_name>Kuala Lumpur</departure_city_name><arrival_airport_iata>CGK</arrival_airport_iata><arrival_name_airport>Soekarno-Hatta International</arrival_name_airport><arrival_coordinates_lon>106.655525</arrival_coordinates_lon><arrival_coordinates_lat>-6.130643</arrival_coordinates_lat><arrival_country_code>ID</arrival_country_code><arrival_country_name>Indonesia</arrival_country_name><arrival_city_code>JKT</arrival_city_code><arrival_city_name>Jakarta</arrival_city_name><planes>320</planes><plane_name>Airbus Industrie A320</plane_name></routes><routes><airline_iata>AK</airline_iata><departure_airport_iata>KUL</departure_airport_iata><departure_name_airport>Kuala Lumpur International Airport (klia)</departure_name_airport><departure_coordinates_lon>101.70539</departure_coordinates_lon><departure_coordinates_lat>2.755672</departure_coordinates_lat><departure_country_code>MY</departure_country_code><departure_country_name>Malaysia</departure_country_name><departure_city_code>KUL</departure_city_code><departure_city_name>Kuala Lumpur</departure_city_name><arrival_airport_iata>DPS</arrival_airport_iata><arrival_name_airport>Ngurah Rai International</arrival_name_airport><arrival_coordinates_lon>115.16331</arrival_coordinates_lon><arrival_coordinates_lat>-8.74446</arrival_coordinates_lat><arrival_country_code>ID</arrival_country_code><arrival_country_name>Indonesia</arrival_country_name><arrival_city_code>DPS</arrival_city_code><arrival_city_name>Denpasar</arrival_city_name><planes>320</planes><plane_name>Airbus Industrie A320</plane_name></routes><routes><airline_iata>AK</airline_iata><departure_airport_iata>KUL</departure_airport_iata><departure_name_airport>Kuala Lumpur International Airport (klia)</departure_name_airport><departure_coordinates_lon>101.70539</departure_coordinates_lon><departure_coordinates_lat>2.755672</departure_coordinates_lat><departure_country_code>MY</departure_country_code><departure_country_name>Malaysia</departure_country_name><departure_city_code>KUL</departure_city_code><departure_city_name>Kuala Lumpur</departure_city_name><arrival_airport_iata>JOG</arrival_airport_iata><arrival_name_airport>Adisutjipto</arrival_name_airport><arrival_coordinates_lon>110.43706</arrival_coordinates_lon><arrival_coordinates_lat>-7.785572</arrival_coordinates_lat><arrival_country_code>ID</arrival_country_code><arrival_country_name>Indonesia</arrival_country_name><arrival_city_code>JOG</arrival_city_code><arrival_city_name>Yogyakarta</arrival_city_name><planes>320</planes><plane_name>Airbus Industrie A320</plane_name></routes><routes><airline_iata>AK</airline_iata><departure_airport_iata>KUL</departure_airport_iata><departure_name_airport>Kuala Lumpur International Airport (klia)</departure_name_airport><departure_coordinates_lon>101.70539</departure_coordinates_lon><departure_coordinates_lat>2.755672</departure_coordinates_lat><departure_country_code>MY</departure_country_code><departure_country_name>Malaysia</departure_country_name><departure_city_code>KUL</departure_city_code><departure_city_name>Kuala Lumpur</departure_city_name><arrival_airport_iata>LOP</arrival_airport_iata><arrival_name_airport>Lombok International</arrival_name_airport><arrival_coordinates_lon>116.27667</arrival_coordinates_lon><arrival_coordinates_lat>-8.757322</arrival_coordinates_lat><arrival_country_code>ID</arrival_country_code><arrival_country_name>Indonesia</arrival_country_name><arrival_city_code>LOP</arrival_city_code><arrival_city_name>Praya</arrival_city_name><planes>320</planes><plane_name>Airbus Industrie A320</plane_name></routes><routes><airline_iata>AK</airline_iata><departure_airport_iata>KUL</departure_airport_iata><departure_name_airport>Kuala Lumpur International Airport (klia)</departure_name_airport><departure_coordinates_lon>101.70539</departure_coordinates_lon><departure_coordinates_lat>2.755672</departure_coordinates_lat><departure_country_code>MY</departure_country_code><departure_country_name>Malaysia</departure_country_name><departure_city_code>KUL</departure_city_code><departure_city_name>Kuala Lumpur</departure_city_name><arrival_airport_iata>MES</arrival_airport_iata><arrival_name_airport>Polonia</arrival_name_airport><arrival_coordinates_lon>98.672775</arrival_coordinates_lon><arrival_coordinates_lat>3.561111</arrival_coordinates_lat><arrival_country_code>ID</arrival_country_code><arrival_country_name>Indonesia</arrival_country_name><arrival_city_code>MES</arrival_city_code><arrival_city_name>Medan</arrival_city_name><planes>320</planes><plane_name>Airbus Industrie A320</plane_name></routes><routes><airline_iata>AK</airline_iata><departure_airport_iata>KUL</departure_airport_iata><departure_name_airport>Kuala Lumpur International Airport (klia)</departure_name_airport><departure_coordinates_lon>101.70539</departure_coordinates_lon><departure_coordinates_lat>2.755672</departure_coordinates_lat><departure_country_code>MY</departure_country_code><departure_country_name>Malaysia</departure_country_name><departure_city_code>KUL</departure_city_code><departure_city_name>Kuala Lumpur</departure_city_name><arrival_airport_iata>PDG</arrival_airport_iata><arrival_name_airport>Minangkabau International Airport</arrival_name_airport><arrival_coordinates_lon>100.280556</arrival_coordinates_lon><arrival_coordinates_lat>-0.786667</arrival_coordinates_lat><arrival_country_code>ID</arrival_country_code><arrival_country_name>Indonesia</arrival_country_name><arrival_city_code>PDG</arrival_city_code><arrival_city_name>Padang</arrival_city_name><planes>320</planes><plane_name>Airbus Industrie A320</plane_name></routes><routes><airline_iata>AK</airline_iata><departure_airport_iata>KUL</departure_airport_iata><departure_name_airport>Kuala Lumpur International Airport (klia)</departure_name_airport><departure_coordinates_lon>101.70539</departure_coordinates_lon><departure_coordinates_lat>2.755672</departure_coordinates_lat><departure_country_code>MY</departure_country_code><departure_country_name>Malaysia</departure_country_name><departure_city_code>KUL</departure_city_code><departure_city_name>Kuala Lumpur</departure_city_name><arrival_airport_iata>PKU</arrival_airport_iata><arrival_name_airport>Sultan Syarif Kasim Ii</arrival_name_airport><arrival_coordinates_lon>101.446884</arrival_coordinates_lon><arrival_coordinates_lat>0.464563</arrival_coordinates_lat><arrival_country_code>ID</arrival_country_code><arrival_country_name>Indonesia</arrival_country_name><arrival_city_code>PKU</arrival_city_code><arrival_city_name>Pekanbaru</arrival_city_name><planes>320</planes><plane_name>Airbus Industrie A320</plane_name></routes><routes><airline_iata>AK</airline_iata><departure_airport_iata>KUL</departure_airport_iata><departure_name_airport>Kuala Lumpur International Airport (klia)</departure_name_airport><departure_coordinates_lon>101.70539</departure_coordinates_lon><departure_coordinates_lat>2.755672</departure_coordinates_lat><departure_country_code>MY</departure_country_code><departure_country_name>Malaysia</departure_country_name><departure_city_code>KUL</departure_city_code><departure_city_name>Kuala Lumpur</departure_city_name><arrival_airport_iata>PLM</arrival_airport_iata><arrival_name_airport>Mahmud Badaruddin Ii</arrival_name_airport><arrival_coordinates_lon>104.69861</arrival_coordinates_lon><arrival_coordinates_lat>-2.900146</arrival_coordinates_lat><arrival_country_code>ID</arrival_country_code><arrival_country_name>Indonesia</arrival_country_name><arrival_city_code>PLM</arrival_city_code><arrival_city_name>Palembang</arrival_city_name><planes>320</planes><plane_name>Airbus Industrie A320</plane_name></routes><routes><airline_iata>AK</airline_iata><departure_airport_iata>KUL</departure_airport_iata><departure_name_airport>Kuala Lumpur International Airport (klia)</departure_name_airport><departure_coordinates_lon>101.70539</departure_coordinates_lon><departure_coordinates_lat>2.755672</departure_coordinates_lat><departure_country_code>MY</departure_country_code><departure_country_name>Malaysia</departure_country_name><departure_city_code>KUL</departure_city_code><departure_city_name>Kuala Lumpur</departure_city_name><arrival_airport_iata>SRG</arrival_airport_iata><arrival_name_airport>Achmad Yani</arrival_name_airport><arrival_coordinates_lon>110.37855</arrival_coordinates_lon><arrival_coordinates_lat>-6.979155</arrival_coordinates_lat><arrival_country_code>ID</arrival_country_code><arrival_country_name>Indonesia</arrival_country_name><arrival_city_code>SRG</arrival_city_code><arrival_city_name>Semarang</arrival_city_name><planes>320</planes><plane_name>Airbus Industrie A320</plane_name></routes><routes><airline_iata>AK</airline_iata><departure_airport_iata>KUL</departure_airport_iata><departure_name_airport>Kuala Lumpur International Airport (klia)</departure_name_airport><departure_coordinates_lon>101.70539</departure_coordinates_lon><departure_coordinates_lat>2.755672</departure_coordinates_lat><departure_country_code>MY</departure_country_code><departure_country_name>Malaysia</departure_country_name><departure_city_code>KUL</departure_city_code><departure_city_name>Kuala Lumpur</departure_city_name><arrival_airport_iata>SUB</arrival_airport_iata><arrival_name_airport>Juanda</arrival_name_airport><arrival_coordinates_lon>112.77724</arrival_coordinates_lon><arrival_coordinates_lat>-7.38387</arrival_coordinates_lat><arrival_country_code>ID</arrival_country_code><arrival_country_name>Indonesia</arrival_country_name><arrival_city_code>SUB</arrival_city_code><arrival_city_name>Surabaya</arrival_city_name><planes>320</planes><plane_name>Airbus Industrie A320</plane_name></routes><routes><airline_iata>AK</airline_iata><departure_airport_iata>KUL</departure_airport_iata><departure_name_airport>Kuala Lumpur International Airport (klia)</departure_name_airport><departure_coordinates_lon>101.70539</departure_coordinates_lon><departure_coordinates_lat>2.755672</departure_coordinates_lat><departure_country_code>MY</departure_country_code><departure_country_name>Malaysia</departure_country_name><departure_city_code>KUL</departure_city_code><departure_city_name>Kuala Lumpur</departure_city_name><arrival_airport_iata>UPG</arrival_airport_iata><arrival_name_airport>Hasanudin</arrival_name_airport><arrival_coordinates_lon>119.54589</arrival_coordinates_lon><arrival_coordinates_lat>-5.058312</arrival_coordinates_lat><arrival_country_code>ID</arrival_country_code><arrival_country_name>Indonesia</arrival_country_name><arrival_city_code>UPG</arrival_city_code><arrival_city_name>Ujung Pandang</arrival_city_name><planes>320</planes><plane_name>Airbus Industrie A320</plane_name></routes><routes><airline_iata>AK</airline_iata><departure_airport_iata>PEN</departure_airport_iata><departure_name_airport>Penang International</departure_name_airport><departure_coordinates_lon>100.265175</departure_coordinates_lon><departure_coordinates_lat>5.292961</departure_coordinates_lat><departure_country_code>MY</departure_country_code><departure_country_name>Malaysia</departure_country_name><departure_city_code>PEN</departure_city_code><departure_city_name>Penang</departure_city_name><arrival_airport_iata>MES</arrival_airport_iata><arrival_name_airport>Polonia</arrival_name_airport><arrival_coordinates_lon>98.672775</arrival_coordinates_lon><arrival_coordinates_lat>3.561111</arrival_coordinates_lat><arrival_country_code>ID</arrival_country_code><arrival_country_name>Indonesia</arrival_country_name><arrival_city_code>MES</arrival_city_code><arrival_city_name>Medan</arrival_city_name><planes>320</planes><plane_name>Airbus Industrie A320</plane_name></routes><routes><airline_iata>BI</airline_iata><departure_airport_iata>BWN</departure_airport_iata><departure_name_airport>Bandar Seri Begwan International Airport</departure_name_airport><departure_coordinates_lon>114.93375</departure_coordinates_lon><departure_coordinates_lat>4.945197</departure_coordinates_lat><departure_country_code>BN</departure_country_code><departure_country_name>Brunei</departure_country_name><departure_city_code>BWN</departure_city_code><departure_city_name>Bandar Seri Begawan</departure_city_name><arrival_airport_iata>CGK</arrival_airport_iata><arrival_name_airport>Soekarno-Hatta International</arrival_name_airport><arrival_coordinates_lon>106.655525</arrival_coordinates_lon><arrival_coordinates_lat>-6.130643</arrival_coordinates_lat><arrival_country_code>ID</arrival_country_code><arrival_country_name>Indonesia</arrival_country_name><arrival_city_code>JKT</arrival_city_code><arrival_city_name>Jakarta</arrival_city_name><planes>320</planes><plane_name>Airbus Industrie A320</plane_name></routes><routes><airline_iata>BI</airline_iata><departure_airport_iata>BWN</departure_airport_iata><departure_name_airport>Bandar Seri Begwan International Airport</departure_name_airport><departure_coordinates_lon>114.93375</departure_coordinates_lon><departure_coordinates_lat>4.945197</departure_coordinates_lat><departure_country_code>BN</departure_country_code><departure_country_name>Brunei</departure_country_name><departure_city_code>BWN</departure_city_code><departure_city_name>Bandar Seri Begawan</departure_city_name><arrival_airport_iata>SUB</arrival_airport_iata><arrival_name_airport>Juanda</arrival_name_airport><arrival_coordinates_lon>112.77724</arrival_coordinates_lon><arrival_coordinates_lat>-7.38387</arrival_coordinates_lat><arrival_country_code>ID</arrival_country_code><arrival_country_name>Indonesia</arrival_country_name><arrival_city_code>SUB</arrival_city_code><arrival_city_name>Surabaya</arrival_city_name><planes>320</planes><plane_name>Airbus Industrie A320</plane_name></routes><routes><airline_iata>BR</airline_iata><departure_airport_iata>TPE</departure_airport_iata><departure_name_airport>Taiwan Taoyuan International (Chiang Kai Shek International)</departure_name_airport><departure_coordinates_lon>121.22389</departure_coordinates_lon><departure_coordinates_lat>25.07639</departure_coordinates_lat><departure_country_code>TW</departure_country_code><departure_country_name>Taiwan</departure_country_name><departure_city_code>TPE</departure_city_code><departure_city_name>Taipei</departure_city_name><arrival_airport_iata>CGK</arrival_airport_iata><arrival_name_airport>Soekarno-Hatta International</arrival_name_airport><arrival_coordinates_lon>106.655525</arrival_coordinates_lon><arrival_coordinates_lat>-6.130643</arrival_coordinates_lat><arrival_country_code>ID</arrival_country_code><arrival_country_name>Indonesia</arrival_country_name><arrival_city_code>JKT</arrival_city_code><arrival_city_name>Jakarta</arrival_city_name><planes>332</planes><plane_name>Airbus Industrie A330-200</plane_name></routes><routes><airline_iata>BR</airline_iata><departure_airport_iata>TPE</departure_airport_iata><departure_name_airport>Taiwan Taoyuan International (Chiang Kai Shek International)</departure_name_airport><departure_coordinates_lon>121.22389</departure_coordinates_lon><departure_coordinates_lat>25.07639</departure_coordinates_lat><departure_country_code>TW</departure_country_code><departure_country_name>Taiwan</departure_country_name><departure_city_code>TPE</departure_city_code><departure_city_name>Taipei</departure_city_name><arrival_airport_iata>DPS</arrival_airport_iata><arrival_name_airport>Ngurah Rai International</arrival_name_airport><arrival_coordinates_lon>115.16331</arrival_coordinates_lon><arrival_coordinates_lat>-8.74446</arrival_coordinates_lat><arrival_country_code>ID</arrival_country_code><arrival_country_name>Indonesia</arrival_country_name><arrival_city_code>DPS</arrival_city_code><arrival_city_name>Denpasar</arrival_city_name><planes>332</planes><plane_name>Airbus Industrie A330-200</plane_name></routes><routes><airline_iata>BR</airline_iata><departure_airport_iata>TPE</departure_airport_iata><departure_name_airport>Taiwan Taoyuan International (Chiang Kai Shek International)</departure_name_airport><departure_coordinates_lon>121.22389</departure_coordinates_lon><departure_coordinates_lat>25.07639</departure_coordinates_lat><departure_country_code>TW</departure_country_code><departure_country_name>Taiwan</departure_country_name><departure_city_code>TPE</departure_city_code><departure_city_name>Taipei</departure_city_name><arrival_airport_iata>SUB</arrival_airport_iata><arrival_name_airport>Juanda</arrival_name_airport><arrival_coordinates_lon>112.77724</arrival_coordinates_lon><arrival_coordinates_lat>-7.38387</arrival_coordinates_lat><arrival_country_code>ID</arrival_country_code><arrival_country_name>Indonesia</arrival_country_name><arrival_city_code>SUB</arrival_city_code><arrival_city_name>Surabaya</arrival_city_name><planes>332</planes><plane_name>Airbus Industrie A330-200</plane_name></routes><routes><airline_iata>CA</airline_iata><departure_airport_iata>XMN</departure_airport_iata><departure_name_airport>Xiamen</departure_name_airport><departure_coordinates_lon>118.1275</departure_coordinates_lon><departure_coordinates_lat>24.536882</departure_coordinates_lat><departure_country_code>CN</departure_country_code><departure_country_name>China</departure_country_name><departure_city_code>XMN</departure_city_code><departure_city_name>Xiamen</departure_city_name><arrival_airport_iata>CGK</arrival_airport_iata><arrival_name_airport>Soekarno-Hatta International</arrival_name_airport><arrival_coordinates_lon>106.655525</arrival_coordinates_lon><arrival_coordinates_lat>-6.130643</arrival_coordinates_lat><arrival_country_code>ID</arrival_country_code><arrival_country_name>Indonesia</arrival_country_name><arrival_city_code>JKT</arrival_city_code><arrival_city_name>Jakarta</arrival_city_name><planes>738</planes><plane_name>Boeing 737-800</plane_name></routes><routes><airline_iata>CI</airline_iata><departure_airport_iata>HKG</departure_airport_iata><departure_name_airport>Hong Kong International</departure_name_airport><departure_coordinates_lon>113.93649</departure_coordinates_lon><departure_coordinates_lat>22.315248</departure_coordinates_lat><departure_country_code>HK</departure_country_code><departure_country_name>Hong Kong</departure_country_name><departure_city_code>HKG</departure_city_code><departure_city_name>Hong Kong</departure_city_name><arrival_airport_iata>CGK</arrival_airport_iata><arrival_name_airport>Soekarno-Hatta International</arrival_name_airport><arrival_coordinates_lon>106.655525</arrival_coordinates_lon><arrival_coordinates_lat>-6.130643</arrival_coordinates_lat><arrival_country_code>ID</arrival_country_code><arrival_country_name>Indonesia</arrival_country_name><arrival_city_code>JKT</arrival_city_code><arrival_city_name>Jakarta</arrival_city_name><planes>333</planes><plane_name>Airbus Industrie A330-300</plane_name></routes><routes><airline_iata>CI</airline_iata><departure_airport_iata>SIN</departure_airport_iata><departure_name_airport>Singapore Changi</departure_name_airport><departure_coordinates_lon>103.990204</departure_coordinates_lon><departure_coordinates_lat>1.361173</departure_coordinates_lat><departure_country_code>SG</departure_country_code><departure_country_name>Singapore</departure_country_name><departure_city_code>SIN</departure_city_code><departure_city_name>Singapore</departure_city_name><arrival_airport_iata>SUB</arrival_airport_iata><arrival_name_airport>Juanda</arrival_name_airport><arrival_coordinates_lon>112.77724</arrival_coordinates_lon><arrival_coordinates_lat>-7.38387</arrival_coordinates_lat><arrival_country_code>ID</arrival_country_code><arrival_country_name>Indonesia</arrival_country_name><arrival_city_code>SUB</arrival_city_code><arrival_city_name>Surabaya</arrival_city_name><planes>333</planes><plane_name>Airbus Industrie A330-300</plane_name></routes><routes><airline_iata>CI</airline_iata><departure_airport_iata>TPE</departure_airport_iata><departure_name_airport>Taiwan Taoyuan International (Chiang Kai Shek International)</departure_name_airport><departure_coordinates_lon>121.22389</departure_coordinates_lon><departure_coordinates_lat>25.07639</departure_coordinates_lat><departure_country_code>TW</departure_country_code><departure_country_name>Taiwan</departure_country_name><departure_city_code>TPE</departure_city_code><departure_city_name>Taipei</departure_city_name><arrival_airport_iata>CGK</arrival_airport_iata><arrival_name_airport>Soekarno-Hatta International</arrival_name_airport><arrival_coordinates_lon>106.655525</arrival_coordinates_lon><arrival_coordinates_lat>-6.130643</arrival_coordinates_lat><arrival_country_code>ID</arrival_country_code><arrival_country_name>Indonesia</arrival_country_name><arrival_city_code>JKT</arrival_city_code><arrival_city_name>Jakarta</arrival_city_name><planes>343</planes><plane_name>Airbus Industrie A340-300</plane_name></routes><routes><airline_iata>CI</airline_iata><departure_airport_iata>TPE</departure_airport_iata><departure_name_airport>Taiwan Taoyuan International (Chiang Kai Shek International)</departure_name_airport><departure_coordinates_lon>121.22389</departure_coordinates_lon><departure_coordinates_lat>25.07639</departure_coordinates_lat><departure_country_code>TW</departure_country_code><departure_country_name>Taiwan</departure_country_name><departure_city_code>TPE</departure_city_code><departure_city_name>Taipei</departure_city_name><arrival_airport_iata>DPS</arrival_airport_iata><arrival_name_airport>Ngurah Rai International</arrival_name_airport><arrival_coordinates_lon>115.16331</arrival_coordinates_lon><arrival_coordinates_lat>-8.74446</arrival_coordinates_lat><arrival_country_code>ID</arrival_country_code><arrival_country_name>Indonesia</arrival_country_name><arrival_city_code>DPS</arrival_city_code><arrival_city_name>Denpasar</arrival_city_name><planes>333</planes><plane_name>Airbus Industrie A330-300</plane_name></routes><routes><airline_iata>CX</airline_iata><departure_airport_iata>HKG</departure_airport_iata><departure_name_airport>Hong Kong International</departure_name_airport><departure_coordinates_lon>113.93649</departure_coordinates_lon><departure_coordinates_lat>22.315248</departure_coordinates_lat><departure_country_code>HK</departure_country_code><departure_country_name>Hong Kong</departure_country_name><departure_city_code>HKG</departure_city_code><departure_city_name>Hong Kong</departure_city_name><arrival_airport_iata>CGK</arrival_airport_iata><arrival_name_airport>Soekarno-Hatta International</arrival_name_airport><arrival_coordinates_lon>106.655525</arrival_coordinates_lon><arrival_coordinates_lat>-6.130643</arrival_coordinates_lat><arrival_country_code>ID</arrival_country_code><arrival_country_name>Indonesia</arrival_country_name><arrival_city_code>JKT</arrival_city_code><arrival_city_name>Jakarta</arrival_city_name><planes>772</planes><plane_name>Boeing 777-200/200ER</plane_name></routes><routes><airline_iata>CX</airline_iata><departure_airport_iata>HKG</departure_airport_iata><departure_name_airport>Hong Kong International</departure_name_airport><departure_coordinates_lon>113.93649</departure_coordinates_lon><departure_coordinates_lat>22.315248</departure_coordinates_lat><departure_country_code>HK</departure_country_code><departure_country_name>Hong Kong</departure_country_name><departure_city_code>HKG</departure_city_code><departure_city_name>Hong Kong</departure_city_name><arrival_airport_iata>DPS</arrival_airport_iata><arrival_name_airport>Ngurah Rai International</arrival_name_airport><arrival_coordinates_lon>115.16331</arrival_coordinates_lon><arrival_coordinates_lat>-8.74446</arrival_coordinates_lat><arrival_country_code>ID</arrival_country_code><arrival_country_name>Indonesia</arrival_country_name><arrival_city_code>DPS</arrival_city_code><arrival_city_name>Denpasar</arrival_city_name><planes>744</planes><plane_name>Boeing 747-400</plane_name></routes><routes><airline_iata>CX</airline_iata><departure_airport_iata>HKG</departure_airport_iata><departure_name_airport>Hong Kong International</departure_name_airport><departure_coordinates_lon>113.93649</departure_coordinates_lon><departure_coordinates_lat>22.315248</departure_coordinates_lat><departure_country_code>HK</departure_country_code><departure_country_name>Hong Kong</departure_country_name><departure_city_code>HKG</departure_city_code><departure_city_name>Hong Kong</departure_city_name><arrival_airport_iata>SUB</arrival_airport_iata><arrival_name_airport>Juanda</arrival_name_airport><arrival_coordinates_lon>112.77724</arrival_coordinates_lon><arrival_coordinates_lat>-7.38387</arrival_coordinates_lat><arrival_country_code>ID</arrival_country_code><arrival_country_name>Indonesia</arrival_country_name><arrival_city_code>SUB</arrival_city_code><arrival_city_name>Surabaya</arrival_city_name><planes>333</planes><plane_name>Airbus Industrie A330-300</plane_name></routes><routes><airline_iata>CZ</airline_iata><departure_airport_iata>CAN</departure_airport_iata><departure_name_airport>Guangzhou Baiyun International</departure_name_airport><departure_coordinates_lon>113.29734</departure_coordinates_lon><departure_coordinates_lat>23.387861</departure_coordinates_lat><departure_country_code>CN</departure_country_code><departure_country_name>China</departure_country_name><departure_city_code>CAN</departure_city_code><departure_city_name>Guangzhou</departure_city_name><arrival_airport_iata>CGK</arrival_airport_iata><arrival_name_airport>Soekarno-Hatta International</arrival_name_airport><arrival_coordinates_lon>106.655525</arrival_coordinates_lon><arrival_coordinates_lat>-6.130643</arrival_coordinates_lat><arrival_country_code>ID</arrival_country_code><arrival_country_name>Indonesia</arrival_country_name><arrival_city_code>JKT</arrival_city_code><arrival_city_name>Jakarta</arrival_city_name><planes>320</planes><plane_name>Airbus Industrie A320</plane_name></routes><routes><airline_iata>CZ</airline_iata><departure_airport_iata>CAN</departure_airport_iata><departure_name_airport>Guangzhou Baiyun International</departure_name_airport><departure_coordinates_lon>113.29734</departure_coordinates_lon><departure_coordinates_lat>23.387861</departure_coordinates_lat><departure_country_code>CN</departure_country_code><departure_country_name>China</departure_country_name><departure_city_code>CAN</departure_city_code><departure_city_name>Guangzhou</departure_city_name><arrival_airport_iata>CGK</arrival_airport_iata><arrival_name_airport>Soekarno-Hatta International</arrival_name_airport><arrival_coordinates_lon>106.655525</arrival_coordinates_lon><arrival_coordinates_lat>-6.130643</arrival_coordinates_lat><arrival_country_code>ID</arrival_country_code><arrival_country_name>Indonesia</arrival_country_name><arrival_city_code>JKT</arrival_city_code><arrival_city_name>Jakarta</arrival_city_name><planes>738</planes><plane_name>Boeing 737-800</plane_name></routes><routes><airline_iata>DJ</airline_iata><departure_airport_iata>ADL</departure_airport_iata><departure_name_airport>Adelaide International Airport</departure_name_airport><departure_coordinates_lon>138.53735</departure_coordinates_lon><departure_coordinates_lat>-34.938175</departure_coordinates_lat><departure_country_code>AU</departure_country_code><departure_country_name>Australia</departure_country_name><departure_city_code>ADL</departure_city_code><departure_city_name>Adelaide</departure_city_name><arrival_airport_iata>DPS</arrival_airport_iata><arrival_name_airport>Ngurah Rai International</arrival_name_airport><arrival_coordinates_lon>115.16331</arrival_coordinates_lon><arrival_coordinates_lat>-8.74446</arrival_coordinates_lat><arrival_country_code>ID</arrival_country_code><arrival_country_name>Indonesia</arrival_country_name><arrival_city_code>DPS</arrival_city_code><arrival_city_name>Denpasar</arrival_city_name><planes>73H</planes><plane_name>Boeing 737-800 With Winglets</plane_name></routes><routes><airline_iata>DJ</airline_iata><departure_airport_iata>BNE</departure_airport_iata><departure_name_airport>Brisbane International</departure_name_airport><departure_coordinates_lon>153.10905</departure_coordinates_lon><departure_coordinates_lat>-27.40303</departure_coordinates_lat><departure_country_code>AU</departure_country_code><departure_country_name>Australia</departure_country_name><departure_city_code>BNE</departure_city_code><departure_city_name>Brisbane</departure_city_name><arrival_airport_iata>DPS</arrival_airport_iata><arrival_name_airport>Ngurah Rai International</arrival_name_airport><arrival_coordinates_lon>115.16331</arrival_coordinates_lon><arrival_coordinates_lat>-8.74446</arrival_coordinates_lat><arrival_country_code>ID</arrival_country_code><arrival_country_name>Indonesia</arrival_country_name><arrival_city_code>DPS</arrival_city_code><arrival_city_name>Denpasar</arrival_city_name><planes>73H</planes><plane_name>Boeing 737-800 With Winglets</plane_name></routes><routes><airline_iata>DJ</airline_iata><departure_airport_iata>MEL</departure_airport_iata><departure_name_airport>Tullamarine</departure_name_airport><departure_coordinates_lon>144.84978</departure_coordinates_lon><departure_coordinates_lat>-37.669613</departure_coordinates_lat><departure_country_code>AU</departure_country_code><departure_country_name>Australia</departure_country_name><departure_city_code>MEL</departure_city_code><departure_city_name>Melbourne</departure_city_name><arrival_airport_iata>DPS</arrival_airport_iata><arrival_name_airport>Ngurah Rai International</arrival_name_airport><arrival_coordinates_lon>115.16331</arrival_coordinates_lon><arrival_coordinates_lat>-8.74446</arrival_coordinates_lat><arrival_country_code>ID</arrival_country_code><arrival_country_name>Indonesia</arrival_country_name><arrival_city_code>DPS</arrival_city_code><arrival_city_name>Denpasar</arrival_city_name><planes>73H</planes><plane_name>Boeing 737-800 With Winglets</plane_name></routes><routes><airline_iata>DJ</airline_iata><departure_airport_iata>PER</departure_airport_iata><departure_name_airport>Perth International</departure_name_airport><departure_coordinates_lon>115.960236</departure_coordinates_lon><departure_coordinates_lat>-31.933603</departure_coordinates_lat><departure_country_code>AU</departure_country_code><departure_country_name>Australia</departure_country_name><departure_city_code>PER</departure_city_code><departure_city_name>Perth</departure_city_name><arrival_airport_iata>DPS</arrival_airport_iata><arrival_name_airport>Ngurah Rai International</arrival_name_airport><arrival_coordinates_lon>115.16331</arrival_coordinates_lon><arrival_coordinates_lat>-8.74446</arrival_coordinates_lat><arrival_country_code>ID</arrival_country_code><arrival_country_name>Indonesia</arrival_country_name><arrival_city_code>DPS</arrival_city_code><arrival_city_name>Denpasar</arrival_city_name><planes>73H</planes><plane_name>Boeing 737-800 With Winglets</plane_name></routes><routes><airline_iata>DJ</airline_iata><departure_airport_iata>SYD</departure_airport_iata><departure_name_airport>Kingsford Smith</departure_name_airport><departure_coordinates_lon>151.1799</departure_coordinates_lon><departure_coordinates_lat>-33.932922</departure_coordinates_lat><departure_country_code>AU</departure_country_code><departure_country_name>Australia</departure_country_name><departure_city_code>SYD</departure_city_code><departure_city_name>Sydney</departure_city_name><arrival_airport_iata>DPS</arrival_airport_iata><arrival_name_airport>Ngurah Rai International</arrival_name_airport><arrival_coordinates_lon>115.16331</arrival_coordinates_lon><arrival_coordinates_lat>-8.74446</arrival_coordinates_lat><arrival_country_code>ID</arrival_country_code><arrival_country_name>Indonesia</arrival_country_name><arrival_city_code>DPS</arrival_city_code><arrival_city_name>Denpasar</arrival_city_name><planes>73H</planes><plane_name>Boeing 737-800 With Winglets</plane_name></routes><routes><airline_iata>EK</airline_iata><departure_airport_iata>DXB</departure_airport_iata><departure_name_airport>Dubai</departure_name_airport><departure_coordinates_lon>55.352917</departure_coordinates_lon><departure_coordinates_lat>25.248665</departure_coordinates_lat><departure_country_code>AE</departure_country_code><departure_country_name>United Arab Emirates</departure_country_name><departure_city_code>DXB</departure_city_code><departure_city_name>Dubai</departure_city_name><arrival_airport_iata>CGK</arrival_airport_iata><arrival_name_airport>Soekarno-Hatta International</arrival_name_airport><arrival_coordinates_lon>106.655525</arrival_coordinates_lon><arrival_coordinates_lat>-6.130643</arrival_coordinates_lat><arrival_country_code>ID</arrival_country_code><arrival_country_name>Indonesia</arrival_country_name><arrival_city_code>JKT</arrival_city_code><arrival_city_name>Jakarta</arrival_city_name><planes>77W</planes><plane_name>Boeing 777-300ER</plane_name></routes><routes><airline_iata>EY</airline_iata><departure_airport_iata>AUH</departure_airport_iata><departure_name_airport>Abu Dhabi International</departure_name_airport><departure_coordinates_lon>54.645973</departure_coordinates_lon><departure_coordinates_lat>24.426912</departure_coordinates_lat><departure_country_code>AE</departure_country_code><departure_country_name>United Arab Emirates</departure_country_name><departure_city_code>AUH</departure_city_code><departure_city_name>Abu Dhabi</departure_city_name><arrival_airport_iata>CGK</arrival_airport_iata><arrival_name_airport>Soekarno-Hatta International</arrival_name_airport><arrival_coordinates_lon>106.655525</arrival_coordinates_lon><arrival_coordinates_lat>-6.130643</arrival_coordinates_lat><arrival_country_code>ID</arrival_country_code><arrival_country_name>Indonesia</arrival_country_name><arrival_city_code>JKT</arrival_city_code><arrival_city_name>Jakarta</arrival_city_name><planes>77W</planes><plane_name>Boeing 777-300ER</plane_name></routes><routes><airline_iata>FD</airline_iata><departure_airport_iata>DMK</departure_airport_iata><departure_name_airport>Don Muang</departure_name_airport><departure_coordinates_lon>100.60667</departure_coordinates_lon><departure_coordinates_lat>13.9125</departure_coordinates_lat><departure_country_code>TH</departure_country_code><departure_country_name>Thailand</departure_country_name><departure_city_code>BKK</departure_city_code><departure_city_name>Bangkok</departure_city_name><arrival_airport_iata>DPS</arrival_airport_iata><arrival_name_airport>Ngurah Rai International</arrival_name_airport><arrival_coordinates_lon>115.16331</arrival_coordinates_lon><arrival_coordinates_lat>-8.74446</arrival_coordinates_lat><arrival_country_code>ID</arrival_country_code><arrival_country_name>Indonesia</arrival_country_name><arrival_city_code>DPS</arrival_city_code><arrival_city_name>Denpasar</arrival_city_name><planes>320</planes><plane_name>Airbus Industrie A320</plane_name></routes><routes><airline_iata>FY</airline_iata><departure_airport_iata>PEN</departure_airport_iata><departure_name_airport>Penang International</departure_name_airport><departure_coordinates_lon>100.265175</departure_coordinates_lon><departure_coordinates_lat>5.292961</departure_coordinates_lat><departure_country_code>MY</departure_country_code><departure_country_name>Malaysia</departure_country_name><departure_city_code>PEN</departure_city_code><departure_city_name>Penang</departure_city_name><arrival_airport_iata>BTJ</arrival_airport_iata><arrival_name_airport>Sultan Iskandarmuda Airport</arrival_name_airport><arrival_coordinates_lon>95.41833</arrival_coordinates_lon><arrival_coordinates_lat>5.518021</arrival_coordinates_lat><arrival_country_code>ID</arrival_country_code><arrival_country_name>Indonesia</arrival_country_name><arrival_city_code>BTJ</arrival_city_code><arrival_city_name>Banda Aceh</arrival_city_name><planes>AT7</planes><plane_name>Aerospatiale/Alenia ATR 72</plane_name></routes><routes><airline_iata>FY</airline_iata><departure_airport_iata>PEN</departure_airport_iata><departure_name_airport>Penang International</departure_name_airport><departure_coordinates_lon>100.265175</departure_coordinates_lon><departure_coordinates_lat>5.292961</departure_coordinates_lat><departure_country_code>MY</departure_country_code><departure_country_name>Malaysia</departure_country_name><departure_city_code>PEN</departure_city_code><departure_city_name>Penang</departure_city_name><arrival_airport_iata>MES</arrival_airport_iata><arrival_name_airport>Polonia</arrival_name_airport><arrival_coordinates_lon>98.672775</arrival_coordinates_lon><arrival_coordinates_lat>3.561111</arrival_coordinates_lat><arrival_country_code>ID</arrival_country_code><arrival_country_name>Indonesia</arrival_country_name><arrival_city_code>MES</arrival_city_code><arrival_city_name>Medan</arrival_city_name><planes>AT7</planes><plane_name>Aerospatiale/Alenia ATR 72</plane_name></routes><routes><airline_iata>FY</airline_iata><departure_airport_iata>SZB</departure_airport_iata><departure_name_airport>Sultan Abdul Aziz Shah</departure_name_airport><departure_coordinates_lon>101.558075</departure_coordinates_lon><departure_coordinates_lat>3.130644</departure_coordinates_lat><departure_country_code>MY</departure_country_code><departure_country_name>Malaysia</departure_country_name><departure_city_code>KUL</departure_city_code><departure_city_name>Kuala Lumpur</departure_city_name><arrival_airport_iata>BTH</arrival_airport_iata><arrival_name_airport>Hang Nadim</arrival_name_airport><arrival_coordinates_lon>104.11528</arrival_coordinates_lon><arrival_coordinates_lat>1.123627</arrival_coordinates_lat><arrival_country_code>ID</arrival_country_code><arrival_country_name>Indonesia</arrival_country_name><arrival_city_code>BTH</arrival_city_code><arrival_city_name>Batam</arrival_city_name><planes>AT7</planes><plane_name>Aerospatiale/Alenia ATR 72</plane_name></routes><routes><airline_iata>FY</airline_iata><departure_airport_iata>SZB</departure_airport_iata><departure_name_airport>Sultan Abdul Aziz Shah</departure_name_airport><departure_coordinates_lon>101.558075</departure_coordinates_lon><departure_coordinates_lat>3.130644</departure_coordinates_lat><departure_country_code>MY</departure_country_code><departure_country_name>Malaysia</departure_country_name><departure_city_code>KUL</departure_city_code><departure_city_name>Kuala Lumpur</departure_city_name><arrival_airport_iata>MES</arrival_airport_iata><arrival_name_airport>Polonia</arrival_name_airport><arrival_coordinates_lon>98.672775</arrival_coordinates_lon><arrival_coordinates_lat>3.561111</arrival_coordinates_lat><arrival_country_code>ID</arrival_country_code><arrival_country_name>Indonesia</arrival_country_name><arrival_city_code>MES</arrival_city_code><arrival_city_name>Medan</arrival_city_name><planes>AT7</planes><plane_name>Aerospatiale/Alenia ATR 72</plane_name></routes><routes><airline_iata>FY</airline_iata><departure_airport_iata>SZB</departure_airport_iata><departure_name_airport>Sultan Abdul Aziz Shah</departure_name_airport><departure_coordinates_lon>101.558075</departure_coordinates_lon><departure_coordinates_lat>3.130644</departure_coordinates_lat><departure_country_code>MY</departure_country_code><departure_country_name>Malaysia</departure_country_name><departure_city_code>KUL</departure_city_code><departure_city_name>Kuala Lumpur</departure_city_name><arrival_airport_iata>PKU</arrival_airport_iata><arrival_name_airport>Sultan Syarif Kasim Ii</arrival_name_airport><arrival_coordinates_lon>101.446884</arrival_coordinates_lon><arrival_coordinates_lat>0.464563</arrival_coordinates_lat><arrival_country_code>ID</arrival_country_code><arrival_country_name>Indonesia</arrival_country_name><arrival_city_code>PKU</arrival_city_code><arrival_city_name>Pekanbaru</arrival_city_name><planes>AT7</planes><plane_name>Aerospatiale/Alenia ATR 72</plane_name></routes><routes><airline_iata>GA</airline_iata><departure_airport_iata>AMQ</departure_airport_iata><departure_name_airport>Pattimura</departure_name_airport><departure_coordinates_lon>128.08888</departure_coordinates_lon><departure_coordinates_lat>-3.704996</departure_coordinates_lat><departure_country_code>ID</departure_country_code><departure_country_name>Indonesia</departure_country_name><departure_city_code>AMQ</departure_city_code><departure_city_name>Ambon</departure_city_name><arrival_airport_iata>UPG</arrival_airport_iata><arrival_name_airport>Hasanudin</arrival_name_airport><arrival_coordinates_lon>119.54589</arrival_coordinates_lon><arrival_coordinates_lat>-5.058312</arrival_coordinates_lat><arrival_country_code>ID</arrival_country_code><arrival_country_name>Indonesia</arrival_country_name><arrival_city_code>UPG</arrival_city_code><arrival_city_name>Ujung Pandang</arrival_city_name><planes>738</planes><plane_name>Boeing 737-800</plane_name></routes><routes><airline_iata>GA</airline_iata><departure_airport_iata>BDJ</departure_airport_iata><departure_name_airport>Sjamsudin Noor</departure_name_airport><departure_coordinates_lon>114.75425</departure_coordinates_lon><departure_coordinates_lat>-3.43804</departure_coordinates_lat><departure_country_code>ID</departure_country_code><departure_country_name>Indonesia</departure_country_name><departure_city_code>BDJ</departure_city_code><departure_city_name>Banjarmasin</departure_city_name><arrival_airport_iata>CGK</arrival_airport_iata><arrival_name_airport>Soekarno-Hatta International</arrival_name_airport><arrival_coordinates_lon>106.655525</arrival_coordinates_lon><arrival_coordinates_lat>-6.130643</arrival_coordinates_lat><arrival_country_code>ID</arrival_country_code><arrival_country_name>Indonesia</arrival_country_name><arrival_city_code>JKT</arrival_city_code><arrival_city_name>Jakarta</arrival_city_name><planes>738</planes><plane_name>Boeing 737-800</plane_name></routes><routes><airline_iata>GA</airline_iata><departure_airport_iata>BDO</departure_airport_iata><departure_name_airport>Husein Sastranegara</departure_name_airport><departure_coordinates_lon>107.58178</departure_coordinates_lon><departure_coordinates_lat>-6.904648</departure_coordinates_lat><departure_country_code>ID</departure_country_code><departure_country_name>Indonesia</departure_country_name><departure_city_code>BDO</departure_city_code><departure_city_name>Bandung</departure_city_name><arrival_airport_iata>SUB</arrival_airport_iata><arrival_name_airport>Juanda</arrival_name_airport><arrival_coordinates_lon>112.77724</arrival_coordinates_lon><arrival_coordinates_lat>-7.38387</arrival_coordinates_lat><arrival_country_code>ID</arrival_country_code><arrival_country_name>Indonesia</arrival_country_name><arrival_city_code>SUB</arrival_city_code><arrival_city_name>Surabaya</arrival_city_name><planes>735</planes><plane_name>Boeing 737-500</plane_name></routes><routes><airline_iata>GA</airline_iata><departure_airport_iata>BIK</departure_airport_iata><departure_name_airport>Frans Kaisepo</departure_name_airport><departure_coordinates_lon>136.10582</departure_coordinates_lon><departure_coordinates_lat>-1.191919</departure_coordinates_lat><departure_country_code>ID</departure_country_code><departure_country_name>Indonesia</departure_country_name><departure_city_code>BIK</departure_city_code><departure_city_name>Biak</departure_city_name><arrival_airport_iata>DJJ</arrival_airport_iata><arrival_name_airport>Sentani</arrival_name_airport><arrival_coordinates_lon>140.51299</arrival_coordinates_lon><arrival_coordinates_lat>-2.569887</arrival_coordinates_lat><arrival_country_code>ID</arrival_country_code><arrival_country_name>Indonesia</arrival_country_name><arrival_city_code>DJJ</arrival_city_code><arrival_city_name>Jayapura</arrival_city_name><planes>738</planes><plane_name>Boeing 737-800</plane_name></routes><routes><airline_iata>GA</airline_iata><departure_airport_iata>BIK</departure_airport_iata><departure_name_airport>Frans Kaisepo</departure_name_airport><departure_coordinates_lon>136.10582</departure_coordinates_lon><departure_coordinates_lat>-1.191919</departure_coordinates_lat><departure_country_code>ID</departure_country_code><departure_country_name>Indonesia</departure_country_name><departure_city_code>BIK</departure_city_code><departure_city_name>Biak</departure_city_name><arrival_airport_iata>UPG</arrival_airport_iata><arrival_name_airport>Hasanudin</arrival_name_airport><arrival_coordinates_lon>119.54589</arrival_coordinates_lon><arrival_coordinates_lat>-5.058312</arrival_coordinates_lat><arrival_country_code>ID</arrival_country_code><arrival_country_name>Indonesia</arrival_country_name><arrival_city_code>UPG</arrival_city_code><arrival_city_name>Ujung Pandang</arrival_city_name><planes>738</planes><plane_name>Boeing 737-800</plane_name></routes><routes><airline_iata>GA</airline_iata><departure_airport_iata>BKK</departure_airport_iata><departure_name_airport>Suvarnabhumi International</departure_name_airport><departure_coordinates_lon>100.752045</departure_coordinates_lon><departure_coordinates_lat>13.693062</departure_coordinates_lat><departure_country_code>TH</departure_country_code><departure_country_name>Thailand</departure_country_name><departure_city_code>BKK</departure_city_code><departure_city_name>Bangkok</departure_city_name><arrival_airport_iata>CGK</arrival_airport_iata><arrival_name_airport>Soekarno-Hatta International</arrival_name_airport><arrival_coordinates_lon>106.655525</arrival_coordinates_lon><arrival_coordinates_lat>-6.130643</arrival_coordinates_lat><arrival_country_code>ID</arrival_country_code><arrival_country_name>Indonesia</arrival_country_name><arrival_city_code>JKT</arrival_city_code><arrival_city_name>Jakarta</arrival_city_name><planes>738</planes><plane_name>Boeing 737-800</plane_name></routes><routes><airline_iata>GA</airline_iata><departure_airport_iata>BPN</departure_airport_iata><departure_name_airport>Sepingan</departure_name_airport><departure_coordinates_lon>116.90082</departure_coordinates_lon><departure_coordinates_lat>-1.260623</departure_coordinates_lat><departure_country_code>ID</departure_country_code><departure_country_name>Indonesia</departure_country_name><departure_city_code>BPN</departure_city_code><departure_city_name>Balikpapan</departure_city_name><arrival_airport_iata>CGK</arrival_airport_iata><arrival_name_airport>Soekarno-Hatta International</arrival_name_airport><arrival_coordinates_lon>106.655525</arrival_coordinates_lon><arrival_coordinates_lat>-6.130643</arrival_coordinates_lat><arrival_country_code>ID</arrival_country_code><arrival_country_name>Indonesia</arrival_country_name><arrival_city_code>JKT</arrival_city_code><arrival_city_name>Jakarta</arrival_city_name><planes>738</planes><plane_name>Boeing 737-800</plane_name></routes><routes><airline_iata>GA</airline_iata><departure_airport_iata>BPN</departure_airport_iata><departure_name_airport>Sepingan</departure_name_airport><departure_coordinates_lon>116.90082</departure_coordinates_lon><departure_coordinates_lat>-1.260623</departure_coordinates_lat><departure_country_code>ID</departure_country_code><departure_country_name>Indonesia</departure_country_name><departure_city_code>BPN</departure_city_code><departure_city_name>Balikpapan</departure_city_name><arrival_airport_iata>JOG</arrival_airport_iata><arrival_name_airport>Adisutjipto</arrival_name_airport><arrival_coordinates_lon>110.43706</arrival_coordinates_lon><arrival_coordinates_lat>-7.785572</arrival_coordinates_lat><arrival_country_code>ID</arrival_country_code><arrival_country_name>Indonesia</arrival_country_name><arrival_city_code>JOG</arrival_city_code><arrival_city_name>Yogyakarta</arrival_city_name><planes>735</planes><plane_name>Boeing 737-500</plane_name></routes><routes><airline_iata>GA</airline_iata><departure_airport_iata>BPN</departure_airport_iata><departure_name_airport>Sepingan</departure_name_airport><departure_coordinates_lon>116.90082</departure_coordinates_lon><departure_coordinates_lat>-1.260623</departure_coordinates_lat><departure_country_code>ID</departure_country_code><departure_country_name>Indonesia</departure_country_name><departure_city_code>BPN</departure_city_code><departure_city_name>Balikpapan</departure_city_name><arrival_airport_iata>SUB</arrival_airport_iata><arrival_name_airport>Juanda</arrival_name_airport><arrival_coordinates_lon>112.77724</arrival_coordinates_lon><arrival_coordinates_lat>-7.38387</arrival_coordinates_lat><arrival_country_code>ID</arrival_country_code><arrival_country_name>Indonesia</arrival_country_name><arrival_city_code>SUB</arrival_city_code><arrival_city_name>Surabaya</arrival_city_name><planes>738</planes><plane_name>Boeing 737-800</plane_name></routes><routes><airline_iata>GA</airline_iata><departure_airport_iata>BPN</departure_airport_iata><departure_name_airport>Sepingan</departure_name_airport><departure_coordinates_lon>116.90082</departure_coordinates_lon><departure_coordinates_lat>-1.260623</departure_coordinates_lat><departure_country_code>ID</departure_country_code><departure_country_name>Indonesia</departure_country_name><departure_city_code>BPN</departure_city_code><departure_city_name>Balikpapan</departure_city_name><arrival_airport_iata>UPG</arrival_airport_iata><arrival_name_airport>Hasanudin</arrival_name_airport><arrival_coordinates_lon>119.54589</arrival_coordinates_lon><arrival_coordinates_lat>-5.058312</arrival_coordinates_lat><arrival_country_code>ID</arrival_country_code><arrival_country_name>Indonesia</arrival_country_name><arrival_city_code>UPG</arrival_city_code><arrival_city_name>Ujung Pandang</arrival_city_name><planes>735</planes><plane_name>Boeing 737-500</plane_name></routes><routes><airline_iata>GA</airline_iata><departure_airport_iata>BTH</departure_airport_iata><departure_name_airport>Hang Nadim</departure_name_airport><departure_coordinates_lon>104.11528</departure_coordinates_lon><departure_coordinates_lat>1.123627</departure_coordinates_lat><departure_country_code>ID</departure_country_code><departure_country_name>Indonesia</departure_country_name><departure_city_code>BTH</departure_city_code><departure_city_name>Batam</departure_city_name><arrival_airport_iata>CGK</arrival_airport_iata><arrival_name_airport>Soekarno-Hatta International</arrival_name_airport><arrival_coordinates_lon>106.655525</arrival_coordinates_lon><arrival_coordinates_lat>-6.130643</arrival_coordinates_lat><arrival_country_code>ID</arrival_country_code><arrival_country_name>Indonesia</arrival_country_name><arrival_city_code>JKT</arrival_city_code><arrival_city_name>Jakarta</arrival_city_name><planes>738</planes><plane_name>Boeing 737-800</plane_name></routes><routes><airline_iata>GA</airline_iata><departure_airport_iata>BTJ</departure_airport_iata><departure_name_airport>Sultan Iskandarmuda Airport</departure_name_airport><departure_coordinates_lon>95.41833</departure_coordinates_lon><departure_coordinates_lat>5.518021</departure_coordinates_lat><departure_country_code>ID</departure_country_code><departure_country_name>Indonesia</departure_country_name><departure_city_code>BTJ</departure_city_code><departure_city_name>Banda Aceh</departure_city_name><arrival_airport_iata>MES</arrival_airport_iata><arrival_name_airport>Polonia</arrival_name_airport><arrival_coordinates_lon>98.672775</arrival_coordinates_lon><arrival_coordinates_lat>3.561111</arrival_coordinates_lat><arrival_country_code>ID</arrival_country_code><arrival_country_name>Indonesia</arrival_country_name><arrival_city_code>MES</arrival_city_code><arrival_city_name>Medan</arrival_city_name><planes>738</planes><plane_name>Boeing 737-800</plane_name></routes><routes><airline_iata>GA</airline_iata><departure_airport_iata>BWN</departure_airport_iata><departure_name_airport>Bandar Seri Begwan International Airport</departure_name_airport><departure_coordinates_lon>114.93375</departure_coordinates_lon><departure_coordinates_lat>4.945197</departure_coordinates_lat><departure_country_code>BN</departure_country_code><departure_country_name>Brunei</departure_country_name><departure_city_code>BWN</departure_city_code><departure_city_name>Bandar Seri Begawan</departure_city_name><arrival_airport_iata>CGK</arrival_airport_iata><arrival_name_airport>Soekarno-Hatta International</arrival_name_airport><arrival_coordinates_lon>106.655525</arrival_coordinates_lon><arrival_coordinates_lat>-6.130643</arrival_coordinates_lat><arrival_country_code>ID</arrival_country_code><arrival_country_name>Indonesia</arrival_country_name><arrival_city_code>JKT</arrival_city_code><arrival_city_name>Jakarta</arrival_city_name><planes>320</planes><plane_name>Airbus Industrie A320</plane_name></routes><routes><airline_iata>GA</airline_iata><departure_airport_iata>BWN</departure_airport_iata><departure_name_airport>Bandar Seri Begwan International Airport</departure_name_airport><departure_coordinates_lon>114.93375</departure_coordinates_lon><departure_coordinates_lat>4.945197</departure_coordinates_lat><departure_country_code>BN</departure_country_code><departure_country_name>Brunei</departure_country_name><departure_city_code>BWN</departure_city_code><departure_city_name>Bandar Seri Begawan</departure_city_name><arrival_airport_iata>SUB</arrival_airport_iata><arrival_name_airport>Juanda</arrival_name_airport><arrival_coordinates_lon>112.77724</arrival_coordinates_lon><arrival_coordinates_lat>-7.38387</arrival_coordinates_lat><arrival_country_code>ID</arrival_country_code><arrival_country_name>Indonesia</arrival_country_name><arrival_city_code>SUB</arrival_city_code><arrival_city_name>Surabaya</arrival_city_name><planes>320</planes><plane_name>Airbus Industrie A320</plane_name></routes><routes><airline_iata>GA</airline_iata><departure_airport_iata>CAN</departure_airport_iata><departure_name_airport>Guangzhou Baiyun International</departure_name_airport><departure_coordinates_lon>113.29734</departure_coordinates_lon><departure_coordinates_lat>23.387861</departure_coordinates_lat><departure_country_code>CN</departure_country_code><departure_country_name>China</departure_country_name><departure_city_code>CAN</departure_city_code><departure_city_name>Guangzhou</departure_city_name><arrival_airport_iata>CGK</arrival_airport_iata><arrival_name_airport>Soekarno-Hatta International</arrival_name_airport><arrival_coordinates_lon>106.655525</arrival_coordinates_lon><arrival_coordinates_lat>-6.130643</arrival_coordinates_lat><arrival_country_code>ID</arrival_country_code><arrival_country_name>Indonesia</arrival_country_name><arrival_city_code>JKT</arrival_city_code><arrival_city_name>Jakarta</arrival_city_name><planes>738</planes><plane_name>Boeing 737-800</plane_name></routes><routes><airline_iata>GA</airline_iata><departure_airport_iata>CAN</departure_airport_iata><departure_name_airport>Guangzhou Baiyun International</departure_name_airport><departure_coordinates_lon>113.29734</departure_coordinates_lon><departure_coordinates_lat>23.387861</departure_coordinates_lat><departure_country_code>CN</departure_country_code><departure_country_name>China</departure_country_name><departure_city_code>CAN</departure_city_code><departure_city_name>Guangzhou</departure_city_name><arrival_airport_iata>CGK</arrival_airport_iata><arrival_name_airport>Soekarno-Hatta International</arrival_name_airport><arrival_coordinates_lon>106.655525</arrival_coordinates_lon><arrival_coordinates_lat>-6.130643</arrival_coordinates_lat><arrival_country_code>ID</arrival_country_code><arrival_country_name>Indonesia</arrival_country_name><arrival_city_code>JKT</arrival_city_code><arrival_city_name>Jakarta</arrival_city_name><planes>320</planes><plane_name>Airbus Industrie A320</plane_name></routes><routes><airline_iata>GA</airline_iata><departure_airport_iata>CGK</departure_airport_iata><departure_name_airport>Soekarno-Hatta International</departure_name_airport><departure_coordinates_lon>106.655525</departure_coordinates_lon><departure_coordinates_lat>-6.130643</departure_coordinates_lat><departure_country_code>ID</departure_country_code><departure_country_name>Indonesia</departure_country_name><departure_city_code>JKT</departure_city_code><departure_city_name>Jakarta</departure_city_name><arrival_airport_iata>BDJ</arrival_airport_iata><arrival_name_airport>Sjamsudin Noor</arrival_name_airport><arrival_coordinates_lon>114.75425</arrival_coordinates_lon><arrival_coordinates_lat>-3.43804</arrival_coordinates_lat><arrival_country_code>ID</arrival_country_code><arrival_country_name>Indonesia</arrival_country_name><arrival_city_code>BDJ</arrival_city_code><arrival_city_name>Banjarmasin</arrival_city_name><planes>738</planes><plane_name>Boeing 737-800</plane_name></routes><routes><airline_iata>GA</airline_iata><departure_airport_iata>CGK</departure_airport_iata><departure_name_airport>Soekarno-Hatta International</departure_name_airport><departure_coordinates_lon>106.655525</departure_coordinates_lon><departure_coordinates_lat>-6.130643</departure_coordinates_lat><departure_country_code>ID</departure_country_code><departure_country_name>Indonesia</departure_country_name><departure_city_code>JKT</departure_city_code><departure_city_name>Jakarta</departure_city_name><arrival_airport_iata>BPN</arrival_airport_iata><arrival_name_airport>Sepingan</arrival_name_airport><arrival_coordinates_lon>116.90082</arrival_coordinates_lon><arrival_coordinates_lat>-1.260623</arrival_coordinates_lat><arrival_country_code>ID</arrival_country_code><arrival_country_name>Indonesia</arrival_country_name><arrival_city_code>BPN</arrival_city_code><arrival_city_name>Balikpapan</arrival_city_name><planes>738</planes><plane_name>Boeing 737-800</plane_name></routes><routes><airline_iata>GA</airline_iata><departure_airport_iata>CGK</departure_airport_iata><departure_name_airport>Soekarno-Hatta International</departure_name_airport><departure_coordinates_lon>106.655525</departure_coordinates_lon><departure_coordinates_lat>-6.130643</departure_coordinates_lat><departure_country_code>ID</departure_country_code><departure_country_name>Indonesia</departure_country_name><departure_city_code>JKT</departure_city_code><departure_city_name>Jakarta</departure_city_name><arrival_airport_iata>BTH</arrival_airport_iata><arrival_name_airport>Hang Nadim</arrival_name_airport><arrival_coordinates_lon>104.11528</arrival_coordinates_lon><arrival_coordinates_lat>1.123627</arrival_coordinates_lat><arrival_country_code>ID</arrival_country_code><arrival_country_name>Indonesia</arrival_country_name><arrival_city_code>BTH</arrival_city_code><arrival_city_name>Batam</arrival_city_name><planes>738</planes><plane_name>Boeing 737-800</plane_name></routes><routes><airline_iata>GA</airline_iata><departure_airport_iata>CGK</departure_airport_iata><departure_name_airport>Soekarno-Hatta International</departure_name_airport><departure_coordinates_lon>106.655525</departure_coordinates_lon><departure_coordinates_lat>-6.130643</departure_coordinates_lat><departure_country_code>ID</departure_country_code><departure_country_name>Indonesia</departure_country_name><departure_city_code>JKT</departure_city_code><departure_city_name>Jakarta</departure_city_name><arrival_airport_iata>DJB</arrival_airport_iata><arrival_name_airport>Sultan Taha Syarifudn</arrival_name_airport><arrival_coordinates_lon>103.63936</arrival_coordinates_lon><arrival_coordinates_lat>-1.630432</arrival_coordinates_lat><arrival_country_code>ID</arrival_country_code><arrival_country_name>Indonesia</arrival_country_name><arrival_city_code>DJB</arrival_city_code><arrival_city_name>Jambi</arrival_city_name><planes>738</planes><plane_name>Boeing 737-800</plane_name></routes><routes><airline_iata>GA</airline_iata><departure_airport_iata>CGK</departure_airport_iata><departure_name_airport>Soekarno-Hatta International</departure_name_airport><departure_coordinates_lon>106.655525</departure_coordinates_lon><departure_coordinates_lat>-6.130643</departure_coordinates_lat><departure_country_code>ID</departure_country_code><departure_country_name>Indonesia</departure_country_name><departure_city_code>JKT</departure_city_code><departure_city_name>Jakarta</departure_city_name><arrival_airport_iata>DPS</arrival_airport_iata><arrival_name_airport>Ngurah Rai International</arrival_name_airport><arrival_coordinates_lon>115.16331</arrival_coordinates_lon><arrival_coordinates_lat>-8.74446</arrival_coordinates_lat><arrival_country_code>ID</arrival_country_code><arrival_country_name>Indonesia</arrival_country_name><arrival_city_code>DPS</arrival_city_code><arrival_city_name>Denpasar</arrival_city_name><planes>738</planes><plane_name>Boeing 737-800</plane_name></routes><routes><airline_iata>GA</airline_iata><departure_airport_iata>CGK</departure_airport_iata><departure_name_airport>Soekarno-Hatta International</departure_name_airport><departure_coordinates_lon>106.655525</departure_coordinates_lon><departure_coordinates_lat>-6.130643</departure_coordinates_lat><departure_country_code>ID</departure_country_code><departure_country_name>Indonesia</departure_country_name><departure_city_code>JKT</departure_city_code><departure_city_name>Jakarta</departure_city_name><arrival_airport_iata>JOG</arrival_airport_iata><arrival_name_airport>Adisutjipto</arrival_name_airport><arrival_coordinates_lon>110.43706</arrival_coordinates_lon><arrival_coordinates_lat>-7.785572</arrival_coordinates_lat><arrival_country_code>ID</arrival_country_code><arrival_country_name>Indonesia</arrival_country_name><arrival_city_code>JOG</arrival_city_code><arrival_city_name>Yogyakarta</arrival_city_name><planes>738</planes><plane_name>Boeing 737-800</plane_name></routes><routes><airline_iata>GA</airline_iata><departure_airport_iata>CGK</departure_airport_iata><departure_name_airport>Soekarno-Hatta International</departure_name_airport><departure_coordinates_lon>106.655525</departure_coordinates_lon><departure_coordinates_lat>-6.130643</departure_coordinates_lat><departure_country_code>ID</departure_country_code><departure_country_name>Indonesia</departure_country_name><departure_city_code>JKT</departure_city_code><departure_city_name>Jakarta</departure_city_name><arrival_airport_iata>LOP</arrival_airport_iata><arrival_name_airport>Lombok International</arrival_name_airport><arrival_coordinates_lon>116.27667</arrival_coordinates_lon><arrival_coordinates_lat>-8.757322</arrival_coordinates_lat><arrival_country_code>ID</arrival_country_code><arrival_country_name>Indonesia</arrival_country_name><arrival_city_code>LOP</arrival_city_code><arrival_city_name>Praya</arrival_city_name><planes>738</planes><plane_name>Boeing 737-800</plane_name></routes><routes><airline_iata>GA</airline_iata><departure_airport_iata>CGK</departure_airport_iata><departure_name_airport>Soekarno-Hatta International</departure_name_airport><departure_coordinates_lon>106.655525</departure_coordinates_lon><departure_coordinates_lat>-6.130643</departure_coordinates_lat><departure_country_code>ID</departure_country_code><departure_country_name>Indonesia</departure_country_name><departure_city_code>JKT</departure_city_code><departure_city_name>Jakarta</departure_city_name><arrival_airport_iata>MDC</arrival_airport_iata><arrival_name_airport>Samratulangi</arrival_name_airport><arrival_coordinates_lon>124.92203</arrival_coordinates_lon><arrival_coordinates_lat>1.543533</arrival_coordinates_lat><arrival_country_code>ID</arrival_country_code><arrival_country_name>Indonesia</arrival_country_name><arrival_city_code>MDC</arrival_city_code><arrival_city_name>Manado</arrival_city_name><planes>733</planes><plane_name>Boeing 737-300</plane_name></routes><routes><airline_iata>GA</airline_iata><departure_airport_iata>CGK</departure_airport_iata><departure_name_airport>Soekarno-Hatta International</departure_name_airport><departure_coordinates_lon>106.655525</departure_coordinates_lon><departure_coordinates_lat>-6.130643</departure_coordinates_lat><departure_country_code>ID</departure_country_code><departure_country_name>Indonesia</departure_country_name><departure_city_code>JKT</departure_city_code><departure_city_name>Jakarta</departure_city_name><arrival_airport_iata>MES</arrival_airport_iata><arrival_name_airport>Polonia</arrival_name_airport><arrival_coordinates_lon>98.672775</arrival_coordinates_lon><arrival_coordinates_lat>3.561111</arrival_coordinates_lat><arrival_country_code>ID</arrival_country_code><arrival_country_name>Indonesia</arrival_country_name><arrival_city_code>MES</arrival_city_code><arrival_city_name>Medan</arrival_city_name><planes>738</planes><plane_name>Boeing 737-800</plane_name></routes><routes><airline_iata>GA</airline_iata><departure_airport_iata>CGK</departure_airport_iata><departure_name_airport>Soekarno-Hatta International</departure_name_airport><departure_coordinates_lon>106.655525</departure_coordinates_lon><departure_coordinates_lat>-6.130643</departure_coordinates_lat><departure_country_code>ID</departure_country_code><departure_country_name>Indonesia</departure_country_name><departure_city_code>JKT</departure_city_code><departure_city_name>Jakarta</departure_city_name><arrival_airport_iata>MLG</arrival_airport_iata><arrival_name_airport>Abdul Rahman Saleh</arrival_name_airport><arrival_coordinates_lon>112.71099</arrival_coordinates_lon><arrival_coordinates_lat>-7.930615</arrival_coordinates_lat><arrival_country_code>ID</arrival_country_code><arrival_country_name>Indonesia</arrival_country_name><arrival_city_code>MLG</arrival_city_code><arrival_city_name>Malang</arrival_city_name><planes>735</planes><plane_name>Boeing 737-500</plane_name></routes><routes><airline_iata>GA</airline_iata><departure_airport_iata>CGK</departure_airport_iata><departure_name_airport>Soekarno-Hatta International</departure_name_airport><departure_coordinates_lon>106.655525</departure_coordinates_lon><departure_coordinates_lat>-6.130643</departure_coordinates_lat><departure_country_code>ID</departure_country_code><departure_country_name>Indonesia</departure_country_name><departure_city_code>JKT</departure_city_code><departure_city_name>Jakarta</departure_city_name><arrival_airport_iata>PDG</arrival_airport_iata><arrival_name_airport>Minangkabau International Airport</arrival_name_airport><arrival_coordinates_lon>100.280556</arrival_coordinates_lon><arrival_coordinates_lat>-0.786667</arrival_coordinates_lat><arrival_country_code>ID</arrival_country_code><arrival_country_name>Indonesia</arrival_country_name><arrival_city_code>PDG</arrival_city_code><arrival_city_name>Padang</arrival_city_name><planes>738</planes><plane_name>Boeing 737-800</plane_name></routes><routes><airline_iata>GA</airline_iata><departure_airport_iata>CGK</departure_airport_iata><departure_name_airport>Soekarno-Hatta International</departure_name_airport><departure_coordinates_lon>106.655525</departure_coordinates_lon><departure_coordinates_lat>-6.130643</departure_coordinates_lat><departure_country_code>ID</departure_country_code><departure_country_name>Indonesia</departure_country_name><departure_city_code>JKT</departure_city_code><departure_city_name>Jakarta</departure_city_name><arrival_airport_iata>PGK</arrival_airport_iata><arrival_name_airport>Pangkalpinang</arrival_name_airport><arrival_coordinates_lon>106.13707</arrival_coordinates_lon><arrival_coordinates_lat>-2.164017</arrival_coordinates_lat><arrival_country_code>ID</arrival_country_code><arrival_country_name>Indonesia</arrival_country_name><arrival_city_code>PGK</arrival_city_code><arrival_city_name>Pangkalpinang</arrival_city_name><planes>738</planes><plane_name>Boeing 737-800</plane_name></routes><routes><airline_iata>GA</airline_iata><departure_airport_iata>CGK</departure_airport_iata><departure_name_airport>Soekarno-Hatta International</departure_name_airport><departure_coordinates_lon>106.655525</departure_coordinates_lon><departure_coordinates_lat>-6.130643</departure_coordinates_lat><departure_country_code>ID</departure_country_code><departure_country_name>Indonesia</departure_country_name><departure_city_code>JKT</departure_city_code><departure_city_name>Jakarta</departure_city_name><arrival_airport_iata>PKU</arrival_airport_iata><arrival_name_airport>Sultan Syarif Kasim Ii</arrival_name_airport><arrival_coordinates_lon>101.446884</arrival_coordinates_lon><arrival_coordinates_lat>0.464563</arrival_coordinates_lat><arrival_country_code>ID</arrival_country_code><arrival_country_name>Indonesia</arrival_country_name><arrival_city_code>PKU</arrival_city_code><arrival_city_name>Pekanbaru</arrival_city_name><planes>738</planes><plane_name>Boeing 737-800</plane_name></routes><routes><airline_iata>GA</airline_iata><departure_airport_iata>CGK</departure_airport_iata><departure_name_airport>Soekarno-Hatta International</departure_name_airport><departure_coordinates_lon>106.655525</departure_coordinates_lon><departure_coordinates_lat>-6.130643</departure_coordinates_lat><departure_country_code>ID</departure_country_code><departure_country_name>Indonesia</departure_country_name><departure_city_code>JKT</departure_city_code><departure_city_name>Jakarta</departure_city_name><arrival_airport_iata>PKY</arrival_airport_iata><arrival_name_airport>Cilik Riwut (Tjilik Riwoet)</arrival_name_airport><arrival_coordinates_lon>113.945786</arrival_coordinates_lon><arrival_coordinates_lat>-2.223958</arrival_coordinates_lat><arrival_country_code>ID</arrival_country_code><arrival_country_name>Indonesia</arrival_country_name><arrival_city_code>PKY</arrival_city_code><arrival_city_name>Palangkaraya</arrival_city_name><planes>738</planes><plane_name>Boeing 737-800</plane_name></routes><routes><airline_iata>GA</airline_iata><departure_airport_iata>CGK</departure_airport_iata><departure_name_airport>Soekarno-Hatta International</departure_name_airport><departure_coordinates_lon>106.655525</departure_coordinates_lon><departure_coordinates_lat>-6.130643</departure_coordinates_lat><departure_country_code>ID</departure_country_code><departure_country_name>Indonesia</departure_country_name><departure_city_code>JKT</departure_city_code><departure_city_name>Jakarta</departure_city_name><arrival_airport_iata>PLM</arrival_airport_iata><arrival_name_airport>Mahmud Badaruddin Ii</arrival_name_airport><arrival_coordinates_lon>104.69861</arrival_coordinates_lon><arrival_coordinates_lat>-2.900146</arrival_coordinates_lat><arrival_country_code>ID</arrival_country_code><arrival_country_name>Indonesia</arrival_country_name><arrival_city_code>PLM</arrival_city_code><arrival_city_name>Palembang</arrival_city_name><planes>738</planes><plane_name>Boeing 737-800</plane_name></routes><routes><airline_iata>GA</airline_iata><departure_airport_iata>CGK</departure_airport_iata><departure_name_airport>Soekarno-Hatta International</departure_name_airport><departure_coordinates_lon>106.655525</departure_coordinates_lon><departure_coordinates_lat>-6.130643</departure_coordinates_lat><departure_country_code>ID</departure_country_code><departure_country_name>Indonesia</departure_country_name><departure_city_code>JKT</departure_city_code><departure_city_name>Jakarta</departure_city_name><arrival_airport_iata>PNK</arrival_airport_iata><arrival_name_airport>Supadio</arrival_name_airport><arrival_coordinates_lon>109.40533</arrival_coordinates_lon><arrival_coordinates_lat>-0.14735</arrival_coordinates_lat><arrival_country_code>ID</arrival_country_code><arrival_country_name>Indonesia</arrival_country_name><arrival_city_code>PNK</arrival_city_code><arrival_city_name>Pontianak</arrival_city_name><planes>733</planes><plane_name>Boeing 737-300</plane_name></routes><routes><airline_iata>GA</airline_iata><departure_airport_iata>CGK</departure_airport_iata><departure_name_airport>Soekarno-Hatta International</departure_name_airport><departure_coordinates_lon>106.655525</departure_coordinates_lon><departure_coordinates_lat>-6.130643</departure_coordinates_lat><departure_country_code>ID</departure_country_code><departure_country_name>Indonesia</departure_country_name><departure_city_code>JKT</departure_city_code><departure_city_name>Jakarta</departure_city_name><arrival_airport_iata>SOC</arrival_airport_iata><arrival_name_airport>Adi Sumarmo</arrival_name_airport><arrival_coordinates_lon>110.75667</arrival_coordinates_lon><arrival_coordinates_lat>-7.51583</arrival_coordinates_lat><arrival_country_code>ID</arrival_country_code><arrival_country_name>Indonesia</arrival_country_name><arrival_city_code>SOC</arrival_city_code><arrival_city_name>Solo City</arrival_city_name><planes>738</planes><plane_name>Boeing 737-800</plane_name></routes><routes><airline_iata>GA</airline_iata><departure_airport_iata>CGK</departure_airport_iata><departure_name_airport>Soekarno-Hatta International</departure_name_airport><departure_coordinates_lon>106.655525</departure_coordinates_lon><departure_coordinates_lat>-6.130643</departure_coordinates_lat><departure_country_code>ID</departure_country_code><departure_country_name>Indonesia</departure_country_name><departure_city_code>JKT</departure_city_code><departure_city_name>Jakarta</departure_city_name><arrival_airport_iata>SRG</arrival_airport_iata><arrival_name_airport>Achmad Yani</arrival_name_airport><arrival_coordinates_lon>110.37855</arrival_coordinates_lon><arrival_coordinates_lat>-6.979155</arrival_coordinates_lat><arrival_country_code>ID</arrival_country_code><arrival_country_name>Indonesia</arrival_country_name><arrival_city_code>SRG</arrival_city_code><arrival_city_name>Semarang</arrival_city_name><planes>738</planes><plane_name>Boeing 737-800</plane_name></routes><routes><airline_iata>GA</airline_iata><departure_airport_iata>CGK</departure_airport_iata><departure_name_airport>Soekarno-Hatta International</departure_name_airport><departure_coordinates_lon>106.655525</departure_coordinates_lon><departure_coordinates_lat>-6.130643</departure_coordinates_lat><departure_country_code>ID</departure_country_code><departure_country_name>Indonesia</departure_country_name><departure_city_code>JKT</departure_city_code><departure_city_name>Jakarta</departure_city_name><arrival_airport_iata>SUB</arrival_airport_iata><arrival_name_airport>Juanda</arrival_name_airport><arrival_coordinates_lon>112.77724</arrival_coordinates_lon><arrival_coordinates_lat>-7.38387</arrival_coordinates_lat><arrival_country_code>ID</arrival_country_code><arrival_country_name>Indonesia</arrival_country_name><arrival_city_code>SUB</arrival_city_code><arrival_city_name>Surabaya</arrival_city_name><planes>738</planes><plane_name>Boeing 737-800</plane_name></routes><routes><airline_iata>GA</airline_iata><departure_airport_iata>CGK</departure_airport_iata><departure_name_airport>Soekarno-Hatta International</departure_name_airport><departure_coordinates_lon>106.655525</departure_coordinates_lon><departure_coordinates_lat>-6.130643</departure_coordinates_lat><departure_country_code>ID</departure_country_code><departure_country_name>Indonesia</departure_country_name><departure_city_code>JKT</departure_city_code><departure_city_name>Jakarta</departure_city_name><arrival_airport_iata>TKG</arrival_airport_iata><arrival_name_airport>Branti</arrival_name_airport><arrival_coordinates_lon>105.1758</arrival_coordinates_lon><arrival_coordinates_lat>-5.242783</arrival_coordinates_lat><arrival_country_code>ID</arrival_country_code><arrival_country_name>Indonesia</arrival_country_name><arrival_city_code>TKG</arrival_city_code><arrival_city_name>Bandar Lampung</arrival_city_name><planes>733</planes><plane_name>Boeing 737-300</plane_name></routes><routes><airline_iata>GA</airline_iata><departure_airport_iata>CGK</departure_airport_iata><departure_name_airport>Soekarno-Hatta International</departure_name_airport><departure_coordinates_lon>106.655525</departure_coordinates_lon><departure_coordinates_lat>-6.130643</departure_coordinates_lat><departure_country_code>ID</departure_country_code><departure_country_name>Indonesia</departure_country_name><departure_city_code>JKT</departure_city_code><departure_city_name>Jakarta</departure_city_name><arrival_airport_iata>UPG</arrival_airport_iata><arrival_name_airport>Hasanudin</arrival_name_airport><arrival_coordinates_lon>119.54589</arrival_coordinates_lon><arrival_coordinates_lat>-5.058312</arrival_coordinates_lat><arrival_country_code>ID</arrival_country_code><arrival_country_name>Indonesia</arrival_country_name><arrival_city_code>UPG</arrival_city_code><arrival_city_name>Ujung Pandang</arrival_city_name><planes>738</planes><plane_name>Boeing 737-800</plane_name></routes><routes><airline_iata>GA</airline_iata><departure_airport_iata>DJB</departure_airport_iata><departure_name_airport>Sultan Taha Syarifudn</departure_name_airport><departure_coordinates_lon>103.63936</departure_coordinates_lon><departure_coordinates_lat>-1.630432</departure_coordinates_lat><departure_country_code>ID</departure_country_code><departure_country_name>Indonesia</departure_country_name><departure_city_code>DJB</departure_city_code><departure_city_name>Jambi</departure_city_name><arrival_airport_iata>CGK</arrival_airport_iata><arrival_name_airport>Soekarno-Hatta International</arrival_name_airport><arrival_coordinates_lon>106.655525</arrival_coordinates_lon><arrival_coordinates_lat>-6.130643</arrival_coordinates_lat><arrival_country_code>ID</arrival_country_code><arrival_country_name>Indonesia</arrival_country_name><arrival_city_code>JKT</arrival_city_code><arrival_city_name>Jakarta</arrival_city_name><planes>738</planes><plane_name>Boeing 737-800</plane_name></routes><routes><airline_iata>GA</airline_iata><departure_airport_iata>DJJ</departure_airport_iata><departure_name_airport>Sentani</departure_name_airport><departure_coordinates_lon>140.51299</departure_coordinates_lon><departure_coordinates_lat>-2.569887</departure_coordinates_lat><departure_country_code>ID</departure_country_code><departure_country_name>Indonesia</departure_country_name><departure_city_code>DJJ</departure_city_code><departure_city_name>Jayapura</departure_city_name><arrival_airport_iata>BIK</arrival_airport_iata><arrival_name_airport>Frans Kaisepo</arrival_name_airport><arrival_coordinates_lon>136.10582</arrival_coordinates_lon><arrival_coordinates_lat>-1.191919</arrival_coordinates_lat><arrival_country_code>ID</arrival_country_code><arrival_country_name>Indonesia</arrival_country_name><arrival_city_code>BIK</arrival_city_code><arrival_city_name>Biak</arrival_city_name><planes>738</planes><plane_name>Boeing 737-800</plane_name></routes><routes><airline_iata>GA</airline_iata><departure_airport_iata>DJJ</departure_airport_iata><departure_name_airport>Sentani</departure_name_airport><departure_coordinates_lon>140.51299</departure_coordinates_lon><departure_coordinates_lat>-2.569887</departure_coordinates_lat><departure_country_code>ID</departure_country_code><departure_country_name>Indonesia</departure_country_name><departure_city_code>DJJ</departure_city_code><departure_city_name>Jayapura</departure_city_name><arrival_airport_iata>TIM</arrival_airport_iata><arrival_name_airport>Timika</arrival_name_airport><arrival_coordinates_lon>136.88748</arrival_coordinates_lon><arrival_coordinates_lat>-4.525666</arrival_coordinates_lat><arrival_country_code>ID</arrival_country_code><arrival_country_name>Indonesia</arrival_country_name><arrival_city_code>TIM</arrival_city_code><arrival_city_name>Tembagapura</arrival_city_name><planes>738</planes><plane_name>Boeing 737-800</plane_name></routes><routes><airline_iata>GA</airline_iata><departure_airport_iata>DJJ</departure_airport_iata><departure_name_airport>Sentani</departure_name_airport><departure_coordinates_lon>140.51299</departure_coordinates_lon><departure_coordinates_lat>-2.569887</departure_coordinates_lat><departure_country_code>ID</departure_country_code><departure_country_name>Indonesia</departure_country_name><departure_city_code>DJJ</departure_city_code><departure_city_name>Jayapura</departure_city_name><arrival_airport_iata>UPG</arrival_airport_iata><arrival_name_airport>Hasanudin</arrival_name_airport><arrival_coordinates_lon>119.54589</arrival_coordinates_lon><arrival_coordinates_lat>-5.058312</arrival_coordinates_lat><arrival_country_code>ID</arrival_country_code><arrival_country_name>Indonesia</arrival_country_name><arrival_city_code>UPG</arrival_city_code><arrival_city_name>Ujung Pandang</arrival_city_name><planes>738</planes><plane_name>Boeing 737-800</plane_name></routes><routes><airline_iata>GA</airline_iata><departure_airport_iata>DPS</departure_airport_iata><departure_name_airport>Ngurah Rai International</departure_name_airport><departure_coordinates_lon>115.16331</departure_coordinates_lon><departure_coordinates_lat>-8.74446</departure_coordinates_lat><departure_country_code>ID</departure_country_code><departure_country_name>Indonesia</departure_country_name><departure_city_code>DPS</departure_city_code><departure_city_name>Denpasar</departure_city_name><arrival_airport_iata>CGK</arrival_airport_iata><arrival_name_airport>Soekarno-Hatta International</arrival_name_airport><arrival_coordinates_lon>106.655525</arrival_coordinates_lon><arrival_coordinates_lat>-6.130643</arrival_coordinates_lat><arrival_country_code>ID</arrival_country_code><arrival_country_name>Indonesia</arrival_country_name><arrival_city_code>JKT</arrival_city_code><arrival_city_name>Jakarta</arrival_city_name><planes>738</planes><plane_name>Boeing 737-800</plane_name></routes><routes><airline_iata>GA</airline_iata><departure_airport_iata>DPS</departure_airport_iata><departure_name_airport>Ngurah Rai International</departure_name_airport><departure_coordinates_lon>115.16331</departure_coordinates_lon><departure_coordinates_lat>-8.74446</departure_coordinates_lat><departure_country_code>ID</departure_country_code><departure_country_name>Indonesia</departure_country_name><departure_city_code>DPS</departure_city_code><departure_city_name>Denpasar</departure_city_name><arrival_airport_iata>JOG</arrival_airport_iata><arrival_name_airport>Adisutjipto</arrival_name_airport><arrival_coordinates_lon>110.43706</arrival_coordinates_lon><arrival_coordinates_lat>-7.785572</arrival_coordinates_lat><arrival_country_code>ID</arrival_country_code><arrival_country_name>Indonesia</arrival_country_name><arrival_city_code>JOG</arrival_city_code><arrival_city_name>Yogyakarta</arrival_city_name><planes>738</planes><plane_name>Boeing 737-800</plane_name></routes><routes><airline_iata>GA</airline_iata><departure_airport_iata>DPS</departure_airport_iata><departure_name_airport>Ngurah Rai International</departure_name_airport><departure_coordinates_lon>115.16331</departure_coordinates_lon><departure_coordinates_lat>-8.74446</departure_coordinates_lat><departure_country_code>ID</departure_country_code><departure_country_name>Indonesia</departure_country_name><departure_city_code>DPS</departure_city_code><departure_city_name>Denpasar</departure_city_name><arrival_airport_iata>LOP</arrival_airport_iata><arrival_name_airport>Lombok International</arrival_name_airport><arrival_coordinates_lon>116.27667</arrival_coordinates_lon><arrival_coordinates_lat>-8.757322</arrival_coordinates_lat><arrival_country_code>ID</arrival_country_code><arrival_country_name>Indonesia</arrival_country_name><arrival_city_code>LOP</arrival_city_code><arrival_city_name>Praya</arrival_city_name><planes>738</planes><plane_name>Boeing 737-800</plane_name></routes><routes><airline_iata>GA</airline_iata><departure_airport_iata>DPS</departure_airport_iata><departure_name_airport>Ngurah Rai International</departure_name_airport><departure_coordinates_lon>115.16331</departure_coordinates_lon><departure_coordinates_lat>-8.74446</departure_coordinates_lat><departure_country_code>ID</departure_country_code><departure_country_name>Indonesia</departure_country_name><departure_city_code>DPS</departure_city_code><departure_city_name>Denpasar</departure_city_name><arrival_airport_iata>SUB</arrival_airport_iata><arrival_name_airport>Juanda</arrival_name_airport><arrival_coordinates_lon>112.77724</arrival_coordinates_lon><arrival_coordinates_lat>-7.38387</arrival_coordinates_lat><arrival_country_code>ID</arrival_country_code><arrival_country_name>Indonesia</arrival_country_name><arrival_city_code>SUB</arrival_city_code><arrival_city_name>Surabaya</arrival_city_name><planes>738</planes><plane_name>Boeing 737-800</plane_name></routes><routes><airline_iata>GA</airline_iata><departure_airport_iata>DPS</departure_airport_iata><departure_name_airport>Ngurah Rai International</departure_name_airport><departure_coordinates_lon>115.16331</departure_coordinates_lon><departure_coordinates_lat>-8.74446</departure_coordinates_lat><departure_country_code>ID</departure_country_code><departure_country_name>Indonesia</departure_country_name><departure_city_code>DPS</departure_city_code><departure_city_name>Denpasar</departure_city_name><arrival_airport_iata>TIM</arrival_airport_iata><arrival_name_airport>Timika</arrival_name_airport><arrival_coordinates_lon>136.88748</arrival_coordinates_lon><arrival_coordinates_lat>-4.525666</arrival_coordinates_lat><arrival_country_code>ID</arrival_country_code><arrival_country_name>Indonesia</arrival_country_name><arrival_city_code>TIM</arrival_city_code><arrival_city_name>Tembagapura</arrival_city_name><planes>738</planes><plane_name>Boeing 737-800</plane_name></routes><routes><airline_iata>GA</airline_iata><departure_airport_iata>DPS</departure_airport_iata><departure_name_airport>Ngurah Rai International</departure_name_airport><departure_coordinates_lon>115.16331</departure_coordinates_lon><departure_coordinates_lat>-8.74446</departure_coordinates_lat><departure_country_code>ID</departure_country_code><departure_country_name>Indonesia</departure_country_name><departure_city_code>DPS</departure_city_code><departure_city_name>Denpasar</departure_city_name><arrival_airport_iata>UPG</arrival_airport_iata><arrival_name_airport>Hasanudin</arrival_name_airport><arrival_coordinates_lon>119.54589</arrival_coordinates_lon><arrival_coordinates_lat>-5.058312</arrival_coordinates_lat><arrival_country_code>ID</arrival_country_code><arrival_country_name>Indonesia</arrival_country_name><arrival_city_code>UPG</arrival_city_code><arrival_city_name>Ujung Pandang</arrival_city_name><planes>738</planes><plane_name>Boeing 737-800</plane_name></routes><routes><airline_iata>GA</airline_iata><departure_airport_iata>DXB</departure_airport_iata><departure_name_airport>Dubai</departure_name_airport><departure_coordinates_lon>55.352917</departure_coordinates_lon><departure_coordinates_lat>25.248665</departure_coordinates_lat><departure_country_code>AE</departure_country_code><departure_country_name>United Arab Emirates</departure_country_name><departure_city_code>DXB</departure_city_code><departure_city_name>Dubai</departure_city_name><arrival_airport_iata>CGK</arrival_airport_iata><arrival_name_airport>Soekarno-Hatta International</arrival_name_airport><arrival_coordinates_lon>106.655525</arrival_coordinates_lon><arrival_coordinates_lat>-6.130643</arrival_coordinates_lat><arrival_country_code>ID</arrival_country_code><arrival_country_name>Indonesia</arrival_country_name><arrival_city_code>JKT</arrival_city_code><arrival_city_name>Jakarta</arrival_city_name><planes>332</planes><plane_name>Airbus Industrie A330-200</plane_name></routes><routes><airline_iata>GA</airline_iata><departure_airport_iata>GTO</departure_airport_iata><departure_name_airport>Tolotio</departure_name_airport><departure_coordinates_lon>122.850876</departure_coordinates_lon><departure_coordinates_lat>0.639039</departure_coordinates_lat><departure_country_code>ID</departure_country_code><departure_country_name>Indonesia</departure_country_name><departure_city_code>GTO</departure_city_code><departure_city_name>Gorontalo</departure_city_name><arrival_airport_iata>UPG</arrival_airport_iata><arrival_name_airport>Hasanudin</arrival_name_airport><arrival_coordinates_lon>119.54589</arrival_coordinates_lon><arrival_coordinates_lat>-5.058312</arrival_coordinates_lat><arrival_country_code>ID</arrival_country_code><arrival_country_name>Indonesia</arrival_country_name><arrival_city_code>UPG</arrival_city_code><arrival_city_name>Ujung Pandang</arrival_city_name><planes>738</planes><plane_name>Boeing 737-800</plane_name></routes><routes><airline_iata>GA</airline_iata><departure_airport_iata>HKG</departure_airport_iata><departure_name_airport>Hong Kong International</departure_name_airport><departure_coordinates_lon>113.93649</departure_coordinates_lon><departure_coordinates_lat>22.315248</departure_coordinates_lat><departure_country_code>HK</departure_country_code><departure_country_name>Hong Kong</departure_country_name><departure_city_code>HKG</departure_city_code><departure_city_name>Hong Kong</departure_city_name><arrival_airport_iata>CGK</arrival_airport_iata><arrival_name_airport>Soekarno-Hatta International</arrival_name_airport><arrival_coordinates_lon>106.655525</arrival_coordinates_lon><arrival_coordinates_lat>-6.130643</arrival_coordinates_lat><arrival_country_code>ID</arrival_country_code><arrival_country_name>Indonesia</arrival_country_name><arrival_city_code>JKT</arrival_city_code><arrival_city_name>Jakarta</arrival_city_name><planes>738</planes><plane_name>Boeing 737-800</plane_name></routes><routes><airline_iata>GA</airline_iata><departure_airport_iata>HKG</departure_airport_iata><departure_name_airport>Hong Kong International</departure_name_airport><departure_coordinates_lon>113.93649</departure_coordinates_lon><departure_coordinates_lat>22.315248</departure_coordinates_lat><departure_country_code>HK</departure_country_code><departure_country_name>Hong Kong</departure_country_name><departure_city_code>HKG</departure_city_code><departure_city_name>Hong Kong</departure_city_name><arrival_airport_iata>DPS</arrival_airport_iata><arrival_name_airport>Ngurah Rai International</arrival_name_airport><arrival_coordinates_lon>115.16331</arrival_coordinates_lon><arrival_coordinates_lat>-8.74446</arrival_coordinates_lat><arrival_country_code>ID</arrival_country_code><arrival_country_name>Indonesia</arrival_country_name><arrival_city_code>DPS</arrival_city_code><arrival_city_name>Denpasar</arrival_city_name><planes>738</planes><plane_name>Boeing 737-800</plane_name></routes><routes><airline_iata>GA</airline_iata><departure_airport_iata>HND</departure_airport_iata><departure_name_airport>Haneda Airport</departure_name_airport><departure_coordinates_lon>139.78453</departure_coordinates_lon><departure_coordinates_lat>35.54907</departure_coordinates_lat><departure_country_code>JP</departure_country_code><departure_country_name>Japan</departure_country_name><departure_city_code>TYO</departure_city_code><departure_city_name>Tokyo</departure_city_name><arrival_airport_iata>DPS</arrival_airport_iata><arrival_name_airport>Ngurah Rai International</arrival_name_airport><arrival_coordinates_lon>115.16331</arrival_coordinates_lon><arrival_coordinates_lat>-8.74446</arrival_coordinates_lat><arrival_country_code>ID</arrival_country_code><arrival_country_name>Indonesia</arrival_country_name><arrival_city_code>DPS</arrival_city_code><arrival_city_name>Denpasar</arrival_city_name><planes>333</planes><plane_name>Airbus Industrie A330-300</plane_name></routes><routes><airline_iata>GA</airline_iata><departure_airport_iata>ICN</departure_airport_iata><departure_name_airport>Seoul (Incheon)</departure_name_airport><departure_coordinates_lon>126.45123</departure_coordinates_lon><departure_coordinates_lat>37.448524</departure_coordinates_lat><departure_country_code>KR</departure_country_code><departure_country_name>South Korea</departure_country_name><departure_city_code>SEL</departure_city_code><departure_city_name>Seoul</departure_city_name><arrival_airport_iata>CGK</arrival_airport_iata><arrival_name_airport>Soekarno-Hatta International</arrival_name_airport><arrival_coordinates_lon>106.655525</arrival_coordinates_lon><arrival_coordinates_lat>-6.130643</arrival_coordinates_lat><arrival_country_code>ID</arrival_country_code><arrival_country_name>Indonesia</arrival_country_name><arrival_city_code>JKT</arrival_city_code><arrival_city_name>Jakarta</arrival_city_name><planes>332</planes><plane_name>Airbus Industrie A330-200</plane_name></routes><routes><airline_iata>GA</airline_iata><departure_airport_iata>ICN</departure_airport_iata><departure_name_airport>Seoul (Incheon)</departure_name_airport><departure_coordinates_lon>126.45123</departure_coordinates_lon><departure_coordinates_lat>37.448524</departure_coordinates_lat><departure_country_code>KR</departure_country_code><departure_country_name>South Korea</departure_country_name><departure_city_code>SEL</departure_city_code><departure_city_name>Seoul</departure_city_name><arrival_airport_iata>CGK</arrival_airport_iata><a