<?xml version="1.0" encoding="utf-8"?>
<route><routes><airline_iata>AB</airline_iata><departure_airport_iata>DUS</departure_airport_iata><departure_name_airport>Düsseldorf International Airport</departure_name_airport><departure_coordinates_lon>6.76558</departure_coordinates_lon><departure_coordinates_lat>51.278328</departure_coordinates_lat><departure_country_code>DE</departure_country_code><departure_country_name>Germany</departure_country_name><departure_city_code>DUS</departure_city_code><departure_city_name>Dusseldorf</departure_city_name><arrival_airport_iata>EBL</arrival_airport_iata><arrival_name_airport>Erbil International (irbil Northwest)</arrival_name_airport><arrival_coordinates_lon>43.963055</arrival_coordinates_lon><arrival_coordinates_lat>36.2375</arrival_coordinates_lat><arrival_country_code>IQ</arrival_country_code><arrival_country_name>Iraq</arrival_country_name><arrival_city_code>EBL</arrival_city_code><arrival_city_name>Erbil</arrival_city_name><planes>738</planes><plane_name>Boeing 737-800</plane_name></routes><routes><airline_iata>EK</airline_iata><departure_airport_iata>DXB</departure_airport_iata><departure_name_airport>Dubai</departure_name_airport><departure_coordinates_lon>55.352917</departure_coordinates_lon><departure_coordinates_lat>25.248665</departure_coordinates_lat><departure_country_code>AE</departure_country_code><departure_country_name>United Arab Emirates</departure_country_name><departure_city_code>DXB</departure_city_code><departure_city_name>Dubai</departure_city_name><arrival_airport_iata>BGW</arrival_airport_iata><arrival_name_airport>Baghdad International</arrival_name_airport><arrival_coordinates_lon>44.225</arrival_coordinates_lon><arrival_coordinates_lat>33.255554</arrival_coordinates_lat><arrival_country_code>IQ</arrival_country_code><arrival_country_name>Iraq</arrival_country_name><arrival_city_code>BGW</arrival_city_code><arrival_city_name>Baghdad</arrival_city_name><planes>332</planes><plane_name>Airbus Industrie A330-200</plane_name></routes><routes><airline_iata>EK</airline_iata><departure_airport_iata>DXB</departure_airport_iata><departure_name_airport>Dubai</departure_name_airport><departure_coordinates_lon>55.352917</departure_coordinates_lon><departure_coordinates_lat>25.248665</departure_coordinates_lat><departure_country_code>AE</departure_country_code><departure_country_name>United Arab Emirates</departure_country_name><departure_city_code>DXB</departure_city_code><departure_city_name>Dubai</departure_city_name><arrival_airport_iata>BSR</arrival_airport_iata><arrival_name_airport>International</arrival_name_airport><arrival_coordinates_lon>47.79139</arrival_coordinates_lon><arrival_coordinates_lat>30.555555</arrival_coordinates_lat><arrival_country_code>IQ</arrival_country_code><arrival_country_name>Iraq</arrival_country_name><arrival_city_code>BSR</arrival_city_code><arrival_city_name>Basra</arrival_city_name><planes>332</planes><plane_name>Airbus Industrie A330-200</plane_name></routes><routes><airline_iata>EK</airline_iata><departure_airport_iata>DXB</departure_airport_iata><departure_name_airport>Dubai</departure_name_airport><departure_coordinates_lon>55.352917</departure_coordinates_lon><departure_coordinates_lat>25.248665</departure_coordinates_lat><departure_country_code>AE</departure_country_code><departure_country_name>United Arab Emirates</departure_country_name><departure_city_code>DXB</departure_city_code><departure_city_name>Dubai</departure_city_name><arrival_airport_iata>EBL</arrival_airport_iata><arrival_name_airport>Erbil International (irbil Northwest)</arrival_name_airport><arrival_coordinates_lon>43.963055</arrival_coordinates_lon><arrival_coordinates_lat>36.2375</arrival_coordinates_lat><arrival_country_code>IQ</arrival_country_code><arrival_country_name>Iraq</arrival_country_name><arrival_city_code>EBL</arrival_city_code><arrival_city_name>Erbil</arrival_city_name><planes>343</planes><plane_name>Airbus Industrie A340-300</plane_name></routes><routes><airline_iata>EP</airline_iata><departure_airport_iata>KSH</departure_airport_iata><departure_name_airport>Kermanshah</departure_name_airport><departure_coordinates_lon>47.145126</departure_coordinates_lon><departure_coordinates_lat>34.355915</departure_coordinates_lat><departure_country_code>IR</departure_country_code><departure_country_name>Iran</departure_country_name><departure_city_code>KSH</departure_city_code><departure_city_name>Kermanshah</departure_city_name><arrival_airport_iata>ISU</arrival_airport_iata><arrival_name_airport>Sulaimaniyah International</arrival_name_airport><arrival_coordinates_lon>45.314716</arrival_coordinates_lon><arrival_coordinates_lat>35.5608</arrival_coordinates_lat><arrival_country_code>IQ</arrival_country_code><arrival_country_name>Iraq</arrival_country_name><arrival_city_code>ISU</arrival_city_code><arrival_city_name>Sulaimaniyah</arrival_city_name><planes>100</planes><plane_name>Fokker 100</plane_name></routes><routes><airline_iata>EP</airline_iata><departure_airport_iata>KSH</departure_airport_iata><departure_name_airport>Kermanshah</departure_name_airport><departure_coordinates_lon>47.145126</departure_coordinates_lon><departure_coordinates_lat>34.355915</departure_coordinates_lat><departure_country_code>IR</departure_country_code><departure_country_name>Iran</departure_country_name><departure_city_code>KSH</departure_city_code><departure_city_name>Kermanshah</departure_city_name><arrival_airport_iata>NJF</arrival_airport_iata><arrival_name_airport>Al-Ashraf International</arrival_name_airport><arrival_coordinates_lon>44.389187</arrival_coordinates_lon><arrival_coordinates_lat>31.993563</arrival_coordinates_lat><arrival_country_code>IQ</arrival_country_code><arrival_country_name>Iraq</arrival_country_name><arrival_city_code>NJF</arrival_city_code><arrival_city_name>Al Najaf</arrival_city_name><planes>100</planes><plane_name>Fokker 100</plane_name></routes><routes><airline_iata>EP</airline_iata><departure_airport_iata>MHD</departure_airport_iata><departure_name_airport>Mashad</departure_name_airport><departure_coordinates_lon>59.64165</departure_coordinates_lon><departure_coordinates_lat>36.227173</departure_coordinates_lat><departure_country_code>IR</departure_country_code><departure_country_name>Iran</departure_country_name><departure_city_code>MHD</departure_city_code><departure_city_name>Mashad</departure_city_name><arrival_airport_iata>NJF</arrival_airport_iata><arrival_name_airport>Al-Ashraf International</arrival_name_airport><arrival_coordinates_lon>44.389187</arrival_coordinates_lon><arrival_coordinates_lat>31.993563</arrival_coordinates_lat><arrival_country_code>IQ</arrival_country_code><arrival_country_name>Iraq</arrival_country_name><arrival_city_code>NJF</arrival_city_code><arrival_city_name>Al Najaf</arrival_city_name><planes>100</planes><plane_name>Fokker 100</plane_name></routes><routes><airline_iata>EP</airline_iata><departure_airport_iata>SDG</departure_airport_iata><departure_name_airport>Sanandaj</departure_name_airport><departure_coordinates_lon>47.013767</departure_coordinates_lon><departure_coordinates_lat>35.251472</departure_coordinates_lat><departure_country_code>IR</departure_country_code><departure_country_name>Iran</departure_country_name><departure_city_code>SDG</departure_city_code><departure_city_name>Sanandaj</departure_city_name><arrival_airport_iata>ISU</arrival_airport_iata><arrival_name_airport>Sulaimaniyah International</arrival_name_airport><arrival_coordinates_lon>45.314716</arrival_coordinates_lon><arrival_coordinates_lat>35.5608</arrival_coordinates_lat><arrival_country_code>IQ</arrival_country_code><arrival_country_name>Iraq</arrival_country_name><arrival_city_code>ISU</arrival_city_code><arrival_city_name>Sulaimaniyah</arrival_city_name><planes>100</planes><plane_name>Fokker 100</plane_name></routes><routes><airline_iata>EY</airline_iata><departure_airport_iata>AUH</departure_airport_iata><departure_name_airport>Abu Dhabi International</departure_name_airport><departure_coordinates_lon>54.645973</departure_coordinates_lon><departure_coordinates_lat>24.426912</departure_coordinates_lat><departure_country_code>AE</departure_country_code><departure_country_name>United Arab Emirates</departure_country_name><departure_city_code>AUH</departure_city_code><departure_city_name>Abu Dhabi</departure_city_name><arrival_airport_iata>BGW</arrival_airport_iata><arrival_name_airport>Baghdad International</arrival_name_airport><arrival_coordinates_lon>44.225</arrival_coordinates_lon><arrival_coordinates_lat>33.255554</arrival_coordinates_lat><arrival_country_code>IQ</arrival_country_code><arrival_country_name>Iraq</arrival_country_name><arrival_city_code>BGW</arrival_city_code><arrival_city_name>Baghdad</arrival_city_name><planes>320</planes><plane_name>Airbus Industrie A320</plane_name></routes><routes><airline_iata>EY</airline_iata><departure_airport_iata>AUH</departure_airport_iata><departure_name_airport>Abu Dhabi International</departure_name_airport><departure_coordinates_lon>54.645973</departure_coordinates_lon><departure_coordinates_lat>24.426912</departure_coordinates_lat><departure_country_code>AE</departure_country_code><departure_country_name>United Arab Emirates</departure_country_name><departure_city_code>AUH</departure_city_code><departure_city_name>Abu Dhabi</departure_city_name><arrival_airport_iata>BSR</arrival_airport_iata><arrival_name_airport>International</arrival_name_airport><arrival_coordinates_lon>47.79139</arrival_coordinates_lon><arrival_coordinates_lat>30.555555</arrival_coordinates_lat><arrival_country_code>IQ</arrival_country_code><arrival_country_name>Iraq</arrival_country_name><arrival_city_code>BSR</arrival_city_code><arrival_city_name>Basra</arrival_city_name><planes>320</planes><plane_name>Airbus Industrie A320</plane_name></routes><routes><airline_iata>EY</airline_iata><departure_airport_iata>AUH</departure_airport_iata><departure_name_airport>Abu Dhabi International</departure_name_airport><departure_coordinates_lon>54.645973</departure_coordinates_lon><departure_coordinates_lat>24.426912</departure_coordinates_lat><departure_country_code>AE</departure_country_code><departure_country_name>United Arab Emirates</departure_country_name><departure_city_code>AUH</departure_city_code><departure_city_name>Abu Dhabi</departure_city_name><arrival_airport_iata>EBL</arrival_airport_iata><arrival_name_airport>Erbil International (irbil Northwest)</arrival_name_airport><arrival_coordinates_lon>43.963055</arrival_coordinates_lon><arrival_coordinates_lat>36.2375</arrival_coordinates_lat><arrival_country_code>IQ</arrival_country_code><arrival_country_name>Iraq</arrival_country_name><arrival_city_code>EBL</arrival_city_code><arrival_city_name>Erbil</arrival_city_name><planes>320</planes><plane_name>Airbus Industrie A320</plane_name></routes><routes><airline_iata>FZ</airline_iata><departure_airport_iata>DXB</departure_airport_iata><departure_name_airport>Dubai</departure_name_airport><departure_coordinates_lon>55.352917</departure_coordinates_lon><departure_coordinates_lat>25.248665</departure_coordinates_lat><departure_country_code>AE</departure_country_code><departure_country_name>United Arab Emirates</departure_country_name><departure_city_code>DXB</departure_city_code><departure_city_name>Dubai</departure_city_name><arrival_airport_iata>BGW</arrival_airport_iata><arrival_name_airport>Baghdad International</arrival_name_airport><arrival_coordinates_lon>44.225</arrival_coordinates_lon><arrival_coordinates_lat>33.255554</arrival_coordinates_lat><arrival_country_code>IQ</arrival_country_code><arrival_country_name>Iraq</arrival_country_name><arrival_city_code>BGW</arrival_city_code><arrival_city_name>Baghdad</arrival_city_name><planes>73H</planes><plane_name>Boeing 737-800 With Winglets</plane_name></routes><routes><airline_iata>FZ</airline_iata><departure_airport_iata>DXB</departure_airport_iata><departure_name_airport>Dubai</departure_name_airport><departure_coordinates_lon>55.352917</departure_coordinates_lon><departure_coordinates_lat>25.248665</departure_coordinates_lat><departure_country_code>AE</departure_country_code><departure_country_name>United Arab Emirates</departure_country_name><departure_city_code>DXB</departure_city_code><departure_city_name>Dubai</departure_city_name><arrival_airport_iata>BSR</arrival_airport_iata><arrival_name_airport>International</arrival_name_airport><arrival_coordinates_lon>47.79139</arrival_coordinates_lon><arrival_coordinates_lat>30.555555</arrival_coordinates_lat><arrival_country_code>IQ</arrival_country_code><arrival_country_name>Iraq</arrival_country_name><arrival_city_code>BSR</arrival_city_code><arrival_city_name>Basra</arrival_city_name><planes>73H</planes><plane_name>Boeing 737-800 With Winglets</plane_name></routes><routes><airline_iata>FZ</airline_iata><departure_airport_iata>DXB</departure_airport_iata><departure_name_airport>Dubai</departure_name_airport><departure_coordinates_lon>55.352917</departure_coordinates_lon><departure_coordinates_lat>25.248665</departure_coordinates_lat><departure_country_code>AE</departure_country_code><departure_country_name>United Arab Emirates</departure_country_name><departure_city_code>DXB</departure_city_code><departure_city_name>Dubai</departure_city_name><arrival_airport_iata>EBL</arrival_airport_iata><arrival_name_airport>Erbil International (irbil Northwest)</arrival_name_airport><arrival_coordinates_lon>43.963055</arrival_coordinates_lon><arrival_coordinates_lat>36.2375</arrival_coordinates_lat><arrival_country_code>IQ</arrival_country_code><arrival_country_name>Iraq</arrival_country_name><arrival_city_code>EBL</arrival_city_code><arrival_city_name>Erbil</arrival_city_name><planes>73H</planes><plane_name>Boeing 737-800 With Winglets</plane_name></routes><routes><airline_iata>FZ</airline_iata><departure_airport_iata>DXB</departure_airport_iata><departure_name_airport>Dubai</departure_name_airport><departure_coordinates_lon>55.352917</departure_coordinates_lon><departure_coordinates_lat>25.248665</departure_coordinates_lat><departure_country_code>AE</departure_country_code><departure_country_name>United Arab Emirates</departure_country_name><departure_city_code>DXB</departure_city_code><departure_city_name>Dubai</departure_city_name><arrival_airport_iata>ISU</arrival_airport_iata><arrival_name_airport>Sulaimaniyah International</arrival_name_airport><arrival_coordinates_lon>45.314716</arrival_coordinates_lon><arrival_coordinates_lat>35.5608</arrival_coordinates_lat><arrival_country_code>IQ</arrival_country_code><arrival_country_name>Iraq</arrival_country_name><arrival_city_code>ISU</arrival_city_code><arrival_city_name>Sulaimaniyah</arrival_city_name><planes>73H</planes><plane_name>Boeing 737-800 With Winglets</plane_name></routes><routes><airline_iata>FZ</airline_iata><departure_airport_iata>DXB</departure_airport_iata><departure_name_airport>Dubai</departure_name_airport><departure_coordinates_lon>55.352917</departure_coordinates_lon><departure_coordinates_lat>25.248665</departure_coordinates_lat><departure_country_code>AE</departure_country_code><departure_country_name>United Arab Emirates</departure_country_name><departure_city_code>DXB</departure_city_code><departure_city_name>Dubai</departure_city_name><arrival_airport_iata>NJF</arrival_airport_iata><arrival_name_airport>Al-Ashraf International</arrival_name_airport><arrival_coordinates_lon>44.389187</arrival_coordinates_lon><arrival_coordinates_lat>31.993563</arrival_coordinates_lat><arrival_country_code>IQ</arrival_country_code><arrival_country_name>Iraq</arrival_country_name><arrival_city_code>NJF</arrival_city_code><arrival_city_name>Al Najaf</arrival_city_name><planes>73H</planes><plane_name>Boeing 737-800 With Winglets</plane_name></routes><routes><airline_iata>G9</airline_iata><departure_airport_iata>SHJ</departure_airport_iata><departure_name_airport>Sharjah</departure_name_airport><departure_coordinates_lon>55.52029</departure_coordinates_lon><departure_coordinates_lat>25.320873</departure_coordinates_lat><departure_country_code>AE</departure_country_code><departure_country_name>United Arab Emirates</departure_country_name><departure_city_code>SHJ</departure_city_code><departure_city_name>Sharjah</departure_city_name><arrival_airport_iata>NJF</arrival_airport_iata><arrival_name_airport>Al-Ashraf International</arrival_name_airport><arrival_coordinates_lon>44.389187</arrival_coordinates_lon><arrival_coordinates_lat>31.993563</arrival_coordinates_lat><arrival_country_code>IQ</arrival_country_code><arrival_country_name>Iraq</arrival_country_name><arrival_city_code>NJF</arrival_city_code><arrival_city_name>Al Najaf</arrival_city_name><planes>320</planes><plane_name>Airbus Industrie A320</plane_name></routes><routes><airline_iata>GF</airline_iata><departure_airport_iata>BAH</departure_airport_iata><departure_name_airport>Bahrain International</departure_name_airport><departure_coordinates_lon>50.62605</departure_coordinates_lon><departure_coordinates_lat>26.26918</departure_coordinates_lat><departure_country_code>BH</departure_country_code><departure_country_name>Bahrain</departure_country_name><departure_city_code>BAH</departure_city_code><departure_city_name>Manama</departure_city_name><arrival_airport_iata>BGW</arrival_airport_iata><arrival_name_airport>Baghdad International</arrival_name_airport><arrival_coordinates_lon>44.225</arrival_coordinates_lon><arrival_coordinates_lat>33.255554</arrival_coordinates_lat><arrival_country_code>IQ</arrival_country_code><arrival_country_name>Iraq</arrival_country_name><arrival_city_code>BGW</arrival_city_code><arrival_city_name>Baghdad</arrival_city_name><planes>E90</planes><plane_name>Embraer ERJ-190</plane_name></routes><routes><airline_iata>GF</airline_iata><departure_airport_iata>BAH</departure_airport_iata><departure_name_airport>Bahrain International</departure_name_airport><departure_coordinates_lon>50.62605</departure_coordinates_lon><departure_coordinates_lat>26.26918</departure_coordinates_lat><departure_country_code>BH</departure_country_code><departure_country_name>Bahrain</departure_country_name><departure_city_code>BAH</departure_city_code><departure_city_name>Manama</departure_city_name><arrival_airport_iata>EBL</arrival_airport_iata><arrival_name_airport>Erbil International (irbil Northwest)</arrival_name_airport><arrival_coordinates_lon>43.963055</arrival_coordinates_lon><arrival_coordinates_lat>36.2375</arrival_coordinates_lat><arrival_country_code>IQ</arrival_country_code><arrival_country_name>Iraq</arrival_country_name><arrival_city_code>EBL</arrival_city_code><arrival_city_name>Erbil</arrival_city_name><planes>320</planes><plane_name>Airbus Industrie A320</plane_name></routes><routes><airline_iata>GF</airline_iata><departure_airport_iata>BAH</departure_airport_iata><departure_name_airport>Bahrain International</departure_name_airport><departure_coordinates_lon>50.62605</departure_coordinates_lon><departure_coordinates_lat>26.26918</departure_coordinates_lat><departure_country_code>BH</departure_country_code><departure_country_name>Bahrain</departure_country_name><departure_city_code>BAH</departure_city_code><departure_city_name>Manama</departure_city_name><arrival_airport_iata>NJF</arrival_airport_iata><arrival_name_airport>Al-Ashraf International</arrival_name_airport><arrival_coordinates_lon>44.389187</arrival_coordinates_lon><arrival_coordinates_lat>31.993563</arrival_coordinates_lat><arrival_country_code>IQ</arrival_country_code><arrival_country_name>Iraq</arrival_country_name><arrival_city_code>NJF</arrival_city_code><arrival_city_name>Al Najaf</arrival_city_name><planes>320</planes><plane_name>Airbus Industrie A320</plane_name></routes><routes><airline_iata>J9</airline_iata><departure_airport_iata>KWI</departure_airport_iata><departure_name_airport>Kuwait International</departure_name_airport><departure_coordinates_lon>47.971252</departure_coordinates_lon><departure_coordinates_lat>29.240116</departure_coordinates_lat><departure_country_code>KW</departure_country_code><departure_country_name>Kuwait</departure_country_name><departure_city_code>KWI</departure_city_code><departure_city_name>Kuwait City</departure_city_name><arrival_airport_iata>NJF</arrival_airport_iata><arrival_name_airport>Al-Ashraf International</arrival_name_airport><arrival_coordinates_lon>44.389187</arrival_coordinates_lon><arrival_coordinates_lat>31.993563</arrival_coordinates_lat><arrival_country_code>IQ</arrival_country_code><arrival_country_name>Iraq</arrival_country_name><arrival_city_code>NJF</arrival_city_code><arrival_city_name>Al Najaf</arrival_city_name><planes>320</planes><plane_name>Airbus Industrie A320</plane_name></routes><routes><airline_iata>KK</airline_iata><departure_airport_iata>IST</departure_airport_iata><departure_name_airport>Ataturk</departure_name_airport><departure_coordinates_lon>28.815277</departure_coordinates_lon><departure_coordinates_lat>40.976665</departure_coordinates_lat><departure_country_code>TR</departure_country_code><departure_country_name>Turkey</departure_country_name><departure_city_code>IST</departure_city_code><departure_city_name>Istanbul</departure_city_name><arrival_airport_iata>EBL</arrival_airport_iata><arrival_name_airport>Erbil International (irbil Northwest)</arrival_name_airport><arrival_coordinates_lon>43.963055</arrival_coordinates_lon><arrival_coordinates_lat>36.2375</arrival_coordinates_lat><arrival_country_code>IQ</arrival_country_code><arrival_country_name>Iraq</arrival_country_name><arrival_city_code>EBL</arrival_city_code><arrival_city_name>Erbil</arrival_city_name><planes>320</planes><plane_name>Airbus Industrie A320</plane_name></routes><routes><airline_iata>KK</airline_iata><departure_airport_iata>IST</departure_airport_iata><departure_name_airport>Ataturk</departure_name_airport><departure_coordinates_lon>28.815277</departure_coordinates_lon><departure_coordinates_lat>40.976665</departure_coordinates_lat><departure_country_code>TR</departure_country_code><departure_country_name>Turkey</departure_country_name><departure_city_code>IST</departure_city_code><departure_city_name>Istanbul</departure_city_name><arrival_airport_iata>ISU</arrival_airport_iata><arrival_name_airport>Sulaimaniyah International</arrival_name_airport><arrival_coordinates_lon>45.314716</arrival_coordinates_lon><arrival_coordinates_lat>35.5608</arrival_coordinates_lat><arrival_country_code>IQ</arrival_country_code><arrival_country_name>Iraq</arrival_country_name><arrival_city_code>ISU</arrival_city_code><arrival_city_name>Sulaimaniyah</arrival_city_name><planes>320</planes><plane_name>Airbus Industrie A320</plane_name></routes><routes><airline_iata>LH</airline_iata><departure_airport_iata>FRA</departure_airport_iata><departure_name_airport>Frankfurt International Airport</departure_name_airport><departure_coordinates_lon>8.570773</departure_coordinates_lon><departure_coordinates_lat>50.050735</departure_coordinates_lat><departure_country_code>DE</departure_country_code><departure_country_name>Germany</departure_country_name><departure_city_code>FRA</departure_city_code><departure_city_name>Frankfurt</departure_city_name><arrival_airport_iata>EBL</arrival_airport_iata><arrival_name_airport>Erbil International (irbil Northwest)</arrival_name_airport><arrival_coordinates_lon>43.963055</arrival_coordinates_lon><arrival_coordinates_lat>36.2375</arrival_coordinates_lat><arrival_country_code>IQ</arrival_country_code><arrival_country_name>Iraq</arrival_country_name><arrival_city_code>EBL</arrival_city_code><arrival_city_name>Erbil</arrival_city_name><planes>319</planes><plane_name>Airbus Industrie A319</plane_name></routes><routes><airline_iata>ME</airline_iata><departure_airport_iata>BEY</departure_airport_iata><departure_name_airport>Beirut Rafic Hariri Airport</departure_name_airport><departure_coordinates_lon>35.49308</departure_coordinates_lon><departure_coordinates_lat>33.826073</departure_coordinates_lat><departure_country_code>LB</departure_country_code><departure_country_name>Lebanon</departure_country_name><departure_city_code>BEY</departure_city_code><departure_city_name>Beirut</departure_city_name><arrival_airport_iata>BGW</arrival_airport_iata><arrival_name_airport>Baghdad International</arrival_name_airport><arrival_coordinates_lon>44.225</arrival_coordinates_lon><arrival_coordinates_lat>33.255554</arrival_coordinates_lat><arrival_country_code>IQ</arrival_country_code><arrival_country_name>Iraq</arrival_country_name><arrival_city_code>BGW</arrival_city_code><arrival_city_name>Baghdad</arrival_city_name><planes>321</planes><plane_name>Airbus Industrie A321</plane_name></routes><routes><airline_iata>ME</airline_iata><departure_airport_iata>BEY</departure_airport_iata><departure_name_airport>Beirut Rafic Hariri Airport</departure_name_airport><departure_coordinates_lon>35.49308</departure_coordinates_lon><departure_coordinates_lat>33.826073</departure_coordinates_lat><departure_country_code>LB</departure_country_code><departure_country_name>Lebanon</departure_country_name><departure_city_code>BEY</departure_city_code><departure_city_name>Beirut</departure_city_name><arrival_airport_iata>EBL</arrival_airport_iata><arrival_name_airport>Erbil International (irbil Northwest)</arrival_name_airport><arrival_coordinates_lon>43.963055</arrival_coordinates_lon><arrival_coordinates_lat>36.2375</arrival_coordinates_lat><arrival_country_code>IQ</arrival_country_code><arrival_country_name>Iraq</arrival_country_name><arrival_city_code>EBL</arrival_city_code><arrival_city_name>Erbil</arrival_city_name><planes>320</planes><plane_name>Airbus Industrie A320</plane_name></routes><routes><airline_iata>MS</airline_iata><departure_airport_iata>CAI</departure_airport_iata><departure_name_airport>Cairo International Airport</departure_name_airport><departure_coordinates_lon>31.40647</departure_coordinates_lon><departure_coordinates_lat>30.120106</departure_coordinates_lat><departure_country_code>EG</departure_country_code><departure_country_name>Egypt</departure_country_name><departure_city_code>CAI</departure_city_code><departure_city_name>Cairo</departure_city_name><arrival_airport_iata>BGW</arrival_airport_iata><arrival_name_airport>Baghdad International</arrival_name_airport><arrival_coordinates_lon>44.225</arrival_coordinates_lon><arrival_coordinates_lat>33.255554</arrival_coordinates_lat><arrival_country_code>IQ</arrival_country_code><arrival_country_name>Iraq</arrival_country_name><arrival_city_code>BGW</arrival_city_code><arrival_city_name>Baghdad</arrival_city_name><planes>320</planes><plane_name>Airbus Industrie A320</plane_name></routes><routes><airline_iata>MS</airline_iata><departure_airport_iata>CAI</departure_airport_iata><departure_name_airport>Cairo International Airport</departure_name_airport><departure_coordinates_lon>31.40647</departure_coordinates_lon><departure_coordinates_lat>30.120106</departure_coordinates_lat><departure_country_code>EG</departure_country_code><departure_country_name>Egypt</departure_country_name><departure_city_code>CAI</departure_city_code><departure_city_name>Cairo</departure_city_name><arrival_airport_iata>EBL</arrival_airport_iata><arrival_name_airport>Erbil International (irbil Northwest)</arrival_name_airport><arrival_coordinates_lon>43.963055</arrival_coordinates_lon><arrival_coordinates_lat>36.2375</arrival_coordinates_lat><arrival_country_code>IQ</arrival_country_code><arrival_country_name>Iraq</arrival_country_name><arrival_city_code>EBL</arrival_city_code><arrival_city_name>Erbil</arrival_city_name><planes>320</planes><plane_name>Airbus Industrie A320</plane_name></routes><routes><airline_iata>OS</airline_iata><departure_airport_iata>VIE</departure_airport_iata><departure_name_airport>Vienna International</departure_name_airport><departure_coordinates_lon>16.563583</departure_coordinates_lon><departure_coordinates_lat>48.11972</departure_coordinates_lat><departure_country_code>AT</departure_country_code><departure_country_name>Austria</departure_country_name><departure_city_code>VIE</departure_city_code><departure_city_name>Vienna</departure_city_name><arrival_airport_iata>BGW</arrival_airport_iata><arrival_name_airport>Baghdad International</arrival_name_airport><arrival_coordinates_lon>44.225</arrival_coordinates_lon><arrival_coordinates_lat>33.255554</arrival_coordinates_lat><arrival_country_code>IQ</arrival_country_code><arrival_country_name>Iraq</arrival_country_name><arrival_city_code>BGW</arrival_city_code><arrival_city_name>Baghdad</arrival_city_name><planes>320</planes><plane_name>Airbus Industrie A320</plane_name></routes><routes><airline_iata>OS</airline_iata><departure_airport_iata>VIE</departure_airport_iata><departure_name_airport>Vienna International</departure_name_airport><departure_coordinates_lon>16.563583</departure_coordinates_lon><departure_coordinates_lat>48.11972</departure_coordinates_lat><departure_country_code>AT</departure_country_code><departure_country_name>Austria</departure_country_name><departure_city_code>VIE</departure_city_code><departure_city_name>Vienna</departure_city_name><arrival_airport_iata>EBL</arrival_airport_iata><arrival_name_airport>Erbil International (irbil Northwest)</arrival_name_airport><arrival_coordinates_lon>43.963055</arrival_coordinates_lon><arrival_coordinates_lat>36.2375</arrival_coordinates_lat><arrival_country_code>IQ</arrival_country_code><arrival_country_name>Iraq</arrival_country_name><arrival_city_code>EBL</arrival_city_code><arrival_city_name>Erbil</arrival_city_name><planes>319</planes><plane_name>Airbus Industrie A319</plane_name></routes><routes><airline_iata>PC</airline_iata><departure_airport_iata>ESB</departure_airport_iata><departure_name_airport>Esenboga International</departure_name_airport><departure_coordinates_lon>32.993145</departure_coordinates_lon><departure_coordinates_lat>40.11494</departure_coordinates_lat><departure_country_code>TR</departure_country_code><departure_country_name>Turkey</departure_country_name><departure_city_code>ANK</departure_city_code><departure_city_name>Ankara</departure_city_name><arrival_airport_iata>EBL</arrival_airport_iata><arrival_name_airport>Erbil International (irbil Northwest)</arrival_name_airport><arrival_coordinates_lon>43.963055</arrival_coordinates_lon><arrival_coordinates_lat>36.2375</arrival_coordinates_lat><arrival_country_code>IQ</arrival_country_code><arrival_country_name>Iraq</arrival_country_name><arrival_city_code>EBL</arrival_city_code><arrival_city_name>Erbil</arrival_city_name><planes>738</planes><plane_name>Boeing 737-800</plane_name></routes><routes><airline_iata>QR</airline_iata><departure_airport_iata>DOH</departure_airport_iata><departure_name_airport>Doha International</departure_name_airport><departure_coordinates_lon>51.558067</departure_coordinates_lon><departure_coordinates_lat>25.267569</departure_coordinates_lat><departure_country_code>QA</departure_country_code><departure_country_name>Qatar</departure_country_name><departure_city_code>DOH</departure_city_code><departure_city_name>Doha</departure_city_name><arrival_airport_iata>BGW</arrival_airport_iata><arrival_name_airport>Baghdad International</arrival_name_airport><arrival_coordinates_lon>44.225</arrival_coordinates_lon><arrival_coordinates_lat>33.255554</arrival_coordinates_lat><arrival_country_code>IQ</arrival_country_code><arrival_country_name>Iraq</arrival_country_name><arrival_city_code>BGW</arrival_city_code><arrival_city_name>Baghdad</arrival_city_name><planes>319</planes><plane_name>Airbus Industrie A319</plane_name></routes><routes><airline_iata>QR</airline_iata><departure_airport_iata>DOH</departure_airport_iata><departure_name_airport>Doha International</departure_name_airport><departure_coordinates_lon>51.558067</departure_coordinates_lon><departure_coordinates_lat>25.267569</departure_coordinates_lat><departure_country_code>QA</departure_country_code><departure_country_name>Qatar</departure_country_name><departure_city_code>DOH</departure_city_code><departure_city_name>Doha</departure_city_name><arrival_airport_iata>EBL</arrival_airport_iata><arrival_name_airport>Erbil International (irbil Northwest)</arrival_name_airport><arrival_coordinates_lon>43.963055</arrival_coordinates_lon><arrival_coordinates_lat>36.2375</arrival_coordinates_lat><arrival_country_code>IQ</arrival_country_code><arrival_country_name>Iraq</arrival_country_name><arrival_city_code>EBL</arrival_city_code><arrival_city_name>Erbil</arrival_city_name><planes>320</planes><plane_name>Airbus Industrie A320</plane_name></routes><routes><airline_iata>RJ</airline_iata><departure_airport_iata>AMM</departure_airport_iata><departure_name_airport>Queen Alia International</departure_name_airport><departure_coordinates_lon>35.98932</departure_coordinates_lon><departure_coordinates_lat>31.722534</departure_coordinates_lat><departure_country_code>JO</departure_country_code><departure_country_name>Jordan</departure_country_name><departure_city_code>AMM</departure_city_code><departure_city_name>Amman</departure_city_name><arrival_airport_iata>BGW</arrival_airport_iata><arrival_name_airport>Baghdad International</arrival_name_airport><arrival_coordinates_lon>44.225</arrival_coordinates_lon><arrival_coordinates_lat>33.255554</arrival_coordinates_lat><arrival_country_code>IQ</arrival_country_code><arrival_country_name>Iraq</arrival_country_name><arrival_city_code>BGW</arrival_city_code><arrival_city_name>Baghdad</arrival_city_name><planes>321</planes><plane_name>Airbus Industrie A321</plane_name></routes><routes><airline_iata>RJ</airline_iata><departure_airport_iata>AMM</departure_airport_iata><departure_name_airport>Queen Alia International</departure_name_airport><departure_coordinates_lon>35.98932</departure_coordinates_lon><departure_coordinates_lat>31.722534</departure_coordinates_lat><departure_country_code>JO</departure_country_code><departure_country_name>Jordan</departure_country_name><departure_city_code>AMM</departure_city_code><departure_city_name>Amman</departure_city_name><arrival_airport_iata>BSR</arrival_airport_iata><arrival_name_airport>International</arrival_name_airport><arrival_coordinates_lon>47.79139</arrival_coordinates_lon><arrival_coordinates_lat>30.555555</arrival_coordinates_lat><arrival_country_code>IQ</arrival_country_code><arrival_country_name>Iraq</arrival_country_name><arrival_city_code>BSR</arrival_city_code><arrival_city_name>Basra</arrival_city_name><planes>320</planes><plane_name>Airbus Industrie A320</plane_name></routes><routes><airline_iata>RJ</airline_iata><departure_airport_iata>AMM</departure_airport_iata><departure_name_airport>Queen Alia International</departure_name_airport><departure_coordinates_lon>35.98932</departure_coordinates_lon><departure_coordinates_lat>31.722534</departure_coordinates_lat><departure_country_code>JO</departure_country_code><departure_country_name>Jordan</departure_country_name><departure_city_code>AMM</departure_city_code><departure_city_name>Amman</departure_city_name><arrival_airport_iata>EBL</arrival_airport_iata><arrival_name_airport>Erbil International (irbil Northwest)</arrival_name_airport><arrival_coordinates_lon>43.963055</arrival_coordinates_lon><arrival_coordinates_lat>36.2375</arrival_coordinates_lat><arrival_country_code>IQ</arrival_country_code><arrival_country_name>Iraq</arrival_country_name><arrival_city_code>EBL</arrival_city_code><arrival_city_name>Erbil</arrival_city_name><planes>E75</planes><plane_name>Embraer ERJ-175</plane_name></routes><routes><airline_iata>RJ</airline_iata><departure_airport_iata>AMM</departure_airport_iata><departure_name_airport>Queen Alia International</departure_name_airport><departure_coordinates_lon>35.98932</departure_coordinates_lon><departure_coordinates_lat>31.722534</departure_coordinates_lat><departure_country_code>JO</departure_country_code><departure_country_name>Jordan</departure_country_name><departure_city_code>AMM</departure_city_code><departure_city_name>Amman</departure_city_name><arrival_airport_iata>ISU</arrival_airport_iata><arrival_name_airport>Sulaimaniyah International</arrival_name_airport><arrival_coordinates_lon>45.314716</arrival_coordinates_lon><arrival_coordinates_lat>35.5608</arrival_coordinates_lat><arrival_country_code>IQ</arrival_country_code><arrival_country_name>Iraq</arrival_country_name><arrival_city_code>ISU</arrival_city_code><arrival_city_name>Sulaimaniyah</arrival_city_name><planes>E95</planes><plane_name>Embraer ERJ-195</plane_name></routes><routes><airline_iata>RL</airline_iata><departure_airport_iata>AMM</departure_airport_iata><departure_name_airport>Queen Alia International</departure_name_airport><departure_coordinates_lon>35.98932</departure_coordinates_lon><departure_coordinates_lat>31.722534</departure_coordinates_lat><departure_country_code>JO</departure_country_code><departure_country_name>Jordan</departure_country_name><departure_city_code>AMM</departure_city_code><departure_city_name>Amman</departure_city_name><arrival_airport_iata>OSM</arrival_airport_iata><arrival_name_airport>Mosul</arrival_name_airport><arrival_coordinates_lon>43.149445</arrival_coordinates_lon><arrival_coordinates_lat>36.3075</arrival_coordinates_lat><arrival_country_code>IQ</arrival_country_code><arrival_country_name>Iraq</arrival_country_name><arrival_city_code>OSM</arrival_city_code><arrival_city_name>Mosul</arrival_city_name><planes>734</planes><plane_name>Boeing 737-400</plane_name></routes><routes><airline_iata>ST</airline_iata><departure_airport_iata>ARN</departure_airport_iata><departure_name_airport>Arlanda</departure_name_airport><departure_coordinates_lon>17.930365</departure_coordinates_lon><departure_coordinates_lat>59.64982</departure_coordinates_lat><departure_country_code>SE</departure_country_code><departure_country_name>Sweden</departure_country_name><departure_city_code>STO</departure_city_code><departure_city_name>Stockholm</departure_city_name><arrival_airport_iata>ISU</arrival_airport_iata><arrival_name_airport>Sulaimaniyah International</arrival_name_airport><arrival_coordinates_lon>45.314716</arrival_coordinates_lon><arrival_coordinates_lat>35.5608</arrival_coordinates_lat><arrival_country_code>IQ</arrival_country_code><arrival_country_name>Iraq</arrival_country_name><arrival_city_code>ISU</arrival_city_code><arrival_city_name>Sulaimaniyah</arrival_city_name><planes>319</planes><plane_name>Airbus Industrie A319</plane_name></routes><routes><airline_iata>ST</airline_iata><departure_airport_iata>DUS</departure_airport_iata><departure_name_airport>Düsseldorf International Airport</departure_name_airport><departure_coordinates_lon>6.76558</departure_coordinates_lon><departure_coordinates_lat>51.278328</departure_coordinates_lat><departure_country_code>DE</departure_country_code><departure_country_name>Germany</departure_country_name><departure_city_code>DUS</departure_city_code><departure_city_name>Dusseldorf</departure_city_name><arrival_airport_iata>EBL</arrival_airport_iata><arrival_name_airport>Erbil International (irbil Northwest)</arrival_name_airport><arrival_coordinates_lon>43.963055</arrival_coordinates_lon><arrival_coordinates_lat>36.2375</arrival_coordinates_lat><arrival_country_code>IQ</arrival_country_code><arrival_country_name>Iraq</arrival_country_name><arrival_city_code>EBL</arrival_city_code><arrival_city_name>Erbil</arrival_city_name><planes>319</planes><plane_name>Airbus Industrie A319</plane_name></routes><routes><airline_iata>TK</airline_iata><departure_airport_iata>AYT</departure_airport_iata><departure_name_airport>Antalya</departure_name_airport><departure_coordinates_lon>30.80135</departure_coordinates_lon><departure_coordinates_lat>36.89928</departure_coordinates_lat><departure_country_code>TR</departure_country_code><departure_country_name>Turkey</departure_country_name><departure_city_code>AYT</departure_city_code><departure_city_name>Antalya</departure_city_name><arrival_airport_iata>BGW</arrival_airport_iata><arrival_name_airport>Baghdad International</arrival_name_airport><arrival_coordinates_lon>44.225</arrival_coordinates_lon><arrival_coordinates_lat>33.255554</arrival_coordinates_lat><arrival_country_code>IQ</arrival_country_code><arrival_country_name>Iraq</arrival_country_name><arrival_city_code>BGW</arrival_city_code><arrival_city_name>Baghdad</arrival_city_name><planes>738</planes><plane_name>Boeing 737-800</plane_name></routes><routes><airline_iata>TK</airline_iata><departure_airport_iata>AYT</departure_airport_iata><departure_name_airport>Antalya</departure_name_airport><departure_coordinates_lon>30.80135</departure_coordinates_lon><departure_coordinates_lat>36.89928</departure_coordinates_lat><departure_country_code>TR</departure_country_code><departure_country_name>Turkey</departure_country_name><departure_city_code>AYT</departure_city_code><departure_city_name>Antalya</departure_city_name><arrival_airport_iata>EBL</arrival_airport_iata><arrival_name_airport>Erbil International (irbil Northwest)</arrival_name_airport><arrival_coordinates_lon>43.963055</arrival_coordinates_lon><arrival_coordinates_lat>36.2375</arrival_coordinates_lat><arrival_country_code>IQ</arrival_country_code><arrival_country_name>Iraq</arrival_country_name><arrival_city_code>EBL</arrival_city_code><arrival_city_name>Erbil</arrival_city_name><planes>738</planes><plane_name>Boeing 737-800</plane_name></routes><routes><airline_iata>TK</airline_iata><departure_airport_iata>ESB</departure_airport_iata><departure_name_airport>Esenboga International</departure_name_airport><departure_coordinates_lon>32.993145</departure_coordinates_lon><departure_coordinates_lat>40.11494</departure_coordinates_lat><departure_country_code>TR</departure_country_code><departure_country_name>Turkey</departure_country_name><departure_city_code>ANK</departure_city_code><departure_city_name>Ankara</departure_city_name><arrival_airport_iata>BGW</arrival_airport_iata><arrival_name_airport>Baghdad International</arrival_name_airport><arrival_coordinates_lon>44.225</arrival_coordinates_lon><arrival_coordinates_lat>33.255554</arrival_coordinates_lat><arrival_country_code>IQ</arrival_country_code><arrival_country_name>Iraq</arrival_country_name><arrival_city_code>BGW</arrival_city_code><arrival_city_name>Baghdad</arrival_city_name><planes>738</planes><plane_name>Boeing 737-800</plane_name></routes><routes><airline_iata>TK</airline_iata><departure_airport_iata>IST</departure_airport_iata><departure_name_airport>Ataturk</departure_name_airport><departure_coordinates_lon>28.815277</departure_coordinates_lon><departure_coordinates_lat>40.976665</departure_coordinates_lat><departure_country_code>TR</departure_country_code><departure_country_name>Turkey</departure_country_name><departure_city_code>IST</departure_city_code><departure_city_name>Istanbul</departure_city_name><arrival_airport_iata>BGW</arrival_airport_iata><arrival_name_airport>Baghdad International</arrival_name_airport><arrival_coordinates_lon>44.225</arrival_coordinates_lon><arrival_coordinates_lat>33.255554</arrival_coordinates_lat><arrival_country_code>IQ</arrival_country_code><arrival_country_name>Iraq</arrival_country_name><arrival_city_code>BGW</arrival_city_code><arrival_city_name>Baghdad</arrival_city_name><planes>738</planes><plane_name>Boeing 737-800</plane_name></routes><routes><airline_iata>TK</airline_iata><departure_airport_iata>IST</departure_airport_iata><departure_name_airport>Ataturk</departure_name_airport><departure_coordinates_lon>28.815277</departure_coordinates_lon><departure_coordinates_lat>40.976665</departure_coordinates_lat><departure_country_code>TR</departure_country_code><departure_country_name>Turkey</departure_country_name><departure_city_code>IST</departure_city_code><departure_city_name>Istanbul</departure_city_name><arrival_airport_iata>BSR</arrival_airport_iata><arrival_name_airport>International</arrival_name_airport><arrival_coordinates_lon>47.79139</arrival_coordinates_lon><arrival_coordinates_lat>30.555555</arrival_coordinates_lat><arrival_country_code>IQ</arrival_country_code><arrival_country_name>Iraq</arrival_country_name><arrival_city_code>BSR</arrival_city_code><arrival_city_name>Basra</arrival_city_name><planes>738</planes><plane_name>Boeing 737-800</plane_name></routes><routes><airline_iata>TK</airline_iata><departure_airport_iata>IST</departure_airport_iata><departure_name_airport>Ataturk</departure_name_airport><departure_coordinates_lon>28.815277</departure_coordinates_lon><departure_coordinates_lat>40.976665</departure_coordinates_lat><departure_country_code>TR</departure_country_code><departure_country_name>Turkey</departure_country_name><departure_city_code>IST</departure_city_code><departure_city_name>Istanbul</departure_city_name><arrival_airport_iata>EBL</arrival_airport_iata><arrival_name_airport>Erbil International (irbil Northwest)</arrival_name_airport><arrival_coordinates_lon>43.963055</arrival_coordinates_lon><arrival_coordinates_lat>36.2375</arrival_coordinates_lat><arrival_country_code>IQ</arrival_country_code><arrival_country_name>Iraq</arrival_country_name><arrival_city_code>EBL</arrival_city_code><arrival_city_name>Erbil</arrival_city_name><planes>738</planes><plane_name>Boeing 737-800</plane_name></routes><routes><airline_iata>TK</airline_iata><departure_airport_iata>IST</departure_airport_iata><departure_name_airport>Ataturk</departure_name_airport><departure_coordinates_lon>28.815277</departure_coordinates_lon><departure_coordinates_lat>40.976665</departure_coordinates_lat><departure_country_code>TR</departure_country_code><departure_country_name>Turkey</departure_country_name><departure_city_code>IST</departure_city_code><departure_city_name>Istanbul</departure_city_name><arrival_airport_iata>ISU</arrival_airport_iata><arrival_name_airport>Sulaimaniyah International</arrival_name_airport><arrival_coordinates_lon>45.314716</arrival_coordinates_lon><arrival_coordinates_lat>35.5608</arrival_coordinates_lat><arrival_country_code>IQ</arrival_country_code><arrival_country_name>Iraq</arrival_country_name><arrival_city_code>ISU</arrival_city_code><arrival_city_name>Sulaimaniyah</arrival_city_name><planes>319</planes><plane_name>Airbus Industrie A319</plane_name></routes><routes><airline_iata>TK</airline_iata><departure_airport_iata>IST</departure_airport_iata><departure_name_airport>Ataturk</departure_name_airport><departure_coordinates_lon>28.815277</departure_coordinates_lon><departure_coordinates_lat>40.976665</departure_coordinates_lat><departure_country_code>TR</departure_country_code><departure_country_name>Turkey</departure_country_name><departure_city_code>IST</departure_city_code><departure_city_name>Istanbul</departure_city_name><arrival_airport_iata>NJF</arrival_airport_iata><arrival_name_airport>Al-Ashraf International</arrival_name_airport><arrival_coordinates_lon>44.389187</arrival_coordinates_lon><arrival_coordinates_lat>31.993563</arrival_coordinates_lat><arrival_country_code>IQ</arrival_country_code><arrival_country_name>Iraq</arrival_country_name><arrival_city_code>NJF</arrival_city_code><arrival_city_name>Al Najaf</arrival_city_name><planes>738</planes><plane_name>Boeing 737-800</plane_name></routes><routes><airline_iata>TK</airline_iata><departure_airport_iata>IST</departure_airport_iata><departure_name_airport>Ataturk</departure_name_airport><departure_coordinates_lon>28.815277</departure_coordinates_lon><departure_coordinates_lat>40.976665</departure_coordinates_lat><departure_country_code>TR</departure_country_code><departure_country_name>Turkey</departure_country_name><departure_city_code>IST</departure_city_code><departure_city_name>Istanbul</departure_city_name><arrival_airport_iata>OSM</arrival_airport_iata><arrival_name_airport>Mosul</arrival_name_airport><arrival_coordinates_lon>43.149445</arrival_coordinates_lon><arrival_coordinates_lat>36.3075</arrival_coordinates_lat><arrival_country_code>IQ</arrival_country_code><arrival_country_name>Iraq</arrival_country_name><arrival_city_code>OSM</arrival_city_code><arrival_city_name>Mosul</arrival_city_name><planes>73W</planes><plane_name>Boeing 737-700 With Winglets</plane_name></routes><routes><airline_iata>W2</airline_iata><departure_airport_iata>ARN</departure_airport_iata><departure_name_airport>Arlanda</departure_name_airport><departure_coordinates_lon>17.930365</departure_coordinates_lon><departure_coordinates_lat>59.64982</departure_coordinates_lat><departure_country_code>SE</departure_country_code><departure_country_name>Sweden</departure_country_name><departure_city_code>STO</departure_city_code><departure_city_name>Stockholm</departure_city_name><arrival_airport_iata>EBL</arrival_airport_iata><arrival_name_airport>Erbil International (irbil Northwest)</arrival_name_airport><arrival_coordinates_lon>43.963055</arrival_coordinates_lon><arrival_coordinates_lat>36.2375</arrival_coordinates_lat><arrival_country_code>IQ</arrival_country_code><arrival_country_name>Iraq</arrival_country_name><arrival_city_code>EBL</arrival_city_code><arrival_city_name>Erbil</arrival_city_name><planes>320</planes><plane_name>Airbus Industrie A320</plane_name></routes><routes><airline_iata>W2</airline_iata><departure_airport_iata>ARN</departure_airport_iata><departure_name_airport>Arlanda</departure_name_airport><departure_coordinates_lon>17.930365</departure_coordinates_lon><departure_coordinates_lat>59.64982</departure_coordinates_lat><departure_country_code>SE</departure_country_code><departure_country_name>Sweden</departure_country_name><departure_city_code>STO</departure_city_code><departure_city_name>Stockholm</departure_city_name><arrival_airport_iata>ISU</arrival_airport_iata><arrival_name_airport>Sulaimaniyah International</arrival_name_airport><arrival_coordinates_lon>45.314716</arrival_coordinates_lon><arrival_coordinates_lat>35.5608</arrival_coordinates_lat><arrival_country_code>IQ</arrival_country_code><arrival_country_name>Iraq</arrival_country_name><arrival_city_code>ISU</arrival_city_code><arrival_city_name>Sulaimaniyah</arrival_city_name><planes>320</planes><plane_name>Airbus Industrie A320</plane_name></routes><routes><airline_iata>W2</airline_iata><departure_airport_iata>GOT</departure_airport_iata><departure_name_airport>Landvetter</departure_name_airport><departure_coordinates_lon>12.294878</departure_coordinates_lon><departure_coordinates_lat>57.66664</departure_coordinates_lat><departure_country_code>SE</departure_country_code><departure_country_name>Sweden</departure_country_name><departure_city_code>GOT</departure_city_code><departure_city_name>Gothenburg</departure_city_name><arrival_airport_iata>EBL</arrival_airport_iata><arrival_name_airport>Erbil International (irbil Northwest)</arrival_name_airport><arrival_coordinates_lon>43.963055</arrival_coordinates_lon><arrival_coordinates_lat>36.2375</arrival_coordinates_lat><arrival_country_code>IQ</arrival_country_code><arrival_country_name>Iraq</arrival_country_name><arrival_city_code>EBL</arrival_city_code><arrival_city_name>Erbil</arrival_city_name><planes>320</planes><plane_name>Airbus Industrie A320</plane_name></routes><routes><airline_iata>W2</airline_iata><departure_airport_iata>MMX</departure_airport_iata><departure_name_airport>Sturup</departure_name_airport><departure_coordinates_lon>13.363727</departure_coordinates_lon><departure_coordinates_lat>55.538757</departure_coordinates_lat><departure_country_code>SE</departure_country_code><departure_country_name>Sweden</departure_country_name><departure_city_code>MMA</departure_city_code><departure_city_name>Malmo</departure_city_name><arrival_airport_iata>BGW</arrival_airport_iata><arrival_name_airport>Baghdad International</arrival_name_airport><arrival_coordinates_lon>44.225</arrival_coordinates_lon><arrival_coordinates_lat>33.255554</arrival_coordinates_lat><arrival_country_code>IQ</arrival_country_code><arrival_country_name>Iraq</arrival_country_name><arrival_city_code>BGW</arrival_city_code><arrival_city_name>Baghdad</arrival_city_name><planes>320</planes><plane_name>Airbus Industrie A320</plane_name></routes><routes><airline_iata>W2</airline_iata><departure_airport_iata>MMX</departure_airport_iata><departure_name_airport>Sturup</departure_name_airport><departure_coordinates_lon>13.363727</departure_coordinates_lon><departure_coordinates_lat>55.538757</departure_coordinates_lat><departure_country_code>SE</departure_country_code><departure_country_name>Sweden</departure_country_name><departure_city_code>MMA</departure_city_code><departure_city_name>Malmo</departure_city_name><arrival_airport_iata>NJF</arrival_airport_iata><arrival_name_airport>Al-Ashraf International</arrival_name_airport><arrival_coordinates_lon>44.389187</arrival_coordinates_lon><arrival_coordinates_lat>31.993563</arrival_coordinates_lat><arrival_country_code>IQ</arrival_country_code><arrival_country_name>Iraq</arrival_country_name><arrival_city_code>NJF</arrival_city_code><arrival_city_name>Al Najaf</arrival_city_name><planes>320</planes><plane_name>Airbus Industrie A320</plane_name></routes></route>
