<?xml version="1.0" encoding="utf-8"?>
<route><routes><airline_iata>7I</airline_iata><departure_airport_iata>CUR</departure_airport_iata><departure_name_airport>Hato International Airport</departure_name_airport><departure_coordinates_lon>-68.95706</departure_coordinates_lon><departure_coordinates_lat>12.184615</departure_coordinates_lat><departure_country_code>CW</departure_country_code><departure_country_name>Curaçao</departure_country_name><departure_city_code>CUR</departure_city_code><departure_city_name>Curacao</departure_city_name><arrival_airport_iata>KIN</arrival_airport_iata><arrival_name_airport>Norman Manley</arrival_name_airport><arrival_coordinates_lon>-76.77816</arrival_coordinates_lon><arrival_coordinates_lat>17.93775</arrival_coordinates_lat><arrival_country_code>JM</arrival_country_code><arrival_country_name>Jamaica</arrival_country_name><arrival_city_code>KIN</arrival_city_code><arrival_city_name>Kingston</arrival_city_name><planes>M83</planes><plane_name>Boeing/McDonnell Douglas MD-83</plane_name></routes><routes><airline_iata>AA</airline_iata><departure_airport_iata>DFW</departure_airport_iata><departure_name_airport>Dallas/Fort Worth International</departure_name_airport><departure_coordinates_lon>-97.036125</departure_coordinates_lon><departure_coordinates_lat>32.89746</departure_coordinates_lat><departure_country_code>US</departure_country_code><departure_country_name>United States</departure_country_name><departure_city_code>DFW</departure_city_code><departure_city_name>Dallas</departure_city_name><arrival_airport_iata>MBJ</arrival_airport_iata><arrival_name_airport>Sangster International</arrival_name_airport><arrival_coordinates_lon>-77.91663</arrival_coordinates_lon><arrival_coordinates_lat>18.498465</arrival_coordinates_lat><arrival_country_code>JM</arrival_country_code><arrival_country_name>Jamaica</arrival_country_name><arrival_city_code>MBJ</arrival_city_code><arrival_city_name>Montego Bay</arrival_city_name><planes>738</planes><plane_name>Boeing 737-800</plane_name></routes><routes><airline_iata>AA</airline_iata><departure_airport_iata>MIA</departure_airport_iata><departure_name_airport>Miami International Airport</departure_name_airport><departure_coordinates_lon>-80.27824</departure_coordinates_lon><departure_coordinates_lat>25.796</departure_coordinates_lat><departure_country_code>US</departure_country_code><departure_country_name>United States</departure_country_name><departure_city_code>MIA</departure_city_code><departure_city_name>Miami</departure_city_name><arrival_airport_iata>KIN</arrival_airport_iata><arrival_name_airport>Norman Manley</arrival_name_airport><arrival_coordinates_lon>-76.77816</arrival_coordinates_lon><arrival_coordinates_lat>17.93775</arrival_coordinates_lat><arrival_country_code>JM</arrival_country_code><arrival_country_name>Jamaica</arrival_country_name><arrival_city_code>KIN</arrival_city_code><arrival_city_name>Kingston</arrival_city_name><planes>738</planes><plane_name>Boeing 737-800</plane_name></routes><routes><airline_iata>AA</airline_iata><departure_airport_iata>MIA</departure_airport_iata><departure_name_airport>Miami International Airport</departure_name_airport><departure_coordinates_lon>-80.27824</departure_coordinates_lon><departure_coordinates_lat>25.796</departure_coordinates_lat><departure_country_code>US</departure_country_code><departure_country_name>United States</departure_country_name><departure_city_code>MIA</departure_city_code><departure_city_name>Miami</departure_city_name><arrival_airport_iata>MBJ</arrival_airport_iata><arrival_name_airport>Sangster International</arrival_name_airport><arrival_coordinates_lon>-77.91663</arrival_coordinates_lon><arrival_coordinates_lat>18.498465</arrival_coordinates_lat><arrival_country_code>JM</arrival_country_code><arrival_country_name>Jamaica</arrival_country_name><arrival_city_code>MBJ</arrival_city_code><arrival_city_name>Montego Bay</arrival_city_name><planes>738</planes><plane_name>Boeing 737-800</plane_name></routes><routes><airline_iata>AC</airline_iata><departure_airport_iata>YUL</departure_airport_iata><departure_name_airport>Pierre Elliott Trudeau International</departure_name_airport><departure_coordinates_lon>-73.74991</departure_coordinates_lon><departure_coordinates_lat>45.457714</departure_coordinates_lat><departure_country_code>CA</departure_country_code><departure_country_name>Canada</departure_country_name><departure_city_code>YMQ</departure_city_code><departure_city_name>Montreal</departure_city_name><arrival_airport_iata>MBJ</arrival_airport_iata><arrival_name_airport>Sangster International</arrival_name_airport><arrival_coordinates_lon>-77.91663</arrival_coordinates_lon><arrival_coordinates_lat>18.498465</arrival_coordinates_lat><arrival_country_code>JM</arrival_country_code><arrival_country_name>Jamaica</arrival_country_name><arrival_city_code>MBJ</arrival_city_code><arrival_city_name>Montego Bay</arrival_city_name><planes>319</planes><plane_name>Airbus Industrie A319</plane_name></routes><routes><airline_iata>AC</airline_iata><departure_airport_iata>YYZ</departure_airport_iata><departure_name_airport>Lester B. Pearson International</departure_name_airport><departure_coordinates_lon>-79.61146</departure_coordinates_lon><departure_coordinates_lat>43.681583</departure_coordinates_lat><departure_country_code>CA</departure_country_code><departure_country_name>Canada</departure_country_name><departure_city_code>YTO</departure_city_code><departure_city_name>Toronto</departure_city_name><arrival_airport_iata>KIN</arrival_airport_iata><arrival_name_airport>Norman Manley</arrival_name_airport><arrival_coordinates_lon>-76.77816</arrival_coordinates_lon><arrival_coordinates_lat>17.93775</arrival_coordinates_lat><arrival_country_code>JM</arrival_country_code><arrival_country_name>Jamaica</arrival_country_name><arrival_city_code>KIN</arrival_city_code><arrival_city_name>Kingston</arrival_city_name><planes>319</planes><plane_name>Airbus Industrie A319</plane_name></routes><routes><airline_iata>AC</airline_iata><departure_airport_iata>YYZ</departure_airport_iata><departure_name_airport>Lester B. Pearson International</departure_name_airport><departure_coordinates_lon>-79.61146</departure_coordinates_lon><departure_coordinates_lat>43.681583</departure_coordinates_lat><departure_country_code>CA</departure_country_code><departure_country_name>Canada</departure_country_name><departure_city_code>YTO</departure_city_code><departure_city_name>Toronto</departure_city_name><arrival_airport_iata>MBJ</arrival_airport_iata><arrival_name_airport>Sangster International</arrival_name_airport><arrival_coordinates_lon>-77.91663</arrival_coordinates_lon><arrival_coordinates_lat>18.498465</arrival_coordinates_lat><arrival_country_code>JM</arrival_country_code><arrival_country_name>Jamaica</arrival_country_name><arrival_city_code>MBJ</arrival_city_code><arrival_city_name>Montego Bay</arrival_city_name><planes>319</planes><plane_name>Airbus Industrie A319</plane_name></routes><routes><airline_iata>B6</airline_iata><departure_airport_iata>FLL</departure_airport_iata><departure_name_airport>Fort Lauderdale–Hollywood International</departure_name_airport><departure_coordinates_lon>-80.144905</departure_coordinates_lon><departure_coordinates_lat>26.071491</departure_coordinates_lat><departure_country_code>US</departure_country_code><departure_country_name>United States</departure_country_name><departure_city_code>FLL</departure_city_code><departure_city_name>Fort Lauderdale</departure_city_name><arrival_airport_iata>KIN</arrival_airport_iata><arrival_name_airport>Norman Manley</arrival_name_airport><arrival_coordinates_lon>-76.77816</arrival_coordinates_lon><arrival_coordinates_lat>17.93775</arrival_coordinates_lat><arrival_country_code>JM</arrival_country_code><arrival_country_name>Jamaica</arrival_country_name><arrival_city_code>KIN</arrival_city_code><arrival_city_name>Kingston</arrival_city_name><planes>E90</planes><plane_name>Embraer ERJ-190</plane_name></routes><routes><airline_iata>B6</airline_iata><departure_airport_iata>JFK</departure_airport_iata><departure_name_airport>John F Kennedy International</departure_name_airport><departure_coordinates_lon>-73.78817</departure_coordinates_lon><departure_coordinates_lat>40.642334</departure_coordinates_lat><departure_country_code>US</departure_country_code><departure_country_name>United States</departure_country_name><departure_city_code>NYC</departure_city_code><departure_city_name>New York</departure_city_name><arrival_airport_iata>KIN</arrival_airport_iata><arrival_name_airport>Norman Manley</arrival_name_airport><arrival_coordinates_lon>-76.77816</arrival_coordinates_lon><arrival_coordinates_lat>17.93775</arrival_coordinates_lat><arrival_country_code>JM</arrival_country_code><arrival_country_name>Jamaica</arrival_country_name><arrival_city_code>KIN</arrival_city_code><arrival_city_name>Kingston</arrival_city_name><planes>320</planes><plane_name>Airbus Industrie A320</plane_name></routes><routes><airline_iata>B6</airline_iata><departure_airport_iata>JFK</departure_airport_iata><departure_name_airport>John F Kennedy International</departure_name_airport><departure_coordinates_lon>-73.78817</departure_coordinates_lon><departure_coordinates_lat>40.642334</departure_coordinates_lat><departure_country_code>US</departure_country_code><departure_country_name>United States</departure_country_name><departure_city_code>NYC</departure_city_code><departure_city_name>New York</departure_city_name><arrival_airport_iata>MBJ</arrival_airport_iata><arrival_name_airport>Sangster International</arrival_name_airport><arrival_coordinates_lon>-77.91663</arrival_coordinates_lon><arrival_coordinates_lat>18.498465</arrival_coordinates_lat><arrival_country_code>JM</arrival_country_code><arrival_country_name>Jamaica</arrival_country_name><arrival_city_code>MBJ</arrival_city_code><arrival_city_name>Montego Bay</arrival_city_name><planes>320</planes><plane_name>Airbus Industrie A320</plane_name></routes><routes><airline_iata>B6</airline_iata><departure_airport_iata>MCO</departure_airport_iata><departure_name_airport>Orlando International</departure_name_airport><departure_coordinates_lon>-81.308304</departure_coordinates_lon><departure_coordinates_lat>28.432177</departure_coordinates_lat><departure_country_code>US</departure_country_code><departure_country_name>United States</departure_country_name><departure_city_code>ORL</departure_city_code><departure_city_name>Orlando</departure_city_name><arrival_airport_iata>MBJ</arrival_airport_iata><arrival_name_airport>Sangster International</arrival_name_airport><arrival_coordinates_lon>-77.91663</arrival_coordinates_lon><arrival_coordinates_lat>18.498465</arrival_coordinates_lat><arrival_country_code>JM</arrival_country_code><arrival_country_name>Jamaica</arrival_country_name><arrival_city_code>MBJ</arrival_city_code><arrival_city_name>Montego Bay</arrival_city_name><planes>320</planes><plane_name>Airbus Industrie A320</plane_name></routes><routes><airline_iata>BA</airline_iata><departure_airport_iata>LGW</departure_airport_iata><departure_name_airport>Gatwick</departure_name_airport><departure_coordinates_lon>-0.161863</departure_coordinates_lon><departure_coordinates_lat>51.156807</departure_coordinates_lat><departure_country_code>GB</departure_country_code><departure_country_name>United Kingdom</departure_country_name><departure_city_code>LON</departure_city_code><departure_city_name>London</departure_city_name><arrival_airport_iata>KIN</arrival_airport_iata><arrival_name_airport>Norman Manley</arrival_name_airport><arrival_coordinates_lon>-76.77816</arrival_coordinates_lon><arrival_coordinates_lat>17.93775</arrival_coordinates_lat><arrival_country_code>JM</arrival_country_code><arrival_country_name>Jamaica</arrival_country_name><arrival_city_code>KIN</arrival_city_code><arrival_city_name>Kingston</arrival_city_name><planes>777</planes><plane_name>Boeing 777</plane_name></routes><routes><airline_iata>BV</airline_iata><departure_airport_iata>HAV</departure_airport_iata><departure_name_airport>Jose Marti International</departure_name_airport><departure_coordinates_lon>-82.40818</departure_coordinates_lon><departure_coordinates_lat>22.99845</departure_coordinates_lat><departure_country_code>CU</departure_country_code><departure_country_name>Cuba</departure_country_name><departure_city_code>HAV</departure_city_code><departure_city_name>Havana</departure_city_name><arrival_airport_iata>MBJ</arrival_airport_iata><arrival_name_airport>Sangster International</arrival_name_airport><arrival_coordinates_lon>-77.91663</arrival_coordinates_lon><arrival_coordinates_lat>18.498465</arrival_coordinates_lat><arrival_country_code>JM</arrival_country_code><arrival_country_name>Jamaica</arrival_country_name><arrival_city_code>MBJ</arrival_city_code><arrival_city_name>Montego Bay</arrival_city_name><planes>767</planes><plane_name>Boeing 767</plane_name></routes><routes><airline_iata>BW</airline_iata><departure_airport_iata>ANU</departure_airport_iata><departure_name_airport>V. C. Bird International</departure_name_airport><departure_coordinates_lon>-61.76389</departure_coordinates_lon><departure_coordinates_lat>17.108334</departure_coordinates_lat><departure_country_code>AG</departure_country_code><departure_country_name>Antigua and Barbuda</departure_country_name><departure_city_code>ANU</departure_city_code><departure_city_name>St. John's</departure_city_name><arrival_airport_iata>KIN</arrival_airport_iata><arrival_name_airport>Norman Manley</arrival_name_airport><arrival_coordinates_lon>-76.77816</arrival_coordinates_lon><arrival_coordinates_lat>17.93775</arrival_coordinates_lat><arrival_country_code>JM</arrival_country_code><arrival_country_name>Jamaica</arrival_country_name><arrival_city_code>KIN</arrival_city_code><arrival_city_name>Kingston</arrival_city_name><planes>738</planes><plane_name>Boeing 737-800</plane_name></routes><routes><airline_iata>BW</airline_iata><departure_airport_iata>BGI</departure_airport_iata><departure_name_airport>Grantley Adams International</departure_name_airport><departure_coordinates_lon>-59.487835</departure_coordinates_lon><departure_coordinates_lat>13.080732</departure_coordinates_lat><departure_country_code>BB</departure_country_code><departure_country_name>Barbados</departure_country_name><departure_city_code>BGI</departure_city_code><departure_city_name>Bridgetown</departure_city_name><arrival_airport_iata>KIN</arrival_airport_iata><arrival_name_airport>Norman Manley</arrival_name_airport><arrival_coordinates_lon>-76.77816</arrival_coordinates_lon><arrival_coordinates_lat>17.93775</arrival_coordinates_lat><arrival_country_code>JM</arrival_country_code><arrival_country_name>Jamaica</arrival_country_name><arrival_city_code>KIN</arrival_city_code><arrival_city_name>Kingston</arrival_city_name><planes>738</planes><plane_name>Boeing 737-800</plane_name></routes><routes><airline_iata>BW</airline_iata><departure_airport_iata>FLL</departure_airport_iata><departure_name_airport>Fort Lauderdale–Hollywood International</departure_name_airport><departure_coordinates_lon>-80.144905</departure_coordinates_lon><departure_coordinates_lat>26.071491</departure_coordinates_lat><departure_country_code>US</departure_country_code><departure_country_name>United States</departure_country_name><departure_city_code>FLL</departure_city_code><departure_city_name>Fort Lauderdale</departure_city_name><arrival_airport_iata>KIN</arrival_airport_iata><arrival_name_airport>Norman Manley</arrival_name_airport><arrival_coordinates_lon>-76.77816</arrival_coordinates_lon><arrival_coordinates_lat>17.93775</arrival_coordinates_lat><arrival_country_code>JM</arrival_country_code><arrival_country_name>Jamaica</arrival_country_name><arrival_city_code>KIN</arrival_city_code><arrival_city_name>Kingston</arrival_city_name><planes>738</planes><plane_name>Boeing 737-800</plane_name></routes><routes><airline_iata>BW</airline_iata><departure_airport_iata>FLL</departure_airport_iata><departure_name_airport>Fort Lauderdale–Hollywood International</departure_name_airport><departure_coordinates_lon>-80.144905</departure_coordinates_lon><departure_coordinates_lat>26.071491</departure_coordinates_lat><departure_country_code>US</departure_country_code><departure_country_name>United States</departure_country_name><departure_city_code>FLL</departure_city_code><departure_city_name>Fort Lauderdale</departure_city_name><arrival_airport_iata>MBJ</arrival_airport_iata><arrival_name_airport>Sangster International</arrival_name_airport><arrival_coordinates_lon>-77.91663</arrival_coordinates_lon><arrival_coordinates_lat>18.498465</arrival_coordinates_lat><arrival_country_code>JM</arrival_country_code><arrival_country_name>Jamaica</arrival_country_name><arrival_city_code>MBJ</arrival_city_code><arrival_city_name>Montego Bay</arrival_city_name><planes>738</planes><plane_name>Boeing 737-800</plane_name></routes><routes><airline_iata>BW</airline_iata><departure_airport_iata>JFK</departure_airport_iata><departure_name_airport>John F Kennedy International</departure_name_airport><departure_coordinates_lon>-73.78817</departure_coordinates_lon><departure_coordinates_lat>40.642334</departure_coordinates_lat><departure_country_code>US</departure_country_code><departure_country_name>United States</departure_country_name><departure_city_code>NYC</departure_city_code><departure_city_name>New York</departure_city_name><arrival_airport_iata>KIN</arrival_airport_iata><arrival_name_airport>Norman Manley</arrival_name_airport><arrival_coordinates_lon>-76.77816</arrival_coordinates_lon><arrival_coordinates_lat>17.93775</arrival_coordinates_lat><arrival_country_code>JM</arrival_country_code><arrival_country_name>Jamaica</arrival_country_name><arrival_city_code>KIN</arrival_city_code><arrival_city_name>Kingston</arrival_city_name><planes>738</planes><plane_name>Boeing 737-800</plane_name></routes><routes><airline_iata>BW</airline_iata><departure_airport_iata>JFK</departure_airport_iata><departure_name_airport>John F Kennedy International</departure_name_airport><departure_coordinates_lon>-73.78817</departure_coordinates_lon><departure_coordinates_lat>40.642334</departure_coordinates_lat><departure_country_code>US</departure_country_code><departure_country_name>United States</departure_country_name><departure_city_code>NYC</departure_city_code><departure_city_name>New York</departure_city_name><arrival_airport_iata>MBJ</arrival_airport_iata><arrival_name_airport>Sangster International</arrival_name_airport><arrival_coordinates_lon>-77.91663</arrival_coordinates_lon><arrival_coordinates_lat>18.498465</arrival_coordinates_lat><arrival_country_code>JM</arrival_country_code><arrival_country_name>Jamaica</arrival_country_name><arrival_city_code>MBJ</arrival_city_code><arrival_city_name>Montego Bay</arrival_city_name><planes>738</planes><plane_name>Boeing 737-800</plane_name></routes><routes><airline_iata>BW</airline_iata><departure_airport_iata>KIN</departure_airport_iata><departure_name_airport>Norman Manley</departure_name_airport><departure_coordinates_lon>-76.77816</departure_coordinates_lon><departure_coordinates_lat>17.93775</departure_coordinates_lat><departure_country_code>JM</departure_country_code><departure_country_name>Jamaica</departure_country_name><departure_city_code>KIN</departure_city_code><departure_city_name>Kingston</departure_city_name><arrival_airport_iata>MBJ</arrival_airport_iata><arrival_name_airport>Sangster International</arrival_name_airport><arrival_coordinates_lon>-77.91663</arrival_coordinates_lon><arrival_coordinates_lat>18.498465</arrival_coordinates_lat><arrival_country_code>JM</arrival_country_code><arrival_country_name>Jamaica</arrival_country_name><arrival_city_code>MBJ</arrival_city_code><arrival_city_name>Montego Bay</arrival_city_name><planes>738</planes><plane_name>Boeing 737-800</plane_name></routes><routes><airline_iata>BW</airline_iata><departure_airport_iata>MBJ</departure_airport_iata><departure_name_airport>Sangster International</departure_name_airport><departure_coordinates_lon>-77.91663</departure_coordinates_lon><departure_coordinates_lat>18.498465</departure_coordinates_lat><departure_country_code>JM</departure_country_code><departure_country_name>Jamaica</departure_country_name><departure_city_code>MBJ</departure_city_code><departure_city_name>Montego Bay</departure_city_name><arrival_airport_iata>KIN</arrival_airport_iata><arrival_name_airport>Norman Manley</arrival_name_airport><arrival_coordinates_lon>-76.77816</arrival_coordinates_lon><arrival_coordinates_lat>17.93775</arrival_coordinates_lat><arrival_country_code>JM</arrival_country_code><arrival_country_name>Jamaica</arrival_country_name><arrival_city_code>KIN</arrival_city_code><arrival_city_name>Kingston</arrival_city_name><planes>738</planes><plane_name>Boeing 737-800</plane_name></routes><routes><airline_iata>BW</airline_iata><departure_airport_iata>MCO</departure_airport_iata><departure_name_airport>Orlando International</departure_name_airport><departure_coordinates_lon>-81.308304</departure_coordinates_lon><departure_coordinates_lat>28.432177</departure_coordinates_lat><departure_country_code>US</departure_country_code><departure_country_name>United States</departure_country_name><departure_city_code>ORL</departure_city_code><departure_city_name>Orlando</departure_city_name><arrival_airport_iata>KIN</arrival_airport_iata><arrival_name_airport>Norman Manley</arrival_name_airport><arrival_coordinates_lon>-76.77816</arrival_coordinates_lon><arrival_coordinates_lat>17.93775</arrival_coordinates_lat><arrival_country_code>JM</arrival_country_code><arrival_country_name>Jamaica</arrival_country_name><arrival_city_code>KIN</arrival_city_code><arrival_city_name>Kingston</arrival_city_name><planes>738</planes><plane_name>Boeing 737-800</plane_name></routes><routes><airline_iata>BW</airline_iata><departure_airport_iata>NAS</departure_airport_iata><departure_name_airport>Nassau International</departure_name_airport><departure_coordinates_lon>-77.463776</departure_coordinates_lon><departure_coordinates_lat>25.048223</departure_coordinates_lat><departure_country_code>BS</departure_country_code><departure_country_name>Bahamas</departure_country_name><departure_city_code>NAS</departure_city_code><departure_city_name>Nassau</departure_city_name><arrival_airport_iata>MBJ</arrival_airport_iata><arrival_name_airport>Sangster International</arrival_name_airport><arrival_coordinates_lon>-77.91663</arrival_coordinates_lon><arrival_coordinates_lat>18.498465</arrival_coordinates_lat><arrival_country_code>JM</arrival_country_code><arrival_country_name>Jamaica</arrival_country_name><arrival_city_code>MBJ</arrival_city_code><arrival_city_name>Montego Bay</arrival_city_name><planes>738</planes><plane_name>Boeing 737-800</plane_name></routes><routes><airline_iata>BW</airline_iata><departure_airport_iata>POS</departure_airport_iata><departure_name_airport>Piarco International</departure_name_airport><departure_coordinates_lon>-61.339413</departure_coordinates_lon><departure_coordinates_lat>10.602089</departure_coordinates_lat><departure_country_code>TT</departure_country_code><departure_country_name>Trinidad and Tobago</departure_country_name><departure_city_code>POS</departure_city_code><departure_city_name>Port Of Spain</departure_city_name><arrival_airport_iata>KIN</arrival_airport_iata><arrival_name_airport>Norman Manley</arrival_name_airport><arrival_coordinates_lon>-76.77816</arrival_coordinates_lon><arrival_coordinates_lat>17.93775</arrival_coordinates_lat><arrival_country_code>JM</arrival_country_code><arrival_country_name>Jamaica</arrival_country_name><arrival_city_code>KIN</arrival_city_code><arrival_city_name>Kingston</arrival_city_name><planes>738</planes><plane_name>Boeing 737-800</plane_name></routes><routes><airline_iata>BW</airline_iata><departure_airport_iata>SXM</departure_airport_iata><departure_name_airport>Princess Juliana International</departure_name_airport><departure_coordinates_lon>-63.11406</departure_coordinates_lon><departure_coordinates_lat>18.044722</departure_coordinates_lat><departure_country_code>SX</departure_country_code><departure_country_name>Sint Maarten</departure_country_name><departure_city_code>SXM</departure_city_code><departure_city_name>Philipsburg</departure_city_name><arrival_airport_iata>KIN</arrival_airport_iata><arrival_name_airport>Norman Manley</arrival_name_airport><arrival_coordinates_lon>-76.77816</arrival_coordinates_lon><arrival_coordinates_lat>17.93775</arrival_coordinates_lat><arrival_country_code>JM</arrival_country_code><arrival_country_name>Jamaica</arrival_country_name><arrival_city_code>KIN</arrival_city_code><arrival_city_name>Kingston</arrival_city_name><planes>738</planes><plane_name>Boeing 737-800</plane_name></routes><routes><airline_iata>BW</airline_iata><departure_airport_iata>YYZ</departure_airport_iata><departure_name_airport>Lester B. Pearson International</departure_name_airport><departure_coordinates_lon>-79.61146</departure_coordinates_lon><departure_coordinates_lat>43.681583</departure_coordinates_lat><departure_country_code>CA</departure_country_code><departure_country_name>Canada</departure_country_name><departure_city_code>YTO</departure_city_code><departure_city_name>Toronto</departure_city_name><arrival_airport_iata>KIN</arrival_airport_iata><arrival_name_airport>Norman Manley</arrival_name_airport><arrival_coordinates_lon>-76.77816</arrival_coordinates_lon><arrival_coordinates_lat>17.93775</arrival_coordinates_lat><arrival_country_code>JM</arrival_country_code><arrival_country_name>Jamaica</arrival_country_name><arrival_city_code>KIN</arrival_city_code><arrival_city_name>Kingston</arrival_city_name><planes>738</planes><plane_name>Boeing 737-800</plane_name></routes><routes><airline_iata>CM</airline_iata><departure_airport_iata>PTY</departure_airport_iata><departure_name_airport>Tocumen International</departure_name_airport><departure_coordinates_lon>-79.38764</departure_coordinates_lon><departure_coordinates_lat>9.066897</departure_coordinates_lat><departure_country_code>PA</departure_country_code><departure_country_name>Panama</departure_country_name><departure_city_code>PTY</departure_city_code><departure_city_name>Panama City</departure_city_name><arrival_airport_iata>KIN</arrival_airport_iata><arrival_name_airport>Norman Manley</arrival_name_airport><arrival_coordinates_lon>-76.77816</arrival_coordinates_lon><arrival_coordinates_lat>17.93775</arrival_coordinates_lat><arrival_country_code>JM</arrival_country_code><arrival_country_name>Jamaica</arrival_country_name><arrival_city_code>KIN</arrival_city_code><arrival_city_name>Kingston</arrival_city_name><planes>E90</planes><plane_name>Embraer ERJ-190</plane_name></routes><routes><airline_iata>CM</airline_iata><departure_airport_iata>PTY</departure_airport_iata><departure_name_airport>Tocumen International</departure_name_airport><departure_coordinates_lon>-79.38764</departure_coordinates_lon><departure_coordinates_lat>9.066897</departure_coordinates_lat><departure_country_code>PA</departure_country_code><departure_country_name>Panama</departure_country_name><departure_city_code>PTY</departure_city_code><departure_city_name>Panama City</departure_city_name><arrival_airport_iata>MBJ</arrival_airport_iata><arrival_name_airport>Sangster International</arrival_name_airport><arrival_coordinates_lon>-77.91663</arrival_coordinates_lon><arrival_coordinates_lat>18.498465</arrival_coordinates_lat><arrival_country_code>JM</arrival_country_code><arrival_country_name>Jamaica</arrival_country_name><arrival_city_code>MBJ</arrival_city_code><arrival_city_name>Montego Bay</arrival_city_name><planes>738</planes><plane_name>Boeing 737-800</plane_name></routes><routes><airline_iata>DE</airline_iata><departure_airport_iata>FRA</departure_airport_iata><departure_name_airport>Frankfurt International Airport</departure_name_airport><departure_coordinates_lon>8.570773</departure_coordinates_lon><departure_coordinates_lat>50.050735</departure_coordinates_lat><departure_country_code>DE</departure_country_code><departure_country_name>Germany</departure_country_name><departure_city_code>FRA</departure_city_code><departure_city_name>Frankfurt</departure_city_name><arrival_airport_iata>MBJ</arrival_airport_iata><arrival_name_airport>Sangster International</arrival_name_airport><arrival_coordinates_lon>-77.91663</arrival_coordinates_lon><arrival_coordinates_lat>18.498465</arrival_coordinates_lat><arrival_country_code>JM</arrival_country_code><arrival_country_name>Jamaica</arrival_country_name><arrival_city_code>MBJ</arrival_city_code><arrival_city_name>Montego Bay</arrival_city_name><planes>767</planes><plane_name>Boeing 767</plane_name></routes><routes><airline_iata>DE</airline_iata><departure_airport_iata>HOG</departure_airport_iata><departure_name_airport>Frank Pais</departure_name_airport><departure_coordinates_lon>-76.315</departure_coordinates_lon><departure_coordinates_lat>20.785278</departure_coordinates_lat><departure_country_code>CU</departure_country_code><departure_country_name>Cuba</departure_country_name><departure_city_code>HOG</departure_city_code><departure_city_name>Holguin</departure_city_name><arrival_airport_iata>MBJ</arrival_airport_iata><arrival_name_airport>Sangster International</arrival_name_airport><arrival_coordinates_lon>-77.91663</arrival_coordinates_lon><arrival_coordinates_lat>18.498465</arrival_coordinates_lat><arrival_country_code>JM</arrival_country_code><arrival_country_name>Jamaica</arrival_country_name><arrival_city_code>MBJ</arrival_city_code><arrival_city_name>Montego Bay</arrival_city_name><planes>767</planes><plane_name>Boeing 767</plane_name></routes><routes><airline_iata>DL</airline_iata><departure_airport_iata>ATL</departure_airport_iata><departure_name_airport>Hartsfield-jackson Atlanta International</departure_name_airport><departure_coordinates_lon>-84.44403</departure_coordinates_lon><departure_coordinates_lat>33.640068</departure_coordinates_lat><departure_country_code>US</departure_country_code><departure_country_name>United States</departure_country_name><departure_city_code>ATL</departure_city_code><departure_city_name>Atlanta</departure_city_name><arrival_airport_iata>MBJ</arrival_airport_iata><arrival_name_airport>Sangster International</arrival_name_airport><arrival_coordinates_lon>-77.91663</arrival_coordinates_lon><arrival_coordinates_lat>18.498465</arrival_coordinates_lat><arrival_country_code>JM</arrival_country_code><arrival_country_name>Jamaica</arrival_country_name><arrival_city_code>MBJ</arrival_city_code><arrival_city_name>Montego Bay</arrival_city_name><planes>757</planes><plane_name>Boeing 757</plane_name></routes><routes><airline_iata>F9</airline_iata><departure_airport_iata>ORD</departure_airport_iata><departure_name_airport>Chicago O'hare International</departure_name_airport><departure_coordinates_lon>-87.90488</departure_coordinates_lon><departure_coordinates_lat>41.976913</departure_coordinates_lat><departure_country_code>US</departure_country_code><departure_country_name>United States</departure_country_name><departure_city_code>CHI</departure_city_code><departure_city_name>Chicago</departure_city_name><arrival_airport_iata>MBJ</arrival_airport_iata><arrival_name_airport>Sangster International</arrival_name_airport><arrival_coordinates_lon>-77.91663</arrival_coordinates_lon><arrival_coordinates_lat>18.498465</arrival_coordinates_lat><arrival_country_code>JM</arrival_country_code><arrival_country_name>Jamaica</arrival_country_name><arrival_city_code>MBJ</arrival_city_code><arrival_city_name>Montego Bay</arrival_city_name><planes>320</planes><plane_name>Airbus Industrie A320</plane_name></routes><routes><airline_iata>FL</airline_iata><departure_airport_iata>ATL</departure_airport_iata><departure_name_airport>Hartsfield-jackson Atlanta International</departure_name_airport><departure_coordinates_lon>-84.44403</departure_coordinates_lon><departure_coordinates_lat>33.640068</departure_coordinates_lat><departure_country_code>US</departure_country_code><departure_country_name>United States</departure_country_name><departure_city_code>ATL</departure_city_code><departure_city_name>Atlanta</departure_city_name><arrival_airport_iata>MBJ</arrival_airport_iata><arrival_name_airport>Sangster International</arrival_name_airport><arrival_coordinates_lon>-77.91663</arrival_coordinates_lon><arrival_coordinates_lat>18.498465</arrival_coordinates_lat><arrival_country_code>JM</arrival_country_code><arrival_country_name>Jamaica</arrival_country_name><arrival_city_code>MBJ</arrival_city_code><arrival_city_name>Montego Bay</arrival_city_name><planes>73G</planes><plane_name>Boeing 737-700</plane_name></routes><routes><airline_iata>FL</airline_iata><departure_airport_iata>BWI</departure_airport_iata><departure_name_airport>Baltimore/Washington International Thurgood Marshall</departure_name_airport><departure_coordinates_lon>-76.66894</departure_coordinates_lon><departure_coordinates_lat>39.179527</departure_coordinates_lat><departure_country_code>US</departure_country_code><departure_country_name>United States</departure_country_name><departure_city_code>BWI</departure_city_code><departure_city_name>Baltimore</departure_city_name><arrival_airport_iata>MBJ</arrival_airport_iata><arrival_name_airport>Sangster International</arrival_name_airport><arrival_coordinates_lon>-77.91663</arrival_coordinates_lon><arrival_coordinates_lat>18.498465</arrival_coordinates_lat><arrival_country_code>JM</arrival_country_code><arrival_country_name>Jamaica</arrival_country_name><arrival_city_code>MBJ</arrival_city_code><arrival_city_name>Montego Bay</arrival_city_name><planes>73G</planes><plane_name>Boeing 737-700</plane_name></routes><routes><airline_iata>FL</airline_iata><departure_airport_iata>MCO</departure_airport_iata><departure_name_airport>Orlando International</departure_name_airport><departure_coordinates_lon>-81.308304</departure_coordinates_lon><departure_coordinates_lat>28.432177</departure_coordinates_lat><departure_country_code>US</departure_country_code><departure_country_name>United States</departure_country_name><departure_city_code>ORL</departure_city_code><departure_city_name>Orlando</departure_city_name><arrival_airport_iata>MBJ</arrival_airport_iata><arrival_name_airport>Sangster International</arrival_name_airport><arrival_coordinates_lon>-77.91663</arrival_coordinates_lon><arrival_coordinates_lat>18.498465</arrival_coordinates_lat><arrival_country_code>JM</arrival_country_code><arrival_country_name>Jamaica</arrival_country_name><arrival_city_code>MBJ</arrival_city_code><arrival_city_name>Montego Bay</arrival_city_name><planes>73G</planes><plane_name>Boeing 737-700</plane_name></routes><routes><airline_iata>I4</airline_iata><departure_airport_iata>MBJ</departure_airport_iata><departure_name_airport>Sangster International</departure_name_airport><departure_coordinates_lon>-77.91663</departure_coordinates_lon><departure_coordinates_lat>18.498465</departure_coordinates_lat><departure_country_code>JM</departure_country_code><departure_country_name>Jamaica</departure_country_name><departure_city_code>MBJ</departure_city_code><departure_city_name>Montego Bay</departure_city_name><arrival_airport_iata>NEG</arrival_airport_iata><arrival_name_airport>Negril</arrival_name_airport><arrival_coordinates_lon>-78.333336</arrival_coordinates_lon><arrival_coordinates_lat>18.308332</arrival_coordinates_lat><arrival_country_code>JM</arrival_country_code><arrival_country_name>Jamaica</arrival_country_name><arrival_city_code>NEG</arrival_city_code><arrival_city_name>Negril</arrival_city_name><planes>CNA</planes><plane_name>Cessna Light Aircraft</plane_name></routes><routes><airline_iata>I4</airline_iata><departure_airport_iata>NEG</departure_airport_iata><departure_name_airport>Negril</departure_name_airport><departure_coordinates_lon>-78.333336</departure_coordinates_lon><departure_coordinates_lat>18.308332</departure_coordinates_lat><departure_country_code>JM</departure_country_code><departure_country_name>Jamaica</departure_country_name><departure_city_code>NEG</departure_city_code><departure_city_name>Negril</departure_city_name><arrival_airport_iata>MBJ</arrival_airport_iata><arrival_name_airport>Sangster International</arrival_name_airport><arrival_coordinates_lon>-77.91663</arrival_coordinates_lon><arrival_coordinates_lat>18.498465</arrival_coordinates_lat><arrival_country_code>JM</arrival_country_code><arrival_country_name>Jamaica</arrival_country_name><arrival_city_code>MBJ</arrival_city_code><arrival_city_name>Montego Bay</arrival_city_name><planes>CNA</planes><plane_name>Cessna Light Aircraft</plane_name></routes><routes><airline_iata>JY</airline_iata><departure_airport_iata>PLS</departure_airport_iata><departure_name_airport>International</departure_name_airport><departure_coordinates_lon>-72.26833</departure_coordinates_lon><departure_coordinates_lat>21.769167</departure_coordinates_lat><departure_country_code>TC</departure_country_code><departure_country_name>Turks and Caicos Islands</departure_country_name><departure_city_code>PLS</departure_city_code><departure_city_name>Providenciales</departure_city_name><arrival_airport_iata>KIN</arrival_airport_iata><arrival_name_airport>Norman Manley</arrival_name_airport><arrival_coordinates_lon>-76.77816</arrival_coordinates_lon><arrival_coordinates_lat>17.93775</arrival_coordinates_lat><arrival_country_code>JM</arrival_country_code><arrival_country_name>Jamaica</arrival_country_name><arrival_city_code>KIN</arrival_city_code><arrival_city_name>Kingston</arrival_city_name><planes>EM2</planes><plane_name>Embraer EMB-120 Brasilia</plane_name></routes><routes><airline_iata>KX</airline_iata><departure_airport_iata>GCM</departure_airport_iata><departure_name_airport>Owen Roberts International</departure_name_airport><departure_coordinates_lon>-81.35779</departure_coordinates_lon><departure_coordinates_lat>19.29637</departure_coordinates_lat><departure_country_code>KY</departure_country_code><departure_country_name>Cayman Islands</departure_country_name><departure_city_code>GCM</departure_city_code><departure_city_name>Georgetown</departure_city_name><arrival_airport_iata>KIN</arrival_airport_iata><arrival_name_airport>Norman Manley</arrival_name_airport><arrival_coordinates_lon>-76.77816</arrival_coordinates_lon><arrival_coordinates_lat>17.93775</arrival_coordinates_lat><arrival_country_code>JM</arrival_country_code><arrival_country_name>Jamaica</arrival_country_name><arrival_city_code>KIN</arrival_city_code><arrival_city_name>Kingston</arrival_city_name><planes>733</planes><plane_name>Boeing 737-300</plane_name></routes><routes><airline_iata>KX</airline_iata><departure_airport_iata>KIN</departure_airport_iata><departure_name_airport>Norman Manley</departure_name_airport><departure_coordinates_lon>-76.77816</departure_coordinates_lon><departure_coordinates_lat>17.93775</departure_coordinates_lat><departure_country_code>JM</departure_country_code><departure_country_name>Jamaica</departure_country_name><departure_city_code>KIN</departure_city_code><departure_city_name>Kingston</departure_city_name><arrival_airport_iata>MBJ</arrival_airport_iata><arrival_name_airport>Sangster International</arrival_name_airport><arrival_coordinates_lon>-77.91663</arrival_coordinates_lon><arrival_coordinates_lat>18.498465</arrival_coordinates_lat><arrival_country_code>JM</arrival_country_code><arrival_country_name>Jamaica</arrival_country_name><arrival_city_code>MBJ</arrival_city_code><arrival_city_name>Montego Bay</arrival_city_name><planes>733</planes><plane_name>Boeing 737-300</plane_name></routes><routes><airline_iata>NK</airline_iata><departure_airport_iata>FLL</departure_airport_iata><departure_name_airport>Fort Lauderdale–Hollywood International</departure_name_airport><departure_coordinates_lon>-80.144905</departure_coordinates_lon><departure_coordinates_lat>26.071491</departure_coordinates_lat><departure_country_code>US</departure_country_code><departure_country_name>United States</departure_country_name><departure_city_code>FLL</departure_city_code><departure_city_name>Fort Lauderdale</departure_city_name><arrival_airport_iata>MBJ</arrival_airport_iata><arrival_name_airport>Sangster International</arrival_name_airport><arrival_coordinates_lon>-77.91663</arrival_coordinates_lon><arrival_coordinates_lat>18.498465</arrival_coordinates_lat><arrival_country_code>JM</arrival_country_code><arrival_country_name>Jamaica</arrival_country_name><arrival_city_code>MBJ</arrival_city_code><arrival_city_name>Montego Bay</arrival_city_name><planes>319</planes><plane_name>Airbus Industrie A319</plane_name></routes><routes><airline_iata>OR</airline_iata><departure_airport_iata>PUJ</departure_airport_iata><departure_name_airport>Punta Cana International</departure_name_airport><departure_coordinates_lon>-68.364</departure_coordinates_lon><departure_coordinates_lat>18.562477</departure_coordinates_lat><departure_country_code>DO</departure_country_code><departure_country_name>Dominican Republic</departure_country_name><departure_city_code>PUJ</departure_city_code><departure_city_name>Higuey</departure_city_name><arrival_airport_iata>MBJ</arrival_airport_iata><arrival_name_airport>Sangster International</arrival_name_airport><arrival_coordinates_lon>-77.91663</arrival_coordinates_lon><arrival_coordinates_lat>18.498465</arrival_coordinates_lat><arrival_country_code>JM</arrival_country_code><arrival_country_name>Jamaica</arrival_country_name><arrival_city_code>MBJ</arrival_city_code><arrival_city_name>Montego Bay</arrival_city_name><planes>763</planes><plane_name>Boeing 767-300</plane_name></routes><routes><airline_iata></airline_iata><departure_airport_iata>BHX</departure_airport_iata><departure_name_airport>Birmingham International Airport</departure_name_airport><departure_coordinates_lon>-1.733256</departure_coordinates_lon><departure_coordinates_lat>52.45252</departure_coordinates_lat><departure_country_code>GB</departure_country_code><departure_country_name>United Kingdom</departure_country_name><departure_city_code>BHX</departure_city_code><departure_city_name>Birmingham</departure_city_name><arrival_airport_iata>MBJ</arrival_airport_iata><arrival_name_airport>Sangster International</arrival_name_airport><arrival_coordinates_lon>-77.91663</arrival_coordinates_lon><arrival_coordinates_lat>18.498465</arrival_coordinates_lat><arrival_country_code>JM</arrival_country_code><arrival_country_name>Jamaica</arrival_country_name><arrival_city_code>MBJ</arrival_city_code><arrival_city_name>Montego Bay</arrival_city_name><planes>767</planes><plane_name>Boeing 767</plane_name></routes><routes><airline_iata></airline_iata><departure_airport_iata>LGW</departure_airport_iata><departure_name_airport>Gatwick</departure_name_airport><departure_coordinates_lon>-0.161863</departure_coordinates_lon><departure_coordinates_lat>51.156807</departure_coordinates_lat><departure_country_code>GB</departure_country_code><departure_country_name>United Kingdom</departure_country_name><departure_city_code>LON</departure_city_code><departure_city_name>London</departure_city_name><arrival_airport_iata>MBJ</arrival_airport_iata><arrival_name_airport>Sangster International</arrival_name_airport><arrival_coordinates_lon>-77.91663</arrival_coordinates_lon><arrival_coordinates_lat>18.498465</arrival_coordinates_lat><arrival_country_code>JM</arrival_country_code><arrival_country_name>Jamaica</arrival_country_name><arrival_city_code>MBJ</arrival_city_code><arrival_city_name>Montego Bay</arrival_city_name><planes>767</planes><plane_name>Boeing 767</plane_name></routes><routes><airline_iata></airline_iata><departure_airport_iata>MAN</departure_airport_iata><departure_name_airport>Ringway International Airport</departure_name_airport><departure_coordinates_lon>-2.273354</departure_coordinates_lon><departure_coordinates_lat>53.362907</departure_coordinates_lat><departure_country_code>GB</departure_country_code><departure_country_name>United Kingdom</departure_country_name><departure_city_code>MAN</departure_city_code><departure_city_name>Manchester</departure_city_name><arrival_airport_iata>MBJ</arrival_airport_iata><arrival_name_airport>Sangster International</arrival_name_airport><arrival_coordinates_lon>-77.91663</arrival_coordinates_lon><arrival_coordinates_lat>18.498465</arrival_coordinates_lat><arrival_country_code>JM</arrival_country_code><arrival_country_name>Jamaica</arrival_country_name><arrival_city_code>MBJ</arrival_city_code><arrival_city_name>Montego Bay</arrival_city_name><planes>767</planes><plane_name>Boeing 767</plane_name></routes><routes><airline_iata>TS</airline_iata><departure_airport_iata>YYZ</departure_airport_iata><departure_name_airport>Lester B. Pearson International</departure_name_airport><departure_coordinates_lon>-79.61146</departure_coordinates_lon><departure_coordinates_lat>43.681583</departure_coordinates_lat><departure_country_code>CA</departure_country_code><departure_country_name>Canada</departure_country_name><departure_city_code>YTO</departure_city_code><departure_city_name>Toronto</departure_city_name><arrival_airport_iata>MBJ</arrival_airport_iata><arrival_name_airport>Sangster International</arrival_name_airport><arrival_coordinates_lon>-77.91663</arrival_coordinates_lon><arrival_coordinates_lat>18.498465</arrival_coordinates_lat><arrival_country_code>JM</arrival_country_code><arrival_country_name>Jamaica</arrival_country_name><arrival_city_code>MBJ</arrival_city_code><arrival_city_name>Montego Bay</arrival_city_name><planes>310</planes><plane_name>Airbus Industrie A310</plane_name></routes><routes><airline_iata>UA</airline_iata><departure_airport_iata>CLT</departure_airport_iata><departure_name_airport>Charlotte Douglas</departure_name_airport><departure_coordinates_lon>-80.93584</departure_coordinates_lon><departure_coordinates_lat>35.219166</departure_coordinates_lat><departure_country_code>US</departure_country_code><departure_country_name>United States</departure_country_name><departure_city_code>CLT</departure_city_code><departure_city_name>Charlotte</departure_city_name><arrival_airport_iata>MBJ</arrival_airport_iata><arrival_name_airport>Sangster International</arrival_name_airport><arrival_coordinates_lon>-77.91663</arrival_coordinates_lon><arrival_coordinates_lat>18.498465</arrival_coordinates_lat><arrival_country_code>JM</arrival_country_code><arrival_country_name>Jamaica</arrival_country_name><arrival_city_code>MBJ</arrival_city_code><arrival_city_name>Montego Bay</arrival_city_name><planes>321</planes><plane_name>Airbus Industrie A321</plane_name></routes><routes><airline_iata>UA</airline_iata><departure_airport_iata>EWR</departure_airport_iata><departure_name_airport>Newark Liberty International</departure_name_airport><departure_coordinates_lon>-74.17876</departure_coordinates_lon><departure_coordinates_lat>40.68907</departure_coordinates_lat><departure_country_code>US</departure_country_code><departure_country_name>United States</departure_country_name><departure_city_code>NYC</departure_city_code><departure_city_name>New York</departure_city_name><arrival_airport_iata>MBJ</arrival_airport_iata><arrival_name_airport>Sangster International</arrival_name_airport><arrival_coordinates_lon>-77.91663</arrival_coordinates_lon><arrival_coordinates_lat>18.498465</arrival_coordinates_lat><arrival_country_code>JM</arrival_country_code><arrival_country_name>Jamaica</arrival_country_name><arrival_city_code>MBJ</arrival_city_code><arrival_city_name>Montego Bay</arrival_city_name><planes>738</planes><plane_name>Boeing 737-800</plane_name></routes><routes><airline_iata>UA</airline_iata><departure_airport_iata>IAH</departure_airport_iata><departure_name_airport>George Bush Intercontinental</departure_name_airport><departure_coordinates_lon>-95.34</departure_coordinates_lon><departure_coordinates_lat>29.983334</departure_coordinates_lat><departure_country_code>US</departure_country_code><departure_country_name>United States</departure_country_name><departure_city_code>HOU</departure_city_code><departure_city_name>Houston</departure_city_name><arrival_airport_iata>MBJ</arrival_airport_iata><arrival_name_airport>Sangster International</arrival_name_airport><arrival_coordinates_lon>-77.91663</arrival_coordinates_lon><arrival_coordinates_lat>18.498465</arrival_coordinates_lat><arrival_country_code>JM</arrival_country_code><arrival_country_name>Jamaica</arrival_country_name><arrival_city_code>MBJ</arrival_city_code><arrival_city_name>Montego Bay</arrival_city_name><planes>738</planes><plane_name>Boeing 737-800</plane_name></routes><routes><airline_iata>US</airline_iata><departure_airport_iata>CLT</departure_airport_iata><departure_name_airport>Charlotte Douglas</departure_name_airport><departure_coordinates_lon>-80.93584</departure_coordinates_lon><departure_coordinates_lat>35.219166</departure_coordinates_lat><departure_country_code>US</departure_country_code><departure_country_name>United States</departure_country_name><departure_city_code>CLT</departure_city_code><departure_city_name>Charlotte</departure_city_name><arrival_airport_iata>MBJ</arrival_airport_iata><arrival_name_airport>Sangster International</arrival_name_airport><arrival_coordinates_lon>-77.91663</arrival_coordinates_lon><arrival_coordinates_lat>18.498465</arrival_coordinates_lat><arrival_country_code>JM</arrival_country_code><arrival_country_name>Jamaica</arrival_country_name><arrival_city_code>MBJ</arrival_city_code><arrival_city_name>Montego Bay</arrival_city_name><planes>321</planes><plane_name>Airbus Industrie A321</plane_name></routes><routes><airline_iata>US</airline_iata><departure_airport_iata>PHL</departure_airport_iata><departure_name_airport>Philadelphia International</departure_name_airport><departure_coordinates_lon>-75.2433</departure_coordinates_lon><departure_coordinates_lat>39.87641</departure_coordinates_lat><departure_country_code>US</departure_country_code><departure_country_name>United States</departure_country_name><departure_city_code>PHL</departure_city_code><departure_city_name>Philadelphia</departure_city_name><arrival_airport_iata>MBJ</arrival_airport_iata><arrival_name_airport>Sangster International</arrival_name_airport><arrival_coordinates_lon>-77.91663</arrival_coordinates_lon><arrival_coordinates_lat>18.498465</arrival_coordinates_lat><arrival_country_code>JM</arrival_country_code><arrival_country_name>Jamaica</arrival_country_name><arrival_city_code>MBJ</arrival_city_code><arrival_city_name>Montego Bay</arrival_city_name><planes>319</planes><plane_name>Airbus Industrie A319</plane_name></routes><routes><airline_iata>VS</airline_iata><departure_airport_iata>LGW</departure_airport_iata><departure_name_airport>Gatwick</departure_name_airport><departure_coordinates_lon>-0.161863</departure_coordinates_lon><departure_coordinates_lat>51.156807</departure_coordinates_lat><departure_country_code>GB</departure_country_code><departure_country_name>United Kingdom</departure_country_name><departure_city_code>LON</departure_city_code><departure_city_name>London</departure_city_name><arrival_airport_iata>MBJ</arrival_airport_iata><arrival_name_airport>Sangster International</arrival_name_airport><arrival_coordinates_lon>-77.91663</arrival_coordinates_lon><arrival_coordinates_lat>18.498465</arrival_coordinates_lat><arrival_country_code>JM</arrival_country_code><arrival_country_name>Jamaica</arrival_country_name><arrival_city_code>MBJ</arrival_city_code><arrival_city_name>Montego Bay</arrival_city_name><planes>744</planes><plane_name>Boeing 747-400</plane_name></routes><routes><airline_iata>WS</airline_iata><departure_airport_iata>YYZ</departure_airport_iata><departure_name_airport>Lester B. Pearson International</departure_name_airport><departure_coordinates_lon>-79.61146</departure_coordinates_lon><departure_coordinates_lat>43.681583</departure_coordinates_lat><departure_country_code>CA</departure_country_code><departure_country_name>Canada</departure_country_name><departure_city_code>YTO</departure_city_code><departure_city_name>Toronto</departure_city_name><arrival_airport_iata>KIN</arrival_airport_iata><arrival_name_airport>Norman Manley</arrival_name_airport><arrival_coordinates_lon>-76.77816</arrival_coordinates_lon><arrival_coordinates_lat>17.93775</arrival_coordinates_lat><arrival_country_code>JM</arrival_country_code><arrival_country_name>Jamaica</arrival_country_name><arrival_city_code>KIN</arrival_city_code><arrival_city_name>Kingston</arrival_city_name><planes>73W</planes><plane_name>Boeing 737-700 With Winglets</plane_name></routes><routes><airline_iata>WS</airline_iata><departure_airport_iata>YYZ</departure_airport_iata><departure_name_airport>Lester B. Pearson International</departure_name_airport><departure_coordinates_lon>-79.61146</departure_coordinates_lon><departure_coordinates_lat>43.681583</departure_coordinates_lat><departure_country_code>CA</departure_country_code><departure_country_name>Canada</departure_country_name><departure_city_code>YTO</departure_city_code><departure_city_name>Toronto</departure_city_name><arrival_airport_iata>MBJ</arrival_airport_iata><arrival_name_airport>Sangster International</arrival_name_airport><arrival_coordinates_lon>-77.91663</arrival_coordinates_lon><arrival_coordinates_lat>18.498465</arrival_coordinates_lat><arrival_country_code>JM</arrival_country_code><arrival_country_name>Jamaica</arrival_country_name><arrival_city_code>MBJ</arrival_city_code><arrival_city_name>Montego Bay</arrival_city_name><planes>73H</planes><plane_name>Boeing 737-800 With Winglets</plane_name></routes></route>
