<?xml version="1.0" encoding="utf-8"?>
<route><routes><airline_iata>3K</airline_iata><departure_airport_iata>MNL</departure_airport_iata><departure_name_airport>Ninoy Aquino International</departure_name_airport><departure_coordinates_lon>121.01251</departure_coordinates_lon><departure_coordinates_lat>14.509602</departure_coordinates_lat><departure_country_code>PH</departure_country_code><departure_country_name>Philippines</departure_country_name><departure_city_code>MNL</departure_city_code><departure_city_name>Manila</departure_city_name><arrival_airport_iata>KIX</arrival_airport_iata><arrival_name_airport>Kansai International</arrival_name_airport><arrival_coordinates_lon>135.24397</arrival_coordinates_lon><arrival_coordinates_lat>34.43533</arrival_coordinates_lat><arrival_country_code>JP</arrival_country_code><arrival_country_name>Japan</arrival_country_name><arrival_city_code>OSA</arrival_city_code><arrival_city_name>Osaka</arrival_city_name><planes>320</planes><plane_name>Airbus Industrie A320</plane_name></routes><routes><airline_iata>3K</airline_iata><departure_airport_iata>TPE</departure_airport_iata><departure_name_airport>Taiwan Taoyuan International (Chiang Kai Shek International)</departure_name_airport><departure_coordinates_lon>121.22389</departure_coordinates_lon><departure_coordinates_lat>25.07639</departure_coordinates_lat><departure_country_code>TW</departure_country_code><departure_country_name>Taiwan</departure_country_name><departure_city_code>TPE</departure_city_code><departure_city_name>Taipei</departure_city_name><arrival_airport_iata>KIX</arrival_airport_iata><arrival_name_airport>Kansai International</arrival_name_airport><arrival_coordinates_lon>135.24397</arrival_coordinates_lon><arrival_coordinates_lat>34.43533</arrival_coordinates_lat><arrival_country_code>JP</arrival_country_code><arrival_country_name>Japan</arrival_country_name><arrival_city_code>OSA</arrival_city_code><arrival_city_name>Osaka</arrival_city_name><planes>320</planes><plane_name>Airbus Industrie A320</plane_name></routes><routes><airline_iata>5J</airline_iata><departure_airport_iata>MNL</departure_airport_iata><departure_name_airport>Ninoy Aquino International</departure_name_airport><departure_coordinates_lon>121.01251</departure_coordinates_lon><departure_coordinates_lat>14.509602</departure_coordinates_lat><departure_country_code>PH</departure_country_code><departure_country_name>Philippines</departure_country_name><departure_city_code>MNL</departure_city_code><departure_city_name>Manila</departure_city_name><arrival_airport_iata>KIX</arrival_airport_iata><arrival_name_airport>Kansai International</arrival_name_airport><arrival_coordinates_lon>135.24397</arrival_coordinates_lon><arrival_coordinates_lat>34.43533</arrival_coordinates_lat><arrival_country_code>JP</arrival_country_code><arrival_country_name>Japan</arrival_country_name><arrival_city_code>OSA</arrival_city_code><arrival_city_name>Osaka</arrival_city_name><planes>320</planes><plane_name>Airbus Industrie A320</plane_name></routes><routes><airline_iata>7C</airline_iata><departure_airport_iata>CJU</departure_airport_iata><departure_name_airport>Jeju Airport</departure_name_airport><departure_coordinates_lon>126.49312</departure_coordinates_lon><departure_coordinates_lat>33.5067</departure_coordinates_lat><departure_country_code>KR</departure_country_code><departure_country_name>South Korea</departure_country_name><departure_city_code>CJU</departure_city_code><departure_city_name>Jeju</departure_city_name><arrival_airport_iata>KIX</arrival_airport_iata><arrival_name_airport>Kansai International</arrival_name_airport><arrival_coordinates_lon>135.24397</arrival_coordinates_lon><arrival_coordinates_lat>34.43533</arrival_coordinates_lat><arrival_country_code>JP</arrival_country_code><arrival_country_name>Japan</arrival_country_name><arrival_city_code>OSA</arrival_city_code><arrival_city_name>Osaka</arrival_city_name><planes>738</planes><plane_name>Boeing 737-800</plane_name></routes><routes><airline_iata>7C</airline_iata><departure_airport_iata>GMP</departure_airport_iata><departure_name_airport>Gimpo Airport</departure_name_airport><departure_coordinates_lon>126.80351</departure_coordinates_lon><departure_coordinates_lat>37.559288</departure_coordinates_lat><departure_country_code>KR</departure_country_code><departure_country_name>South Korea</departure_country_name><departure_city_code>SEL</departure_city_code><departure_city_name>Seoul</departure_city_name><arrival_airport_iata>KIX</arrival_airport_iata><arrival_name_airport>Kansai International</arrival_name_airport><arrival_coordinates_lon>135.24397</arrival_coordinates_lon><arrival_coordinates_lat>34.43533</arrival_coordinates_lat><arrival_country_code>JP</arrival_country_code><arrival_country_name>Japan</arrival_country_name><arrival_city_code>OSA</arrival_city_code><arrival_city_name>Osaka</arrival_city_name><planes>738</planes><plane_name>Boeing 737-800</plane_name></routes><routes><airline_iata>7C</airline_iata><departure_airport_iata>GMP</departure_airport_iata><departure_name_airport>Gimpo Airport</departure_name_airport><departure_coordinates_lon>126.80351</departure_coordinates_lon><departure_coordinates_lat>37.559288</departure_coordinates_lat><departure_country_code>KR</departure_country_code><departure_country_name>South Korea</departure_country_name><departure_city_code>SEL</departure_city_code><departure_city_name>Seoul</departure_city_name><arrival_airport_iata>NGO</arrival_airport_iata><arrival_name_airport>Chu-Bu Centrair International (Central Japan International)</arrival_name_airport><arrival_coordinates_lon>136.80528</arrival_coordinates_lon><arrival_coordinates_lat>34.858334</arrival_coordinates_lat><arrival_country_code>JP</arrival_country_code><arrival_country_name>Japan</arrival_country_name><arrival_city_code>NGO</arrival_city_code><arrival_city_name>Nagoya</arrival_city_name><planes>738</planes><plane_name>Boeing 737-800</plane_name></routes><routes><airline_iata>7C</airline_iata><departure_airport_iata>ICN</departure_airport_iata><departure_name_airport>Seoul (Incheon)</departure_name_airport><departure_coordinates_lon>126.45123</departure_coordinates_lon><departure_coordinates_lat>37.448524</departure_coordinates_lat><departure_country_code>KR</departure_country_code><departure_country_name>South Korea</departure_country_name><departure_city_code>SEL</departure_city_code><departure_city_name>Seoul</departure_city_name><arrival_airport_iata>FUK</arrival_airport_iata><arrival_name_airport>Fukuoka</arrival_name_airport><arrival_coordinates_lon>130.4439</arrival_coordinates_lon><arrival_coordinates_lat>33.584286</arrival_coordinates_lat><arrival_country_code>JP</arrival_country_code><arrival_country_name>Japan</arrival_country_name><arrival_city_code>FUK</arrival_city_code><arrival_city_name>Fukuoka</arrival_city_name><planes>738</planes><plane_name>Boeing 737-800</plane_name></routes><routes><airline_iata>7C</airline_iata><departure_airport_iata>ICN</departure_airport_iata><departure_name_airport>Seoul (Incheon)</departure_name_airport><departure_coordinates_lon>126.45123</departure_coordinates_lon><departure_coordinates_lat>37.448524</departure_coordinates_lat><departure_country_code>KR</departure_country_code><departure_country_name>South Korea</departure_country_name><departure_city_code>SEL</departure_city_code><departure_city_name>Seoul</departure_city_name><arrival_airport_iata>KIX</arrival_airport_iata><arrival_name_airport>Kansai International</arrival_name_airport><arrival_coordinates_lon>135.24397</arrival_coordinates_lon><arrival_coordinates_lat>34.43533</arrival_coordinates_lat><arrival_country_code>JP</arrival_country_code><arrival_country_name>Japan</arrival_country_name><arrival_city_code>OSA</arrival_city_code><arrival_city_name>Osaka</arrival_city_name><planes>738</planes><plane_name>Boeing 737-800</plane_name></routes><routes><airline_iata>7C</airline_iata><departure_airport_iata>ICN</departure_airport_iata><departure_name_airport>Seoul (Incheon)</departure_name_airport><departure_coordinates_lon>126.45123</departure_coordinates_lon><departure_coordinates_lat>37.448524</departure_coordinates_lat><departure_country_code>KR</departure_country_code><departure_country_name>South Korea</departure_country_name><departure_city_code>SEL</departure_city_code><departure_city_name>Seoul</departure_city_name><arrival_airport_iata>NGO</arrival_airport_iata><arrival_name_airport>Chu-Bu Centrair International (Central Japan International)</arrival_name_airport><arrival_coordinates_lon>136.80528</arrival_coordinates_lon><arrival_coordinates_lat>34.858334</arrival_coordinates_lat><arrival_country_code>JP</arrival_country_code><arrival_country_name>Japan</arrival_country_name><arrival_city_code>NGO</arrival_city_code><arrival_city_name>Nagoya</arrival_city_name><planes>738</planes><plane_name>Boeing 737-800</plane_name></routes><routes><airline_iata>7G</airline_iata><departure_airport_iata>FUK</departure_airport_iata><departure_name_airport>Fukuoka</departure_name_airport><departure_coordinates_lon>130.4439</departure_coordinates_lon><departure_coordinates_lat>33.584286</departure_coordinates_lat><departure_country_code>JP</departure_country_code><departure_country_name>Japan</departure_country_name><departure_city_code>FUK</departure_city_code><departure_city_name>Fukuoka</departure_city_name><arrival_airport_iata>HND</arrival_airport_iata><arrival_name_airport>Haneda Airport</arrival_name_airport><arrival_coordinates_lon>139.78453</arrival_coordinates_lon><arrival_coordinates_lat>35.54907</arrival_coordinates_lat><arrival_country_code>JP</arrival_country_code><arrival_country_name>Japan</arrival_country_name><arrival_city_code>TYO</arrival_city_code><arrival_city_name>Tokyo</arrival_city_name><planes>320</planes><plane_name>Airbus Industrie A320</plane_name></routes><routes><airline_iata>7G</airline_iata><departure_airport_iata>HND</departure_airport_iata><departure_name_airport>Haneda Airport</departure_name_airport><departure_coordinates_lon>139.78453</departure_coordinates_lon><departure_coordinates_lat>35.54907</departure_coordinates_lat><departure_country_code>JP</departure_country_code><departure_country_name>Japan</departure_country_name><departure_city_code>TYO</departure_city_code><departure_city_name>Tokyo</departure_city_name><arrival_airport_iata>FUK</arrival_airport_iata><arrival_name_airport>Fukuoka</arrival_name_airport><arrival_coordinates_lon>130.4439</arrival_coordinates_lon><arrival_coordinates_lat>33.584286</arrival_coordinates_lat><arrival_country_code>JP</arrival_country_code><arrival_country_name>Japan</arrival_country_name><arrival_city_code>FUK</arrival_city_code><arrival_city_name>Fukuoka</arrival_city_name><planes>320</planes><plane_name>Airbus Industrie A320</plane_name></routes><routes><airline_iata>7G</airline_iata><departure_airport_iata>HND</departure_airport_iata><departure_name_airport>Haneda Airport</departure_name_airport><departure_coordinates_lon>139.78453</departure_coordinates_lon><departure_coordinates_lat>35.54907</departure_coordinates_lat><departure_country_code>JP</departure_country_code><departure_country_name>Japan</departure_country_name><departure_city_code>TYO</departure_city_code><departure_city_name>Tokyo</departure_city_name><arrival_airport_iata>KIX</arrival_airport_iata><arrival_name_airport>Kansai International</arrival_name_airport><arrival_coordinates_lon>135.24397</arrival_coordinates_lon><arrival_coordinates_lat>34.43533</arrival_coordinates_lat><arrival_country_code>JP</arrival_country_code><arrival_country_name>Japan</arrival_country_name><arrival_city_code>OSA</arrival_city_code><arrival_city_name>Osaka</arrival_city_name><planes>320</planes><plane_name>Airbus Industrie A320</plane_name></routes><routes><airline_iata>7G</airline_iata><departure_airport_iata>HND</departure_airport_iata><departure_name_airport>Haneda Airport</departure_name_airport><departure_coordinates_lon>139.78453</departure_coordinates_lon><departure_coordinates_lat>35.54907</departure_coordinates_lat><departure_country_code>JP</departure_country_code><departure_country_name>Japan</departure_country_name><departure_city_code>TYO</departure_city_code><departure_city_name>Tokyo</departure_city_name><arrival_airport_iata>KKJ</arrival_airport_iata><arrival_name_airport>Kita Kyushu</arrival_name_airport><arrival_coordinates_lon>130.9435</arrival_coordinates_lon><arrival_coordinates_lat>33.834373</arrival_coordinates_lat><arrival_country_code>JP</arrival_country_code><arrival_country_name>Japan</arrival_country_name><arrival_city_code>KKJ</arrival_city_code><arrival_city_name>Kita Kyushu</arrival_city_name><planes>320</planes><plane_name>Airbus Industrie A320</plane_name></routes><routes><airline_iata>7G</airline_iata><departure_airport_iata>KIX</departure_airport_iata><departure_name_airport>Kansai International</departure_name_airport><departure_coordinates_lon>135.24397</departure_coordinates_lon><departure_coordinates_lat>34.43533</departure_coordinates_lat><departure_country_code>JP</departure_country_code><departure_country_name>Japan</departure_country_name><departure_city_code>OSA</departure_city_code><departure_city_name>Osaka</departure_city_name><arrival_airport_iata>HND</arrival_airport_iata><arrival_name_airport>Haneda Airport</arrival_name_airport><arrival_coordinates_lon>139.78453</arrival_coordinates_lon><arrival_coordinates_lat>35.54907</arrival_coordinates_lat><arrival_country_code>JP</arrival_country_code><arrival_country_name>Japan</arrival_country_name><arrival_city_code>TYO</arrival_city_code><arrival_city_name>Tokyo</arrival_city_name><planes>320</planes><plane_name>Airbus Industrie A320</plane_name></routes><routes><airline_iata>7G</airline_iata><departure_airport_iata>KKJ</departure_airport_iata><departure_name_airport>Kita Kyushu</departure_name_airport><departure_coordinates_lon>130.9435</departure_coordinates_lon><departure_coordinates_lat>33.834373</departure_coordinates_lat><departure_country_code>JP</departure_country_code><departure_country_name>Japan</departure_country_name><departure_city_code>KKJ</departure_city_code><departure_city_name>Kita Kyushu</departure_city_name><arrival_airport_iata>HND</arrival_airport_iata><arrival_name_airport>Haneda Airport</arrival_name_airport><arrival_coordinates_lon>139.78453</arrival_coordinates_lon><arrival_coordinates_lat>35.54907</arrival_coordinates_lat><arrival_country_code>JP</arrival_country_code><arrival_country_name>Japan</arrival_country_name><arrival_city_code>TYO</arrival_city_code><arrival_city_name>Tokyo</arrival_city_name><planes>320</planes><plane_name>Airbus Industrie A320</plane_name></routes><routes><airline_iata>7G</airline_iata><departure_airport_iata>PUS</departure_airport_iata><departure_name_airport>Gimhae</departure_name_airport><departure_coordinates_lon>128.94873</departure_coordinates_lon><departure_coordinates_lat>35.179317</departure_coordinates_lat><departure_country_code>KR</departure_country_code><departure_country_name>South Korea</departure_country_name><departure_city_code>PUS</departure_city_code><departure_city_name>Busan</departure_city_name><arrival_airport_iata>KKJ</arrival_airport_iata><arrival_name_airport>Kita Kyushu</arrival_name_airport><arrival_coordinates_lon>130.9435</arrival_coordinates_lon><arrival_coordinates_lat>33.834373</arrival_coordinates_lat><arrival_country_code>JP</arrival_country_code><arrival_country_name>Japan</arrival_country_name><arrival_city_code>KKJ</arrival_city_code><arrival_city_name>Kita Kyushu</arrival_city_name><planes>320</planes><plane_name>Airbus Industrie A320</plane_name></routes><routes><airline_iata>9C</airline_iata><departure_airport_iata>PVG</departure_airport_iata><departure_name_airport>Shanghai Pudong International</departure_name_airport><departure_coordinates_lon>121.799805</departure_coordinates_lon><departure_coordinates_lat>31.151825</departure_coordinates_lat><departure_country_code>CN</departure_country_code><departure_country_name>China</departure_country_name><departure_city_code>SHA</departure_city_code><departure_city_name>Shanghai</departure_city_name><arrival_airport_iata>HSG</arrival_airport_iata><arrival_name_airport>Saga</arrival_name_airport><arrival_coordinates_lon>130.30278</arrival_coordinates_lon><arrival_coordinates_lat>33.153828</arrival_coordinates_lat><arrival_country_code>JP</arrival_country_code><arrival_country_name>Japan</arrival_country_name><arrival_city_code>HSG</arrival_city_code><arrival_city_name>Saga</arrival_city_name><planes>320</planes><plane_name>Airbus Industrie A320</plane_name></routes><routes><airline_iata>9C</airline_iata><departure_airport_iata>PVG</departure_airport_iata><departure_name_airport>Shanghai Pudong International</departure_name_airport><departure_coordinates_lon>121.799805</departure_coordinates_lon><departure_coordinates_lat>31.151825</departure_coordinates_lat><departure_country_code>CN</departure_country_code><departure_country_name>China</departure_country_name><departure_city_code>SHA</departure_city_code><departure_city_name>Shanghai</departure_city_name><arrival_airport_iata>IBR</arrival_airport_iata><arrival_name_airport>Ibaraki</arrival_name_airport><arrival_coordinates_lon>140.41472</arrival_coordinates_lon><arrival_coordinates_lat>36.181667</arrival_coordinates_lat><arrival_country_code>JP</arrival_country_code><arrival_country_name>Japan</arrival_country_name><arrival_city_code>IBR</arrival_city_code><arrival_city_name>Ibaraki</arrival_city_name><planes>320</planes><plane_name>Airbus Industrie A320</plane_name></routes><routes><airline_iata>9C</airline_iata><departure_airport_iata>PVG</departure_airport_iata><departure_name_airport>Shanghai Pudong International</departure_name_airport><departure_coordinates_lon>121.799805</departure_coordinates_lon><departure_coordinates_lat>31.151825</departure_coordinates_lat><departure_country_code>CN</departure_country_code><departure_country_name>China</departure_country_name><departure_city_code>SHA</departure_city_code><departure_city_name>Shanghai</departure_city_name><arrival_airport_iata>TAK</arrival_airport_iata><arrival_name_airport>Takamatsu</arrival_name_airport><arrival_coordinates_lon>134.01825</arrival_coordinates_lon><arrival_coordinates_lat>34.219017</arrival_coordinates_lat><arrival_country_code>JP</arrival_country_code><arrival_country_name>Japan</arrival_country_name><arrival_city_code>TAK</arrival_city_code><arrival_city_name>Takamatsu</arrival_city_name><planes>320</planes><plane_name>Airbus Industrie A320</plane_name></routes><routes><airline_iata>9W</airline_iata><departure_airport_iata>BOM</departure_airport_iata><departure_name_airport>Chhatrapati Shivaji International (Sahar International)</departure_name_airport><departure_coordinates_lon>72.87497</departure_coordinates_lon><departure_coordinates_lat>19.095509</departure_coordinates_lat><departure_country_code>IN</departure_country_code><departure_country_name>India</departure_country_name><departure_city_code>BOM</departure_city_code><departure_city_name>Mumbai</departure_city_name><arrival_airport_iata>NRT</arrival_airport_iata><arrival_name_airport>Narita International Airport</arrival_name_airport><arrival_coordinates_lon>140.38744</arrival_coordinates_lon><arrival_coordinates_lat>35.773212</arrival_coordinates_lat><arrival_country_code>JP</arrival_country_code><arrival_country_name>Japan</arrival_country_name><arrival_city_code>TYO</arrival_city_code><arrival_city_name>Tokyo</arrival_city_name><planes>737</planes><plane_name>Boeing 737</plane_name></routes><routes><airline_iata>AA</airline_iata><departure_airport_iata>BKK</departure_airport_iata><departure_name_airport>Suvarnabhumi International</departure_name_airport><departure_coordinates_lon>100.752045</departure_coordinates_lon><departure_coordinates_lat>13.693062</departure_coordinates_lat><departure_country_code>TH</departure_country_code><departure_country_name>Thailand</departure_country_name><departure_city_code>BKK</departure_city_code><departure_city_name>Bangkok</departure_city_name><arrival_airport_iata>HND</arrival_airport_iata><arrival_name_airport>Haneda Airport</arrival_name_airport><arrival_coordinates_lon>139.78453</arrival_coordinates_lon><arrival_coordinates_lat>35.54907</arrival_coordinates_lat><arrival_country_code>JP</arrival_country_code><arrival_country_name>Japan</arrival_country_name><arrival_city_code>TYO</arrival_city_code><arrival_city_name>Tokyo</arrival_city_name><planes>763</planes><plane_name>Boeing 767-300</plane_name></routes><routes><airline_iata>AA</airline_iata><departure_airport_iata>BOS</departure_airport_iata><departure_name_airport>Logan International</departure_name_airport><departure_coordinates_lon>-71.02018</departure_coordinates_lon><departure_coordinates_lat>42.36646</departure_coordinates_lat><departure_country_code>US</departure_country_code><departure_country_name>United States</departure_country_name><departure_city_code>BOS</departure_city_code><departure_city_name>Boston</departure_city_name><arrival_airport_iata>NRT</arrival_airport_iata><arrival_name_airport>Narita International Airport</arrival_name_airport><arrival_coordinates_lon>140.38744</arrival_coordinates_lon><arrival_coordinates_lat>35.773212</arrival_coordinates_lat><arrival_country_code>JP</arrival_country_code><arrival_country_name>Japan</arrival_country_name><arrival_city_code>TYO</arrival_city_code><arrival_city_name>Tokyo</arrival_city_name><planes>787</planes><plane_name></plane_name></routes><routes><airline_iata>AA</airline_iata><departure_airport_iata>DFW</departure_airport_iata><departure_name_airport>Dallas/Fort Worth International</departure_name_airport><departure_coordinates_lon>-97.036125</departure_coordinates_lon><departure_coordinates_lat>32.89746</departure_coordinates_lat><departure_country_code>US</departure_country_code><departure_country_name>United States</departure_country_name><departure_city_code>DFW</departure_city_code><departure_city_name>Dallas</departure_city_name><arrival_airport_iata>NRT</arrival_airport_iata><arrival_name_airport>Narita International Airport</arrival_name_airport><arrival_coordinates_lon>140.38744</arrival_coordinates_lon><arrival_coordinates_lat>35.773212</arrival_coordinates_lat><arrival_country_code>JP</arrival_country_code><arrival_country_name>Japan</arrival_country_name><arrival_city_code>TYO</arrival_city_code><arrival_city_name>Tokyo</arrival_city_name><planes>777</planes><plane_name>Boeing 777</plane_name></routes><routes><airline_iata>AA</airline_iata><departure_airport_iata>HNL</departure_airport_iata><departure_name_airport>Honolulu International</departure_name_airport><departure_coordinates_lon>-157.92166</departure_coordinates_lon><departure_coordinates_lat>21.325832</departure_coordinates_lat><departure_country_code>US</departure_country_code><departure_country_name>United States</departure_country_name><departure_city_code>HNL</departure_city_code><departure_city_name>Honolulu</departure_city_name><arrival_airport_iata>HND</arrival_airport_iata><arrival_name_airport>Haneda Airport</arrival_name_airport><arrival_coordinates_lon>139.78453</arrival_coordinates_lon><arrival_coordinates_lat>35.54907</arrival_coordinates_lat><arrival_country_code>JP</arrival_country_code><arrival_country_name>Japan</arrival_country_name><arrival_city_code>TYO</arrival_city_code><arrival_city_name>Tokyo</arrival_city_name><planes>777</planes><plane_name>Boeing 777</plane_name></routes><routes><airline_iata>AA</airline_iata><departure_airport_iata>HNL</departure_airport_iata><departure_name_airport>Honolulu International</departure_name_airport><departure_coordinates_lon>-157.92166</departure_coordinates_lon><departure_coordinates_lat>21.325832</departure_coordinates_lat><departure_country_code>US</departure_country_code><departure_country_name>United States</departure_country_name><departure_city_code>HNL</departure_city_code><departure_city_name>Honolulu</departure_city_name><arrival_airport_iata>KIX</arrival_airport_iata><arrival_name_airport>Kansai International</arrival_name_airport><arrival_coordinates_lon>135.24397</arrival_coordinates_lon><arrival_coordinates_lat>34.43533</arrival_coordinates_lat><arrival_country_code>JP</arrival_country_code><arrival_country_name>Japan</arrival_country_name><arrival_city_code>OSA</arrival_city_code><arrival_city_name>Osaka</arrival_city_name><planes>763</planes><plane_name>Boeing 767-300</plane_name></routes><routes><airline_iata>AA</airline_iata><departure_airport_iata>HNL</departure_airport_iata><departure_name_airport>Honolulu International</departure_name_airport><departure_coordinates_lon>-157.92166</departure_coordinates_lon><departure_coordinates_lat>21.325832</departure_coordinates_lat><departure_country_code>US</departure_country_code><departure_country_name>United States</departure_country_name><departure_city_code>HNL</departure_city_code><departure_city_name>Honolulu</departure_city_name><arrival_airport_iata>NGO</arrival_airport_iata><arrival_name_airport>Chu-Bu Centrair International (Central Japan International)</arrival_name_airport><arrival_coordinates_lon>136.80528</arrival_coordinates_lon><arrival_coordinates_lat>34.858334</arrival_coordinates_lat><arrival_country_code>JP</arrival_country_code><arrival_country_name>Japan</arrival_country_name><arrival_city_code>NGO</arrival_city_code><arrival_city_name>Nagoya</arrival_city_name><planes>763</planes><plane_name>Boeing 767-300</plane_name></routes><routes><airline_iata>AA</airline_iata><departure_airport_iata>HNL</departure_airport_iata><departure_name_airport>Honolulu International</departure_name_airport><departure_coordinates_lon>-157.92166</departure_coordinates_lon><departure_coordinates_lat>21.325832</departure_coordinates_lat><departure_country_code>US</departure_country_code><departure_country_name>United States</departure_country_name><departure_city_code>HNL</departure_city_code><departure_city_name>Honolulu</departure_city_name><arrival_airport_iata>NRT</arrival_airport_iata><arrival_name_airport>Narita International Airport</arrival_name_airport><arrival_coordinates_lon>140.38744</arrival_coordinates_lon><arrival_coordinates_lat>35.773212</arrival_coordinates_lat><arrival_country_code>JP</arrival_country_code><arrival_country_name>Japan</arrival_country_name><arrival_city_code>TYO</arrival_city_code><arrival_city_name>Tokyo</arrival_city_name><planes>763</planes><plane_name>Boeing 767-300</plane_name></routes><routes><airline_iata>AA</airline_iata><departure_airport_iata>JFK</departure_airport_iata><departure_name_airport>John F Kennedy International</departure_name_airport><departure_coordinates_lon>-73.78817</departure_coordinates_lon><departure_coordinates_lat>40.642334</departure_coordinates_lat><departure_country_code>US</departure_country_code><departure_country_name>United States</departure_country_name><departure_city_code>NYC</departure_city_code><departure_city_name>New York</departure_city_name><arrival_airport_iata>HND</arrival_airport_iata><arrival_name_airport>Haneda Airport</arrival_name_airport><arrival_coordinates_lon>139.78453</arrival_coordinates_lon><arrival_coordinates_lat>35.54907</arrival_coordinates_lat><arrival_country_code>JP</arrival_country_code><arrival_country_name>Japan</arrival_country_name><arrival_city_code>TYO</arrival_city_code><arrival_city_name>Tokyo</arrival_city_name><planes>777</planes><plane_name>Boeing 777</plane_name></routes><routes><airline_iata>AA</airline_iata><departure_airport_iata>JFK</departure_airport_iata><departure_name_airport>John F Kennedy International</departure_name_airport><departure_coordinates_lon>-73.78817</departure_coordinates_lon><departure_coordinates_lat>40.642334</departure_coordinates_lat><departure_country_code>US</departure_country_code><departure_country_name>United States</departure_country_name><departure_city_code>NYC</departure_city_code><departure_city_name>New York</departure_city_name><arrival_airport_iata>NRT</arrival_airport_iata><arrival_name_airport>Narita International Airport</arrival_name_airport><arrival_coordinates_lon>140.38744</arrival_coordinates_lon><arrival_coordinates_lat>35.773212</arrival_coordinates_lat><arrival_country_code>JP</arrival_country_code><arrival_country_name>Japan</arrival_country_name><arrival_city_code>TYO</arrival_city_code><arrival_city_name>Tokyo</arrival_city_name><planes>773</planes><plane_name>Boeing 777-300</plane_name></routes><routes><airline_iata>AA</airline_iata><departure_airport_iata>LAX</departure_airport_iata><departure_name_airport>Los Angeles International</departure_name_airport><departure_coordinates_lon>-118.40828</departure_coordinates_lon><departure_coordinates_lat>33.943398</departure_coordinates_lat><departure_country_code>US</departure_country_code><departure_country_name>United States</departure_country_name><departure_city_code>LAX</departure_city_code><departure_city_name>Los Angeles</departure_city_name><arrival_airport_iata>NRT</arrival_airport_iata><arrival_name_airport>Narita International Airport</arrival_name_airport><arrival_coordinates_lon>140.38744</arrival_coordinates_lon><arrival_coordinates_lat>35.773212</arrival_coordinates_lat><arrival_country_code>JP</arrival_country_code><arrival_country_name>Japan</arrival_country_name><arrival_city_code>TYO</arrival_city_code><arrival_city_name>Tokyo</arrival_city_name><planes>777</planes><plane_name>Boeing 777</plane_name></routes><routes><airline_iata>AA</airline_iata><departure_airport_iata>LAX</departure_airport_iata><departure_name_airport>Los Angeles International</departure_name_airport><departure_coordinates_lon>-118.40828</departure_coordinates_lon><departure_coordinates_lat>33.943398</departure_coordinates_lat><departure_country_code>US</departure_country_code><departure_country_name>United States</departure_country_name><departure_city_code>LAX</departure_city_code><departure_city_name>Los Angeles</departure_city_name><arrival_airport_iata>NRT</arrival_airport_iata><arrival_name_airport>Narita International Airport</arrival_name_airport><arrival_coordinates_lon>140.38744</arrival_coordinates_lon><arrival_coordinates_lat>35.773212</arrival_coordinates_lat><arrival_country_code>JP</arrival_country_code><arrival_country_name>Japan</arrival_country_name><arrival_city_code>TYO</arrival_city_code><arrival_city_name>Tokyo</arrival_city_name><planes>773</planes><plane_name>Boeing 777-300</plane_name></routes><routes><airline_iata>AA</airline_iata><departure_airport_iata>ORD</departure_airport_iata><departure_name_airport>Chicago O'hare International</departure_name_airport><departure_coordinates_lon>-87.90488</departure_coordinates_lon><departure_coordinates_lat>41.976913</departure_coordinates_lat><departure_country_code>US</departure_country_code><departure_country_name>United States</departure_country_name><departure_city_code>CHI</departure_city_code><departure_city_name>Chicago</departure_city_name><arrival_airport_iata>NRT</arrival_airport_iata><arrival_name_airport>Narita International Airport</arrival_name_airport><arrival_coordinates_lon>140.38744</arrival_coordinates_lon><arrival_coordinates_lat>35.773212</arrival_coordinates_lat><arrival_country_code>JP</arrival_country_code><arrival_country_name>Japan</arrival_country_name><arrival_city_code>TYO</arrival_city_code><arrival_city_name>Tokyo</arrival_city_name><planes>777</planes><plane_name>Boeing 777</plane_name></routes><routes><airline_iata>AA</airline_iata><departure_airport_iata>ORD</departure_airport_iata><departure_name_airport>Chicago O'hare International</departure_name_airport><departure_coordinates_lon>-87.90488</departure_coordinates_lon><departure_coordinates_lat>41.976913</departure_coordinates_lat><departure_country_code>US</departure_country_code><departure_country_name>United States</departure_country_name><departure_city_code>CHI</departure_city_code><departure_city_name>Chicago</departure_city_name><arrival_airport_iata>NRT</arrival_airport_iata><arrival_name_airport>Narita International Airport</arrival_name_airport><arrival_coordinates_lon>140.38744</arrival_coordinates_lon><arrival_coordinates_lat>35.773212</arrival_coordinates_lat><arrival_country_code>JP</arrival_country_code><arrival_country_name>Japan</arrival_country_name><arrival_city_code>TYO</arrival_city_code><arrival_city_name>Tokyo</arrival_city_name><planes>773</planes><plane_name>Boeing 777-300</plane_name></routes><routes><airline_iata>AA</airline_iata><departure_airport_iata>SFO</departure_airport_iata><departure_name_airport>San Francisco International</departure_name_airport><departure_coordinates_lon>-122.38988</departure_coordinates_lon><departure_coordinates_lat>37.615215</departure_coordinates_lat><departure_country_code>US</departure_country_code><departure_country_name>United States</departure_country_name><departure_city_code>SFO</departure_city_code><departure_city_name>San Francisco</departure_city_name><arrival_airport_iata>HND</arrival_airport_iata><arrival_name_airport>Haneda Airport</arrival_name_airport><arrival_coordinates_lon>139.78453</arrival_coordinates_lon><arrival_coordinates_lat>35.54907</arrival_coordinates_lat><arrival_country_code>JP</arrival_country_code><arrival_country_name>Japan</arrival_country_name><arrival_city_code>TYO</arrival_city_code><arrival_city_name>Tokyo</arrival_city_name><planes>777</planes><plane_name>Boeing 777</plane_name></routes><routes><airline_iata>AA</airline_iata><departure_airport_iata>YVR</departure_airport_iata><departure_name_airport>Vancouver International</departure_name_airport><departure_coordinates_lon>-123.17919</departure_coordinates_lon><departure_coordinates_lat>49.1947</departure_coordinates_lat><departure_country_code>CA</departure_country_code><departure_country_name>Canada</departure_country_name><departure_city_code>YVR</departure_city_code><departure_city_name>Vancouver</departure_city_name><arrival_airport_iata>NRT</arrival_airport_iata><arrival_name_airport>Narita International Airport</arrival_name_airport><arrival_coordinates_lon>140.38744</arrival_coordinates_lon><arrival_coordinates_lat>35.773212</arrival_coordinates_lat><arrival_country_code>JP</arrival_country_code><arrival_country_name>Japan</arrival_country_name><arrival_city_code>TYO</arrival_city_code><arrival_city_name>Tokyo</arrival_city_name><planes>763</planes><plane_name>Boeing 767-300</plane_name></routes><routes><airline_iata>AC</airline_iata><departure_airport_iata>YVR</departure_airport_iata><departure_name_airport>Vancouver International</departure_name_airport><departure_coordinates_lon>-123.17919</departure_coordinates_lon><departure_coordinates_lat>49.1947</departure_coordinates_lat><departure_country_code>CA</departure_country_code><departure_country_name>Canada</departure_country_name><departure_city_code>YVR</departure_city_code><departure_city_name>Vancouver</departure_city_name><arrival_airport_iata>NRT</arrival_airport_iata><arrival_name_airport>Narita International Airport</arrival_name_airport><arrival_coordinates_lon>140.38744</arrival_coordinates_lon><arrival_coordinates_lat>35.773212</arrival_coordinates_lat><arrival_country_code>JP</arrival_country_code><arrival_country_name>Japan</arrival_country_name><arrival_city_code>TYO</arrival_city_code><arrival_city_name>Tokyo</arrival_city_name><planes>77W</planes><plane_name>Boeing 777-300ER</plane_name></routes><routes><airline_iata>AC</airline_iata><departure_airport_iata>YYC</departure_airport_iata><departure_name_airport>Calgary International Airport</departure_name_airport><departure_coordinates_lon>-114.01055</departure_coordinates_lon><departure_coordinates_lat>51.131393</departure_coordinates_lat><departure_country_code>CA</departure_country_code><departure_country_name>Canada</departure_country_name><departure_city_code>YYC</departure_city_code><departure_city_name>Calgary</departure_city_name><arrival_airport_iata>NRT</arrival_airport_iata><arrival_name_airport>Narita International Airport</arrival_name_airport><arrival_coordinates_lon>140.38744</arrival_coordinates_lon><arrival_coordinates_lat>35.773212</arrival_coordinates_lat><arrival_country_code>JP</arrival_country_code><arrival_country_name>Japan</arrival_country_name><arrival_city_code>TYO</arrival_city_code><arrival_city_name>Tokyo</arrival_city_name><planes>763</planes><plane_name>Boeing 767-300</plane_name></routes><routes><airline_iata>AC</airline_iata><departure_airport_iata>YYZ</departure_airport_iata><departure_name_airport>Lester B. Pearson International</departure_name_airport><departure_coordinates_lon>-79.61146</departure_coordinates_lon><departure_coordinates_lat>43.681583</departure_coordinates_lat><departure_country_code>CA</departure_country_code><departure_country_name>Canada</departure_country_name><departure_city_code>YTO</departure_city_code><departure_city_name>Toronto</departure_city_name><arrival_airport_iata>NRT</arrival_airport_iata><arrival_name_airport>Narita International Airport</arrival_name_airport><arrival_coordinates_lon>140.38744</arrival_coordinates_lon><arrival_coordinates_lat>35.773212</arrival_coordinates_lat><arrival_country_code>JP</arrival_country_code><arrival_country_name>Japan</arrival_country_name><arrival_city_code>TYO</arrival_city_code><arrival_city_name>Tokyo</arrival_city_name><planes>77W</planes><plane_name>Boeing 777-300ER</plane_name></routes><routes><airline_iata>AF</airline_iata><departure_airport_iata>CDG</departure_airport_iata><departure_name_airport>Charles De Gaulle</departure_name_airport><departure_coordinates_lon>2.567023</departure_coordinates_lon><departure_coordinates_lat>49.003197</departure_coordinates_lat><departure_country_code>FR</departure_country_code><departure_country_name>France</departure_country_name><departure_city_code>PAR</departure_city_code><departure_city_name>Paris</departure_city_name><arrival_airport_iata>HND</arrival_airport_iata><arrival_name_airport>Haneda Airport</arrival_name_airport><arrival_coordinates_lon>139.78453</arrival_coordinates_lon><arrival_coordinates_lat>35.54907</arrival_coordinates_lat><arrival_country_code>JP</arrival_country_code><arrival_country_name>Japan</arrival_country_name><arrival_city_code>TYO</arrival_city_code><arrival_city_name>Tokyo</arrival_city_name><planes>777</planes><plane_name>Boeing 777</plane_name></routes><routes><airline_iata>AF</airline_iata><departure_airport_iata>CDG</departure_airport_iata><departure_name_airport>Charles De Gaulle</departure_name_airport><departure_coordinates_lon>2.567023</departure_coordinates_lon><departure_coordinates_lat>49.003197</departure_coordinates_lat><departure_country_code>FR</departure_country_code><departure_country_name>France</departure_country_name><departure_city_code>PAR</departure_city_code><departure_city_name>Paris</departure_city_name><arrival_airport_iata>KIX</arrival_airport_iata><arrival_name_airport>Kansai International</arrival_name_airport><arrival_coordinates_lon>135.24397</arrival_coordinates_lon><arrival_coordinates_lat>34.43533</arrival_coordinates_lat><arrival_country_code>JP</arrival_country_code><arrival_country_name>Japan</arrival_country_name><arrival_city_code>OSA</arrival_city_code><arrival_city_name>Osaka</arrival_city_name><planes>772</planes><plane_name>Boeing 777-200/200ER</plane_name></routes><routes><airline_iata>AF</airline_iata><departure_airport_iata>CDG</departure_airport_iata><departure_name_airport>Charles De Gaulle</departure_name_airport><departure_coordinates_lon>2.567023</departure_coordinates_lon><departure_coordinates_lat>49.003197</departure_coordinates_lat><departure_country_code>FR</departure_country_code><departure_country_name>France</departure_country_name><departure_city_code>PAR</departure_city_code><departure_city_name>Paris</departure_city_name><arrival_airport_iata>NRT</arrival_airport_iata><arrival_name_airport>Narita International Airport</arrival_name_airport><arrival_coordinates_lon>140.38744</arrival_coordinates_lon><arrival_coordinates_lat>35.773212</arrival_coordinates_lat><arrival_country_code>JP</arrival_country_code><arrival_country_name>Japan</arrival_country_name><arrival_city_code>TYO</arrival_city_code><arrival_city_name>Tokyo</arrival_city_name><planes>388</planes><plane_name>Airbus Industrie A380-800</plane_name></routes><routes><airline_iata>AF</airline_iata><departure_airport_iata>CDG</departure_airport_iata><departure_name_airport>Charles De Gaulle</departure_name_airport><departure_coordinates_lon>2.567023</departure_coordinates_lon><departure_coordinates_lat>49.003197</departure_coordinates_lat><departure_country_code>FR</departure_country_code><departure_country_name>France</departure_country_name><departure_city_code>PAR</departure_city_code><departure_city_name>Paris</departure_city_name><arrival_airport_iata>NRT</arrival_airport_iata><arrival_name_airport>Narita International Airport</arrival_name_airport><arrival_coordinates_lon>140.38744</arrival_coordinates_lon><arrival_coordinates_lat>35.773212</arrival_coordinates_lat><arrival_country_code>JP</arrival_country_code><arrival_country_name>Japan</arrival_country_name><arrival_city_code>TYO</arrival_city_code><arrival_city_name>Tokyo</arrival_city_name><planes>773</planes><plane_name>Boeing 777-300</plane_name></routes><routes><airline_iata>AI</airline_iata><departure_airport_iata>DEL</departure_airport_iata><departure_name_airport>Indira Gandhi International</departure_name_airport><departure_coordinates_lon>77.10079</departure_coordinates_lon><departure_coordinates_lat>28.556555</departure_coordinates_lat><departure_country_code>IN</departure_country_code><departure_country_name>India</departure_country_name><departure_city_code>DEL</departure_city_code><departure_city_name>New Delhi</departure_city_name><arrival_airport_iata>NRT</arrival_airport_iata><arrival_name_airport>Narita International Airport</arrival_name_airport><arrival_coordinates_lon>140.38744</arrival_coordinates_lon><arrival_coordinates_lat>35.773212</arrival_coordinates_lat><arrival_country_code>JP</arrival_country_code><arrival_country_name>Japan</arrival_country_name><arrival_city_code>TYO</arrival_city_code><arrival_city_name>Tokyo</arrival_city_name><planes>77W</planes><plane_name>Boeing 777-300ER</plane_name></routes><routes><airline_iata>AI</airline_iata><departure_airport_iata>HKG</departure_airport_iata><departure_name_airport>Hong Kong International</departure_name_airport><departure_coordinates_lon>113.93649</departure_coordinates_lon><departure_coordinates_lat>22.315248</departure_coordinates_lat><departure_country_code>HK</departure_country_code><departure_country_name>Hong Kong</departure_country_name><departure_city_code>HKG</departure_city_code><departure_city_name>Hong Kong</departure_city_name><arrival_airport_iata>KIX</arrival_airport_iata><arrival_name_airport>Kansai International</arrival_name_airport><arrival_coordinates_lon>135.24397</arrival_coordinates_lon><arrival_coordinates_lat>34.43533</arrival_coordinates_lat><arrival_country_code>JP</arrival_country_code><arrival_country_name>Japan</arrival_country_name><arrival_city_code>OSA</arrival_city_code><arrival_city_name>Osaka</arrival_city_name><planes>77L</planes><plane_name>Boeing 777-200LR</plane_name></routes><routes><airline_iata>AI</airline_iata><departure_airport_iata>LAX</departure_airport_iata><departure_name_airport>Los Angeles International</departure_name_airport><departure_coordinates_lon>-118.40828</departure_coordinates_lon><departure_coordinates_lat>33.943398</departure_coordinates_lat><departure_country_code>US</departure_country_code><departure_country_name>United States</departure_country_name><departure_city_code>LAX</departure_city_code><departure_city_name>Los Angeles</departure_city_name><arrival_airport_iata>NRT</arrival_airport_iata><arrival_name_airport>Narita International Airport</arrival_name_airport><arrival_coordinates_lon>140.38744</arrival_coordinates_lon><arrival_coordinates_lat>35.773212</arrival_coordinates_lat><arrival_country_code>JP</arrival_country_code><arrival_country_name>Japan</arrival_country_name><arrival_city_code>TYO</arrival_city_code><arrival_city_name>Tokyo</arrival_city_name><planes>744</planes><plane_name>Boeing 747-400</plane_name></routes><routes><airline_iata>AI</airline_iata><departure_airport_iata>SIN</departure_airport_iata><departure_name_airport>Singapore Changi</departure_name_airport><departure_coordinates_lon>103.990204</departure_coordinates_lon><departure_coordinates_lat>1.361173</departure_coordinates_lat><departure_country_code>SG</departure_country_code><departure_country_name>Singapore</departure_country_name><departure_city_code>SIN</departure_city_code><departure_city_name>Singapore</departure_city_name><arrival_airport_iata>NRT</arrival_airport_iata><arrival_name_airport>Narita International Airport</arrival_name_airport><arrival_coordinates_lon>140.38744</arrival_coordinates_lon><arrival_coordinates_lat>35.773212</arrival_coordinates_lat><arrival_country_code>JP</arrival_country_code><arrival_country_name>Japan</arrival_country_name><arrival_city_code>TYO</arrival_city_code><arrival_city_name>Tokyo</arrival_city_name><planes>744</planes><plane_name>Boeing 747-400</plane_name></routes><routes><airline_iata>AM</airline_iata><departure_airport_iata>TIJ</departure_airport_iata><departure_name_airport>General A. L. Rodriguez International</departure_name_airport><departure_coordinates_lon>-116.97466</departure_coordinates_lon><departure_coordinates_lat>32.546284</departure_coordinates_lat><departure_country_code>MX</departure_country_code><departure_country_name>Mexico</departure_country_name><departure_city_code>TIJ</departure_city_code><departure_city_name>Tijuana</departure_city_name><arrival_airport_iata>NRT</arrival_airport_iata><arrival_name_airport>Narita International Airport</arrival_name_airport><arrival_coordinates_lon>140.38744</arrival_coordinates_lon><arrival_coordinates_lat>35.773212</arrival_coordinates_lat><arrival_country_code>JP</arrival_country_code><arrival_country_name>Japan</arrival_country_name><arrival_city_code>TYO</arrival_city_code><arrival_city_name>Tokyo</arrival_city_name><planes>762</planes><plane_name>Boeing 767-200</plane_name></routes><routes><airline_iata>AY</airline_iata><departure_airport_iata>HEL</departure_airport_iata><departure_name_airport>Helsinki-vantaa</departure_name_airport><departure_coordinates_lon>24.96645</departure_coordinates_lon><departure_coordinates_lat>60.31795</departure_coordinates_lat><departure_country_code>FI</departure_country_code><departure_country_name>Finland</departure_country_name><departure_city_code>HEL</departure_city_code><departure_city_name>Helsinki</departure_city_name><arrival_airport_iata>KIX</arrival_airport_iata><arrival_name_airport>Kansai International</arrival_name_airport><arrival_coordinates_lon>135.24397</arrival_coordinates_lon><arrival_coordinates_lat>34.43533</arrival_coordinates_lat><arrival_country_code>JP</arrival_country_code><arrival_country_name>Japan</arrival_country_name><arrival_city_code>OSA</arrival_city_code><arrival_city_name>Osaka</arrival_city_name><planes>333</planes><plane_name>Airbus Industrie A330-300</plane_name></routes><routes><airline_iata>AY</airline_iata><departure_airport_iata>HEL</departure_airport_iata><departure_name_airport>Helsinki-vantaa</departure_name_airport><departure_coordinates_lon>24.96645</departure_coordinates_lon><departure_coordinates_lat>60.31795</departure_coordinates_lat><departure_country_code>FI</departure_country_code><departure_country_name>Finland</departure_country_name><departure_city_code>HEL</departure_city_code><departure_city_name>Helsinki</departure_city_name><arrival_airport_iata>NGO</arrival_airport_iata><arrival_name_airport>Chu-Bu Centrair International (Central Japan International)</arrival_name_airport><arrival_coordinates_lon>136.80528</arrival_coordinates_lon><arrival_coordinates_lat>34.858334</arrival_coordinates_lat><arrival_country_code>JP</arrival_country_code><arrival_country_name>Japan</arrival_country_name><arrival_city_code>NGO</arrival_city_code><arrival_city_name>Nagoya</arrival_city_name><planes>333</planes><plane_name>Airbus Industrie A330-300</plane_name></routes><routes><airline_iata>AY</airline_iata><departure_airport_iata>HEL</departure_airport_iata><departure_name_airport>Helsinki-vantaa</departure_name_airport><departure_coordinates_lon>24.96645</departure_coordinates_lon><departure_coordinates_lat>60.31795</departure_coordinates_lat><departure_country_code>FI</departure_country_code><departure_country_name>Finland</departure_country_name><departure_city_code>HEL</departure_city_code><departure_city_name>Helsinki</departure_city_name><arrival_airport_iata>NRT</arrival_airport_iata><arrival_name_airport>Narita International Airport</arrival_name_airport><arrival_coordinates_lon>140.38744</arrival_coordinates_lon><arrival_coordinates_lat>35.773212</arrival_coordinates_lat><arrival_country_code>JP</arrival_country_code><arrival_country_name>Japan</arrival_country_name><arrival_city_code>TYO</arrival_city_code><arrival_city_name>Tokyo</arrival_city_name><planes>333</planes><plane_name>Airbus Industrie A330-300</plane_name></routes><routes><airline_iata>AZ</airline_iata><departure_airport_iata>FCO</departure_airport_iata><departure_name_airport>Leonardo Da Vinci (Fiumicino)</departure_name_airport><departure_coordinates_lon>12.250346</departure_coordinates_lon><departure_coordinates_lat>41.794594</departure_coordinates_lat><departure_country_code>IT</departure_country_code><departure_country_name>Italy</departure_country_name><departure_city_code>ROM</departure_city_code><departure_city_name>Rome</departure_city_name><arrival_airport_iata>KIX</arrival_airport_iata><arrival_name_airport>Kansai International</arrival_name_airport><arrival_coordinates_lon>135.24397</arrival_coordinates_lon><arrival_coordinates_lat>34.43533</arrival_coordinates_lat><arrival_country_code>JP</arrival_country_code><arrival_country_name>Japan</arrival_country_name><arrival_city_code>OSA</arrival_city_code><arrival_city_name>Osaka</arrival_city_name><planes>330</planes><plane_name>Airbus Industrie A330</plane_name></routes><routes><airline_iata>AZ</airline_iata><departure_airport_iata>FCO</departure_airport_iata><departure_name_airport>Leonardo Da Vinci (Fiumicino)</departure_name_airport><departure_coordinates_lon>12.250346</departure_coordinates_lon><departure_coordinates_lat>41.794594</departure_coordinates_lat><departure_country_code>IT</departure_country_code><departure_country_name>Italy</departure_country_name><departure_city_code>ROM</departure_city_code><departure_city_name>Rome</departure_city_name><arrival_airport_iata>NRT</arrival_airport_iata><arrival_name_airport>Narita International Airport</arrival_name_airport><arrival_coordinates_lon>140.38744</arrival_coordinates_lon><arrival_coordinates_lat>35.773212</arrival_coordinates_lat><arrival_country_code>JP</arrival_country_code><arrival_country_name>Japan</arrival_country_name><arrival_city_code>TYO</arrival_city_code><arrival_city_name>Tokyo</arrival_city_name><planes>772</planes><plane_name>Boeing 777-200/200ER</plane_name></routes><routes><airline_iata>AZ</airline_iata><departure_airport_iata>MXP</departure_airport_iata><departure_name_airport>Milano Malpensa</departure_name_airport><departure_coordinates_lon>8.71237</departure_coordinates_lon><departure_coordinates_lat>45.627403</departure_coordinates_lat><departure_country_code>IT</departure_country_code><departure_country_name>Italy</departure_country_name><departure_city_code>MIL</departure_city_code><departure_city_name>Milan</departure_city_name><arrival_airport_iata>NRT</arrival_airport_iata><arrival_name_airport>Narita International Airport</arrival_name_airport><arrival_coordinates_lon>140.38744</arrival_coordinates_lon><arrival_coordinates_lat>35.773212</arrival_coordinates_lat><arrival_country_code>JP</arrival_country_code><arrival_country_name>Japan</arrival_country_name><arrival_city_code>TYO</arrival_city_code><arrival_city_name>Tokyo</arrival_city_name><planes>772</planes><plane_name>Boeing 777-200/200ER</plane_name></routes><routes><airline_iata>BA</airline_iata><departure_airport_iata>LHR</departure_airport_iata><departure_name_airport>Heathrow</departure_name_airport><departure_coordinates_lon>-0.453566</departure_coordinates_lon><departure_coordinates_lat>51.469604</departure_coordinates_lat><departure_country_code>GB</departure_country_code><departure_country_name>United Kingdom</departure_country_name><departure_city_code>LON</departure_city_code><departure_city_name>London</departure_city_name><arrival_airport_iata>HND</arrival_airport_iata><arrival_name_airport>Haneda Airport</arrival_name_airport><arrival_coordinates_lon>139.78453</arrival_coordinates_lon><arrival_coordinates_lat>35.54907</arrival_coordinates_lat><arrival_country_code>JP</arrival_country_code><arrival_country_name>Japan</arrival_country_name><arrival_city_code>TYO</arrival_city_code><arrival_city_name>Tokyo</arrival_city_name><planes>777</planes><plane_name>Boeing 777</plane_name></routes><routes><airline_iata>BA</airline_iata><departure_airport_iata>LHR</departure_airport_iata><departure_name_airport>Heathrow</departure_name_airport><departure_coordinates_lon>-0.453566</departure_coordinates_lon><departure_coordinates_lat>51.469604</departure_coordinates_lat><departure_country_code>GB</departure_country_code><departure_country_name>United Kingdom</departure_country_name><departure_city_code>LON</departure_city_code><departure_city_name>London</departure_city_name><arrival_airport_iata>NRT</arrival_airport_iata><arrival_name_airport>Narita International Airport</arrival_name_airport><arrival_coordinates_lon>140.38744</arrival_coordinates_lon><arrival_coordinates_lat>35.773212</arrival_coordinates_lat><arrival_country_code>JP</arrival_country_code><arrival_country_name>Japan</arrival_country_name><arrival_city_code>TYO</arrival_city_code><arrival_city_name>Tokyo</arrival_city_name><planes>777</planes><plane_name>Boeing 777</plane_name></routes><routes><airline_iata>BA</airline_iata><departure_airport_iata>LHR</departure_airport_iata><departure_name_airport>Heathrow</departure_name_airport><departure_coordinates_lon>-0.453566</departure_coordinates_lon><departure_coordinates_lat>51.469604</departure_coordinates_lat><departure_country_code>GB</departure_country_code><departure_country_name>United Kingdom</departure_country_name><departure_city_code>LON</departure_city_code><departure_city_name>London</departure_city_name><arrival_airport_iata>NRT</arrival_airport_iata><arrival_name_airport>Narita International Airport</arrival_name_airport><arrival_coordinates_lon>140.38744</arrival_coordinates_lon><arrival_coordinates_lat>35.773212</arrival_coordinates_lat><arrival_country_code>JP</arrival_country_code><arrival_country_name>Japan</arrival_country_name><arrival_city_code>TYO</arrival_city_code><arrival_city_name>Tokyo</arrival_city_name><planes>773</planes><plane_name>Boeing 777-300</plane_name></routes><routes><airline_iata>BC</airline_iata><departure_airport_iata>AKJ</departure_airport_iata><departure_name_airport>Asahikawa</departure_name_airport><departure_coordinates_lon>142.45454</departure_coordinates_lon><departure_coordinates_lat>43.67109</departure_coordinates_lat><departure_country_code>JP</departure_country_code><departure_country_name>Japan</departure_country_name><departure_city_code>AKJ</departure_city_code><departure_city_name>Asahikawa</departure_city_name><arrival_airport_iata>KIX</arrival_airport_iata><arrival_name_airport>Kansai International</arrival_name_airport><arrival_coordinates_lon>135.24397</arrival_coordinates_lon><arrival_coordinates_lat>34.43533</arrival_coordinates_lat><arrival_country_code>JP</arrival_country_code><arrival_country_name>Japan</arrival_country_name><arrival_city_code>OSA</arrival_city_code><arrival_city_name>Osaka</arrival_city_name><planes>737</planes><plane_name>Boeing 737</plane_name></routes><routes><airline_iata>BC</airline_iata><departure_airport_iata>AKJ</departure_airport_iata><departure_name_airport>Asahikawa</departure_name_airport><departure_coordinates_lon>142.45454</departure_coordinates_lon><departure_coordinates_lat>43.67109</departure_coordinates_lat><departure_country_code>JP</departure_country_code><departure_country_name>Japan</departure_country_name><departure_city_code>AKJ</departure_city_code><departure_city_name>Asahikawa</departure_city_name><arrival_airport_iata>NRT</arrival_airport_iata><arrival_name_airport>Narita International Airport</arrival_name_airport><arrival_coordinates_lon>140.38744</arrival_coordinates_lon><arrival_coordinates_lat>35.773212</arrival_coordinates_lat><arrival_country_code>JP</arrival_country_code><arrival_country_name>Japan</arrival_country_name><arrival_city_code>TYO</arrival_city_code><arrival_city_name>Tokyo</arrival_city_name><planes>737</planes><plane_name>Boeing 737</plane_name></routes><routes><airline_iata>BC</airline_iata><departure_airport_iata>CTS</departure_airport_iata><departure_name_airport>Chitose</departure_name_airport><departure_coordinates_lon>141.68134</departure_coordinates_lon><departure_coordinates_lat>42.78728</departure_coordinates_lat><departure_country_code>JP</departure_country_code><departure_country_name>Japan</departure_country_name><departure_city_code>SPK</departure_city_code><departure_city_name>Sapporo</departure_city_name><arrival_airport_iata>HND</arrival_airport_iata><arrival_name_airport>Haneda Airport</arrival_name_airport><arrival_coordinates_lon>139.78453</arrival_coordinates_lon><arrival_coordinates_lat>35.54907</arrival_coordinates_lat><arrival_country_code>JP</arrival_country_code><arrival_country_name>Japan</arrival_country_name><arrival_city_code>TYO</arrival_city_code><arrival_city_name>Tokyo</arrival_city_name><planes>737</planes><plane_name>Boeing 737</plane_name></routes><routes><airline_iata>BC</airline_iata><departure_airport_iata>CTS</departure_airport_iata><departure_name_airport>Chitose</departure_name_airport><departure_coordinates_lon>141.68134</departure_coordinates_lon><departure_coordinates_lat>42.78728</departure_coordinates_lat><departure_country_code>JP</departure_country_code><departure_country_name>Japan</departure_country_name><departure_city_code>SPK</departure_city_code><departure_city_name>Sapporo</departure_city_name><arrival_airport_iata>IBR</arrival_airport_iata><arrival_name_airport>Ibaraki</arrival_name_airport><arrival_coordinates_lon>140.41472</arrival_coordinates_lon><arrival_coordinates_lat>36.181667</arrival_coordinates_lat><arrival_country_code>JP</arrival_country_code><arrival_country_name>Japan</arrival_country_name><arrival_city_code>IBR</arrival_city_code><arrival_city_name>Ibaraki</arrival_city_name><planes>737</planes><plane_name>Boeing 737</plane_name></routes><routes><airline_iata>BC</airline_iata><departure_airport_iata>CTS</departure_airport_iata><departure_name_airport>Chitose</departure_name_airport><departure_coordinates_lon>141.68134</departure_coordinates_lon><departure_coordinates_lat>42.78728</departure_coordinates_lat><departure_country_code>JP</departure_country_code><departure_country_name>Japan</departure_country_name><departure_city_code>SPK</departure_city_code><departure_city_name>Sapporo</departure_city_name><arrival_airport_iata>KIX</arrival_airport_iata><arrival_name_airport>Kansai International</arrival_name_airport><arrival_coordinates_lon>135.24397</arrival_coordinates_lon><arrival_coordinates_lat>34.43533</arrival_coordinates_lat><arrival_country_code>JP</arrival_country_code><arrival_country_name>Japan</arrival_country_name><arrival_city_code>OSA</arrival_city_code><arrival_city_name>Osaka</arrival_city_name><planes>737</planes><plane_name>Boeing 737</plane_name></routes><routes><airline_iata>BC</airline_iata><departure_airport_iata>CTS</departure_airport_iata><departure_name_airport>Chitose</departure_name_airport><departure_coordinates_lon>141.68134</departure_coordinates_lon><departure_coordinates_lat>42.78728</departure_coordinates_lat><departure_country_code>JP</departure_country_code><departure_country_name>Japan</departure_country_name><departure_city_code>SPK</departure_city_code><departure_city_name>Sapporo</departure_city_name><arrival_airport_iata>NGO</arrival_airport_iata><arrival_name_airport>Chu-Bu Centrair International (Central Japan International)</arrival_name_airport><arrival_coordinates_lon>136.80528</arrival_coordinates_lon><arrival_coordinates_lat>34.858334</arrival_coordinates_lat><arrival_country_code>JP</arrival_country_code><arrival_country_name>Japan</arrival_country_name><arrival_city_code>NGO</arrival_city_code><arrival_city_name>Nagoya</arrival_city_name><planes>737</planes><plane_name>Boeing 737</plane_name></routes><routes><airline_iata>BC</airline_iata><departure_airport_iata>CTS</departure_airport_iata><departure_name_airport>Chitose</departure_name_airport><departure_coordinates_lon>141.68134</departure_coordinates_lon><departure_coordinates_lat>42.78728</departure_coordinates_lat><departure_country_code>JP</departure_country_code><departure_country_name>Japan</departure_country_name><departure_city_code>SPK</departure_city_code><departure_city_name>Sapporo</departure_city_name><arrival_airport_iata>NRT</arrival_airport_iata><arrival_name_airport>Narita International Airport</arrival_name_airport><arrival_coordinates_lon>140.38744</arrival_coordinates_lon><arrival_coordinates_lat>35.773212</arrival_coordinates_lat><arrival_country_code>JP</arrival_country_code><arrival_country_name>Japan</arrival_country_name><arrival_city_code>TYO</arrival_city_code><arrival_city_name>Tokyo</arrival_city_name><planes>737</planes><plane_name>Boeing 737</plane_name></routes><routes><airline_iata>BC</airline_iata><departure_airport_iata>CTS</departure_airport_iata><departure_name_airport>Chitose</departure_name_airport><departure_coordinates_lon>141.68134</departure_coordinates_lon><departure_coordinates_lat>42.78728</departure_coordinates_lat><departure_country_code>JP</departure_country_code><departure_country_name>Japan</departure_country_name><departure_city_code>SPK</departure_city_code><departure_city_name>Sapporo</departure_city_name><arrival_airport_iata>UKB</arrival_airport_iata><arrival_name_airport>Kobe</arrival_name_airport><arrival_coordinates_lon>135.2284</arrival_coordinates_lon><arrival_coordinates_lat>34.6373</arrival_coordinates_lat><arrival_country_code>JP</arrival_country_code><arrival_country_name>Japan</arrival_country_name><arrival_city_code>OSA</arrival_city_code><arrival_city_name>Osaka</arrival_city_name><planes>737</planes><plane_name>Boeing 737</plane_name></routes><routes><airline_iata>BC</airline_iata><departure_airport_iata>FUK</departure_airport_iata><departure_name_airport>Fukuoka</departure_name_airport><departure_coordinates_lon>130.4439</departure_coordinates_lon><departure_coordinates_lat>33.584286</departure_coordinates_lat><departure_country_code>JP</departure_country_code><departure_country_name>Japan</departure_country_name><departure_city_code>FUK</departure_city_code><departure_city_name>Fukuoka</departure_city_name><arrival_airport_iata>HND</arrival_airport_iata><arrival_name_airport>Haneda Airport</arrival_name_airport><arrival_coordinates_lon>139.78453</arrival_coordinates_lon><arrival_coordinates_lat>35.54907</arrival_coordinates_lat><arrival_country_code>JP</arrival_country_code><arrival_country_name>Japan</arrival_country_name><arrival_city_code>TYO</arrival_city_code><arrival_city_name>Tokyo</arrival_city_name><planes>737</planes><plane_name>Boeing 737</plane_name></routes><routes><airline_iata>BC</airline_iata><departure_airport_iata>FUK</departure_airport_iata><departure_name_airport>Fukuoka</departure_name_airport><departure_coordinates_lon>130.4439</departure_coordinates_lon><departure_coordinates_lat>33.584286</departure_coordinates_lat><departure_country_code>JP</departure_country_code><departure_country_name>Japan</departure_country_name><departure_city_code>FUK</departure_city_code><departure_city_name>Fukuoka</departure_city_name><arrival_airport_iata>NRT</arrival_airport_iata><arrival_name_airport>Narita International Airport</arrival_name_airport><arrival_coordinates_lon>140.38744</arrival_coordinates_lon><arrival_coordinates_lat>35.773212</arrival_coordinates_lat><arrival_country_code>JP</arrival_country_code><arrival_country_name>Japan</arrival_country_name><arrival_city_code>TYO</arrival_city_code><arrival_city_name>Tokyo</arrival_city_name><planes>737</planes><plane_name>Boeing 737</plane_name></routes><routes><airline_iata>BC</airline_iata><departure_airport_iata>FUK</departure_airport_iata><departure_name_airport>Fukuoka</departure_name_airport><departure_coordinates_lon>130.4439</departure_coordinates_lon><departure_coordinates_lat>33.584286</departure_coordinates_lat><departure_country_code>JP</departure_country_code><departure_country_name>Japan</departure_country_name><departure_city_code>FUK</departure_city_code><departure_city_name>Fukuoka</departure_city_name><arrival_airport_iata>OKA</arrival_airport_iata><arrival_name_airport>Naha</arrival_name_airport><arrival_coordinates_lon>127.645836</arrival_coordinates_lon><arrival_coordinates_lat>26.195833</arrival_coordinates_lat><arrival_country_code>JP</arrival_country_code><arrival_country_name>Japan</arrival_country_name><arrival_city_code>OKA</arrival_city_code><arrival_city_name>Okinawa</arrival_city_name><planes>737</planes><plane_name>Boeing 737</plane_name></routes><routes><airline_iata>BC</airline_iata><departure_airport_iata>HND</departure_airport_iata><departure_name_airport>Haneda Airport</departure_name_airport><departure_coordinates_lon>139.78453</departure_coordinates_lon><departure_coordinates_lat>35.54907</departure_coordinates_lat><departure_country_code>JP</departure_country_code><departure_country_name>Japan</departure_country_name><departure_city_code>TYO</departure_city_code><departure_city_name>Tokyo</departure_city_name><arrival_airport_iata>CTS</arrival_airport_iata><arrival_name_airport>Chitose</arrival_name_airport><arrival_coordinates_lon>141.68134</arrival_coordinates_lon><arrival_coordinates_lat>42.78728</arrival_coordinates_lat><arrival_country_code>JP</arrival_country_code><arrival_country_name>Japan</arrival_country_name><arrival_city_code>SPK</arrival_city_code><arrival_city_name>Sapporo</arrival_city_name><planes>737</planes><plane_name>Boeing 737</plane_name></routes><routes><airline_iata>BC</airline_iata><departure_airport_iata>HND</departure_airport_iata><departure_name_airport>Haneda Airport</departure_name_airport><departure_coordinates_lon>139.78453</departure_coordinates_lon><departure_coordinates_lat>35.54907</departure_coordinates_lat><departure_country_code>JP</departure_country_code><departure_country_name>Japan</departure_country_name><departure_city_code>TYO</departure_city_code><departure_city_name>Tokyo</departure_city_name><arrival_airport_iata>FUK</arrival_airport_iata><arrival_name_airport>Fukuoka</arrival_name_airport><arrival_coordinates_lon>130.4439</arrival_coordinates_lon><arrival_coordinates_lat>33.584286</arrival_coordinates_lat><arrival_country_code>JP</arrival_country_code><arrival_country_name>Japan</arrival_country_name><arrival_city_code>FUK</arrival_city_code><arrival_city_name>Fukuoka</arrival_city_name><planes>737</planes><plane_name>Boeing 737</plane_name></routes><routes><airline_iata>BC</airline_iata><departure_airport_iata>HND</departure_airport_iata><departure_name_airport>Haneda Airport</departure_name_airport><departure_coordinates_lon>139.78453</departure_coordinates_lon><departure_coordinates_lat>35.54907</departure_coordinates_lat><departure_country_code>JP</departure_country_code><departure_country_name>Japan</departure_country_name><departure_city_code>TYO</departure_city_code><departure_city_name>Tokyo</departure_city_name><arrival_airport_iata>KMJ</arrival_airport_iata><arrival_name_airport>Kumamoto</arrival_name_airport><arrival_coordinates_lon>130.85799</arrival_coordinates_lon><arrival_coordinates_lat>32.834133</arrival_coordinates_lat><arrival_country_code>JP</arrival_country_code><arrival_country_name>Japan</arrival_country_name><arrival_city_code>KMJ</arrival_city_code><arrival_city_name>Kumamoto</arrival_city_name><planes>737</planes><plane_name>Boeing 737</plane_name></routes><routes><airline_iata>BC</airline_iata><departure_airport_iata>HND</departure_airport_iata><departure_name_airport>Haneda Airport</departure_name_airport><departure_coordinates_lon>139.78453</departure_coordinates_lon><departure_coordinates_lat>35.54907</departure_coordinates_lat><departure_country_code>JP</departure_country_code><departure_country_name>Japan</departure_country_name><departure_city_code>TYO</departure_city_code><departure_city_name>Tokyo</departure_city_name><arrival_airport_iata>KOJ</arrival_airport_iata><arrival_name_airport>Kagoshima</arrival_name_airport><arrival_coordinates_lon>130.71562</arrival_coordinates_lon><arrival_coordinates_lat>31.801224</arrival_coordinates_lat><arrival_country_code>JP</arrival_country_code><arrival_country_name>Japan</arrival_country_name><arrival_city_code>KOJ</arrival_city_code><arrival_city_name>Kagoshima</arrival_city_name><planes>737</planes><plane_name>Boeing 737</plane_name></routes><routes><airline_iata>BC</airline_iata><departure_airport_iata>HND</departure_airport_iata><departure_name_airport>Haneda Airport</departure_name_airport><departure_coordinates_lon>139.78453</departure_coordinates_lon><departure_coordinates_lat>35.54907</departure_coordinates_lat><departure_country_code>JP</departure_country_code><departure_country_name>Japan</departure_country_name><departure_city_code>TYO</departure_city_code><departure_city_name>Tokyo</departure_city_name><arrival_airport_iata>OKA</arrival_airport_iata><arrival_name_airport>Naha</arrival_name_airport><arrival_coordinates_lon>127.645836</arrival_coordinates_lon><arrival_coordinates_lat>26.195833</arrival_coordinates_lat><arrival_country_code>JP</arrival_country_code><arrival_country_name>Japan</arrival_country_name><arrival_city_code>OKA</arrival_city_code><arrival_city_name>Okinawa</arrival_city_name><planes>737</planes><plane_name>Boeing 737</plane_name></routes><routes><airline_iata>BC</airline_iata><departure_airport_iata>HND</departure_airport_iata><departure_name_airport>Haneda Airport</departure_name_airport><departure_coordinates_lon>139.78453</departure_coordinates_lon><departure_coordinates_lat>35.54907</departure_coordinates_lat><departure_country_code>JP</departure_country_code><departure_country_name>Japan</departure_country_name><departure_city_code>TYO</departure_city_code><departure_city_name>Tokyo</departure_city_name><arrival_airport_iata>UKB</arrival_airport_iata><arrival_name_airport>Kobe</arrival_name_airport><arrival_coordinates_lon>135.2284</arrival_coordinates_lon><arrival_coordinates_lat>34.6373</arrival_coordinates_lat><arrival_country_code>JP</arrival_country_code><arrival_country_name>Japan</arrival_country_name><arrival_city_code>OSA</arrival_city_code><arrival_city_name>Osaka</arrival_city_name><planes>737</planes><plane_name>Boeing 737</plane_name></routes><routes><airline_iata>BC</airline_iata><departure_airport_iata>IBR</departure_airport_iata><departure_name_airport>Ibaraki</departure_name_airport><departure_coordinates_lon>140.41472</departure_coordinates_lon><departure_coordinates_lat>36.181667</departure_coordinates_lat><departure_country_code>JP</departure_country_code><departure_country_name>Japan</departure_country_name><departure_city_code>IBR</departure_city_code><departure_city_name>Ibaraki</departure_city_name><arrival_airport_iata>CTS</arrival_airport_iata><arrival_name_airport>Chitose</arrival_name_airport><arrival_coordinates_lon>141.68134</arrival_coordinates_lon><arrival_coordinates_lat>42.78728</arrival_coordinates_lat><arrival_country_code>JP</arrival_country_code><arrival_country_name>Japan</arrival_country_name><arrival_city_code>SPK</arrival_city_code><arrival_city_name>Sapporo</arrival_city_name><planes>737</planes><plane_name>Boeing 737</plane_name></routes><routes><airline_iata>BC</airline_iata><departure_airport_iata>IBR</departure_airport_iata><departure_name_airport>Ibaraki</departure_name_airport><departure_coordinates_lon>140.41472</departure_coordinates_lon><departure_coordinates_lat>36.181667</departure_coordinates_lat><departure_country_code>JP</departure_country_code><departure_country_name>Japan</departure_country_name><departure_city_code>IBR</departure_city_code><departure_city_name>Ibaraki</departure_city_name><arrival_airport_iata>UKB</arrival_airport_iata><arrival_name_airport>Kobe</arrival_name_airport><arrival_coordinates_lon>135.2284</arrival_coordinates_lon><arrival_coordinates_lat>34.6373</arrival_coordinates_lat><arrival_country_code>JP</arrival_country_code><arrival_country_name>Japan</arrival_country_name><arrival_city_code>OSA</arrival_city_code><arrival_city_name>Osaka</arrival_city_name><planes>737</planes><plane_name>Boeing 737</plane_name></routes><routes><airline_iata>BC</airline_iata><departure_airport_iata>KIX</departure_airport_iata><departure_name_airport>Kansai International</departure_name_airport><departure_coordinates_lon>135.24397</departure_coordinates_lon><departure_coordinates_lat>34.43533</departure_coordinates_lat><departure_country_code>JP</departure_country_code><departure_country_name>Japan</departure_country_name><departure_city_code>OSA</departure_city_code><departure_city_name>Osaka</departure_city_name><arrival_airport_iata>AKJ</arrival_airport_iata><arrival_name_airport>Asahikawa</arrival_name_airport><arrival_coordinates_lon>142.45454</arrival_coordinates_lon><arrival_coordinates_lat>43.67109</arrival_coordinates_lat><arrival_country_code>JP</arrival_country_code><arrival_country_name>Japan</arrival_country_name><arrival_city_code>AKJ</arrival_city_code><arrival_city_name>Asahikawa</arrival_city_name><planes>737</planes><plane_name>Boeing 737</plane_name></routes><routes><airline_iata>BC</airline_iata><departure_airport_iata>KIX</departure_airport_iata><departure_name_airport>Kansai International</departure_name_airport><departure_coordinates_lon>135.24397</departure_coordinates_lon><departure_coordinates_lat>34.43533</departure_coordinates_lat><departure_country_code>JP</departure_country_code><departure_country_name>Japan</departure_country_name><departure_city_code>OSA</departure_city_code><departure_city_name>Osaka</departure_city_name><arrival_airport_iata>CTS</arrival_airport_iata><arrival_name_airport>Chitose</arrival_name_airport><arrival_coordinates_lon>141.68134</arrival_coordinates_lon><arrival_coordinates_lat>42.78728</arrival_coordinates_lat><arrival_country_code>JP</arrival_country_code><arrival_country_name>Japan</arrival_country_name><arrival_city_code>SPK</arrival_city_code><arrival_city_name>Sapporo</arrival_city_name><planes>737</planes><plane_name>Boeing 737</plane_name></routes><routes><airline_iata>BC</airline_iata><departure_airport_iata>KIX</departure_airport_iata><departure_name_airport>Kansai International</departure_name_airport><departure_coordinates_lon>135.24397</departure_coordinates_lon><departure_coordinates_lat>34.43533</departure_coordinates_lat><departure_country_code>JP</departure_country_code><departure_country_name>Japan</departure_country_name><departure_city_code>OSA</departure_city_code><departure_city_name>Osaka</departure_city_name><arrival_airport_iata>OKA</arrival_airport_iata><arrival_name_airport>Naha</arrival_name_airport><arrival_coordinates_lon>127.645836</arrival_coordinates_lon><arrival_coordinates_lat>26.195833</arrival_coordinates_lat><arrival_country_code>JP</arrival_country_code><arrival_country_name>Japan</arrival_country_name><arrival_city_code>OKA</arrival_city_code><arrival_city_name>Okinawa</arrival_city_name><planes>737</planes><plane_name>Boeing 737</plane_name></routes><routes><airline_iata>BC</airline_iata><departure_airport_iata>KMJ</departure_airport_iata><departure_name_airport>Kumamoto</departure_name_airport><departure_coordinates_lon>130.85799</departure_coordinates_lon><departure_coordinates_lat>32.834133</departure_coordinates_lat><departure_country_code>JP</departure_country_code><departure_country_name>Japan</departure_country_name><departure_city_code>KMJ</departure_city_code><departure_city_name>Kumamoto</departure_city_name><arrival_airport_iata>HND</arrival_airport_iata><arrival_name_airport>Haneda Airport</arrival_name_airport><arrival_coordinates_lon>139.78453</arrival_coordinates_lon><arrival_coordinates_lat>35.54907</arrival_coordinates_lat><arrival_country_code>JP</arrival_country_code><arrival_country_name>Japan</arrival_country_name><arrival_city_code>TYO</arrival_city_code><arrival_city_name>Tokyo</arrival_city_name><planes>737</planes><plane_name>Boeing 737</plane_name></routes><routes><airline_iata>BC</airline_iata><departure_airport_iata>KOJ</departure_airport_iata><departure_name_airport>Kagoshima</departure_name_airport><departure_coordinates_lon>130.71562</departure_coordinates_lon><departure_coordinates_lat>31.801224</departure_coordinates_lat><departure_country_code>JP</departure_country_code><departure_country_name>Japan</departure_country_name><departure_city_code>KOJ</departure_city_code><departure_city_name>Kagoshima</departure_city_name><arrival_airport_iata>HND</arrival_airport_iata><arrival_name_airport>Haneda Airport</arrival_name_airport><arrival_coordinates_lon>139.78453</arrival_coordinates_lon><arrival_coordinates_lat>35.54907</arrival_coordinates_lat><arrival_country_code>JP</arrival_country_code><arrival_country_name>Japan</arrival_country_name><arrival_city_code>TYO</arrival_city_code><arrival_city_name>Tokyo</arrival_city_name><planes>737</planes><plane_name>Boeing 737</plane_name></routes><routes><airline_iata>BC</airline_iata><departure_airport_iata>KOJ</departure_airport_iata><departure_name_airport>Kagoshima</departure_name_airport><departure_coordinates_lon>130.71562</departure_coordinates_lon><departure_coordinates_lat>31.801224</departure_coordinates_lat><departure_country_code>JP</departure_country_code><departure_country_name>Japan</departure_country_name><departure_city_code>KOJ</departure_city_code><departure_city_name>Kagoshima</departure_city_name><arrival_airport_iata>NRT</arrival_airport_iata><arrival_name_airport>Narita International Airport</arrival_name_airport><arrival_coordinates_lon>140.38744</arrival_coordinates_lon><arrival_coordinates_lat>35.773212</arrival_coordinates_lat><arrival_country_code>JP</arrival_country_code><arrival_country_name>Japan</arrival_country_name><arrival_city_code>TYO</arrival_city_code><arrival_city_name>Tokyo</arrival_city_name><planes>737</planes><plane_name>Boeing 737</plane_name></routes><routes><airline_iata>BC</airline_iata><departure_airport_iata>KOJ</departure_airport_iata><departure_name_airport>Kagoshima</departure_name_airport><departure_coordinates_lon>130.71562</departure_coordinates_lon><departure_coordinates_lat>31.801224</departure_coordinates_lat><departure_country_code>JP</departure_country_code><departure_country_name>Japan</departure_country_name><departure_city_code>KOJ</departure_city_code><departure_city_name>Kagoshima</departure_city_name><arrival_airport_iata>UKB</arrival_airport_iata><arrival_name_airport>Kobe</arrival_name_airport><arrival_coordinates_lon>135.2284</arrival_coordinates_lon><arrival_coordinates_lat>34.6373</arrival_coordinates_lat><arrival_country_code>JP</arrival_country_code><arrival_country_name>Japan</arrival_country_name><arrival_city_code>OSA</arrival_city_code><arrival_city_name>Osaka</arrival_city_name><planes>737</planes><plane_name>Boeing 737</plane_name></routes><routes><airline_iata>BC</airline_iata><departure_airport_iata>MMY</departure_airport_iata><departure_name_airport>Hirara</departure_name_airport><departure_coordinates_lon>125.29778</departure_coordinates_lon><departure_coordinates_lat>24.779198</departure_coordinates_lat><departure_country_code>JP</departure_country_code><departure_country_name>Japan</departure_country_name><departure_city_code>MMY</departure_city_code><departure_city_name>Miyako Jima</departure_city_name><arrival_airport_iata>OKA</arrival_airport_iata><arrival_name_airport>Naha</arrival_name_airport><arrival_coordinates_lon>127.645836</arrival_coordinates_lon><arrival_coordinates_lat>26.195833</arrival_coordinates_lat><arrival_country_code>JP</arrival_country_code><arrival_country_name>Japan</arrival_country_name><arrival_city_code>OKA</arrival_city_code><arrival_city_name>Okinawa</arrival_city_name><planes>737</planes><plane_name>Boeing 737</plane_name></routes><routes><airline_iata>BC</airline_iata><departure_airport_iata>NGO</departure_airport_iata><departure_name_airport>Chu-Bu Centrair International (Central Japan International)</departure_name_airport><departure_coordinates_lon>136.80528</departure_coordinates_lon><departure_coordinates_lat>34.858334</departure_coordinates_lat><departure_country_code>JP</departure_country_code><departure_country_name>Japan</departure_country_name><departure_city_code>NGO</departure_city_code><departure_city_name>Nagoya</departure_city_name><arrival_airport_iata>CTS</arrival_airport_iata><arrival_name_airport>Chitose</arrival_name_airport><arrival_coordinates_lon>141.68134</arrival_coordinates_lon><arrival_coordinates_lat>42.78728</arrival_coordinates_lat><arrival_country_code>JP</arrival_country_code><arrival_country_name>Japan</arrival_country_name><arrival_city_code>SPK</arrival_city_code><arrival_city_name>Sapporo</arrival_city_name><planes>737</planes><plane_name>Boeing 737</plane_name></routes><routes><airline_iata>BC</airline_iata><departure_airport_iata>NGO</departure_airport_iata><departure_name_airport>Chu-Bu Centrair International (Central Japan International)</departure_name_airport><departure_coordinates_lon>136.80528</departure_coordinates_lon><departure_coordinates_lat>34.858334</departure_coordinates_lat><departure_country_code>JP</departure_country_code><departure_country_name>Japan</departure_country_name><departure_city_code>NGO</departure_city_code><departure_city_name>Nagoya</departure_city_name><arrival_airport_iata>OKA</arrival_airport_iata><arrival_name_airport>Naha</arrival_name_airport><arrival_coordinates_lon>127.645836</arrival_coordinates_lon><arrival_coordinates_lat>26.195833</arrival_coordinates_lat><arrival_country_code>JP</arrival_country_code><arrival_country_name>Japan</arrival_country_name><arrival_city_code>OKA</arrival_city_code><arrival_city_name>Okinawa</arrival_city_name><planes>737</planes><plane_name>Boeing 737</plane_name></routes><routes><airline_iata>BC</airline_iata><departure_airport_iata>NGS</departure_airport_iata><departure_name_airport>Nagasaki</departure_name_airport><departure_coordinates_lon>129.92258</departure_coordinates_lon><departure_coordinates_lat>32.9144</departure_coordinates_lat><departure_country_code>JP</departure_country_code><departure_country_name>Japan</departure_country_name><departure_city_code>NGS</departure_city_code><departure_city_name>Nagasaki</departure_city_name><arrival_airport_iata>UKB</arrival_airport_iata><arrival_name_airport>Kobe</arrival_name_airport><arrival_coordinates_lon>135.2284</arrival_coordinates_lon><arrival_coordinates_lat>34.6373</arrival_coordinates_lat><arrival_country_code>JP</arrival_country_code><arrival_country_name>Japan</arrival_country_name><arrival_city_code>OSA</arrival_city_code><arrival_city_name>Osaka</arrival_city_name><planes>737</planes><plane_name>Boeing 737</plane_name></routes><routes><airline_iata>BC</airline_iata><departure_airport_iata>NRT</departure_airport_iata><departure_name_airport>Narita International Airport</departure_name_airport><departure_coordinates_lon>140.38744</departure_coordinates_lon><departure_coordinates_lat>35.773212</departure_coordinates_lat><departure_country_code>JP</departure_country_code><departure_country_name>Japan</departure_country_name><departure_city_code>TYO</departure_city_code><departure_city_name>Tokyo</departure_city_name><arrival_airport_iata>AKJ</arrival_airport_iata><arrival_name_airport>Asahikawa</arrival_name_airport><arrival_coordinates_lon>142.45454</arrival_coordinates_lon><arrival_coordinates_lat>43.67109</arrival_coordinates_lat><arrival_country_code>JP</arrival_country_code><arrival_country_name>Japan</arrival_country_name><arrival_city_code>AKJ</arrival_city_code><arrival_city_name>Asahikawa</arrival_city_name><planes>737</planes><plane_name>Boeing 737</plane_name></routes><routes><airline_iata>BC</airline_iata><departure_airport_iata>NRT</departure_airport_iata><departure_name_airport>Narita International Airport</departure_name_airport><departure_coordinates_lon>140.38744</departure_coordinates_lon><departure_coordinates_lat>35.773212</departure_coordinates_lat><departure_country_code>JP</departure_country_code><departure_country_name>Japan</departure_country_name><departure_city_code>TYO</departure_city_code><departure_city_name>Tokyo</departure_city_name><arrival_airport_iata>CTS</arrival_airport_iata><arrival_name_airport>Chitose</arrival_name_airport><arrival_coordinates_lon>141.68134</arrival_coordinates_lon><arrival_coordinates_lat>42.78728</arrival_coordinates_lat><arrival_country_code>JP</arrival_country_code><arrival_country_name>Japan</arrival_country_name><arrival_city_code>SPK</arrival_city_code><arrival_city_name>Sapporo</arrival_city_name><planes>737</planes><plane_name>Boeing 737</plane_name></routes><routes><airline_iata>BC</airline_iata><departure_airport_iata>NRT</departure_airport_iata><departure_name_airport>Narita International Airport</departure_name_airport><departure_coordinates_lon>140.38744</departure_coordinates_lon><departure_coordinates_lat>35.773212</departure_coordinates_lat><departure_country_code>JP</departure_country_code><departure_country_name>Japan</departure_country_name><departure_city_code>TYO</departure_city_code><departure_city_name>Tokyo</departure_city_name><arrival_airport_iata>FUK</arrival_airport_iata><arrival_name_airport>Fukuoka</arrival_name_airport><arrival_coordinates_lon>130.4439</arrival_coordinates_lon><arrival_coordinates_lat>33.584286</arrival_coordinates_lat><arrival_country_code>JP</arrival_country_code><arrival_country_name>Japan</arrival_country_name><arrival_city_code>FUK</arrival_city_code><arrival_city_name>Fukuoka</arrival_city_name><planes>737</planes><plane_name>Boeing 737</plane_name></routes><routes><airline_iata>BC</airline_iata><departure_airport_iata>NRT</departure_airport_iata><departure_name_airport>Narita International Airport</departure_name_airport><departure_coordinates_lon>140.38744</departure_coordinates_lon><departure_coordinates_lat>35.773212</departure_coordinates_lat><departure_country_code>JP</departure_country_code><departure_country_name>Japan</departure_country_name><departure_city_code>TYO</departure_city_code><departure_city_name>Tokyo</departure_city_name><arrival_airport_iata>KOJ</arrival_airport_iata><arrival_name_airport>Kagoshima</arrival_name_airport><arrival_coordinates_lon>130.71562</arrival_coordinates_lon><arrival_coordinates_lat>31.801224</arrival_coordinates_lat><arrival_country_code>JP</arrival_country_code><arrival_country_name>Japan</arrival_country_name><arrival_city_code>KOJ</arrival_city_code><arrival_city_name>Kagoshima</arrival_city_name><planes>737</planes><plane_name>Boeing 737</plane_name></routes><routes><airline_iata>BC</airline_iata><departure_airport_iata>NRT</departure_airport_iata><departure_name_airport>Narita International Airport</departure_name_airport><departure_coordinates_lon>140.38744</departure_coordinates_lon><departure_coordinates_lat>35.773212</departure_coordinates_lat><departure_country_code>JP</departure_country_code><departure_country_name>Japan</departure_country_name><departure_city_code>TYO</departure_city_code><departure_city_name>Tokyo</departure_city_name><arrival_airport_iata>OKA</arrival_airport_iata><arrival_name_airport>Naha</arrival_name_airport><arrival_coordinates_lon>127.645836</arrival_coordinates_lon><arrival_coordinates_lat>26.195833</arrival_coordinates_lat><arrival_country_code>JP</arrival_country_code><arrival_country_name>Japan</arrival_country_name><arrival_city_code>OKA</arrival_city_code><arrival_city_name>Okinawa</arrival_city_name><planes>737</planes><plane_name>Boeing 737</plane_name></routes><routes><airline_iata>BC</airline_iata><departure_airport_iata>NRT</departure_airport_iata><departure_name_airport>Narita International Airport</departure_name_airport><departure_coordinates_lon>140.38744</departure_coordinates_lon><departure_coordinates_lat>35.773212</departure_coordinates_lat><departure_country_code>JP</departure_country_code><departure_country_name>Japan</departure_country_name><departure_city_code>TYO</departure_city_code><departure_city_name>Tokyo</departure_city_name><arrival_airport_iata>UKB</arrival_airport_iata><arrival_name_airport>Kobe</arrival_name_airport><arrival_coordinates_lon>135.2284</arrival_coordinates_lon><arrival_coordinates_lat>34.6373</arrival_coordinates_lat><arrival_country_code>JP</arrival_country_code><arrival_country_name>Japan</arrival_country_name><arrival_city_code>OSA</arrival_city_code><arrival_city_name>Osaka</arrival_city_name><planes>737</planes><plane_name>Boeing 737</plane_name></routes><routes><airline_iata>BC</airline_iata><departure_airport_iata>OKA</departure_airport_iata><departure_name_airport>Naha</departure_name_airport><departure_coordinates_lon>127.645836</departure_coordinates_lon><departure_coordinates_lat>26.195833</departure_coordinates_lat><departure_country_code>JP</departure_country_code><departure_country_name>Japan</departure_country_name><departure_city_code>OKA</departure_city_code><departure_city_name>Okinawa</departure_city_name><arrival_airport_iata>FUK</arrival_airport_iata><arrival_name_airport>Fukuoka</arrival_name_airport><arrival_coordinates_lon>130.4439</arrival_coordinates_lon><arrival_coordinates_lat>33.584286</arrival_coordinates_lat><arrival_country_code>JP</arrival_country_code><arrival_country_name>Japan</arrival_country_name><arrival_city_code>FUK</arrival_city_code><arrival_city_name>Fukuoka</arrival_city_name><planes>737</planes><plane_name>Boeing 737</plane_name></routes><routes><airline_iata>BC</airline_iata><departure_airport_iata>OKA</departure_airport_iata><departure_name_airport>Naha</departure_name_airport><departure_coordinates_lon>127.645836</departure_coordinates_lon><departure_coordinates_lat>26.195833</departure_coordinates_lat><departure_country_code>JP</departure_country_code><departure_country_name>Japan</departure_country_name><departure_city_code>OKA</departure_city_code><departure_city_name>Okinawa</departure_city_name><arrival_airport_iata>HND</arrival_airport_iata><arrival_name_airport>Haneda Airport</arrival_name_airport><arrival_coordinates_lon>139.78453</arrival_coordinates_lon><arrival_coordinates_lat>35.54907</arrival_coordinates_lat><arrival_country_code>JP</arrival_country_code><arrival_country_name>Japan</arrival_country_name><arrival_city_code>TYO</arrival_city_code><arrival_city_name>Tokyo</arrival_city_name><planes>737</planes><plane_name>Boeing 737</plane_name></routes><routes><airline_iata>BC</airline_iata><departure_airport_iata>OKA</departure_airport_iata><departure_name_airport>Naha</departure_name_airport><departure_coordinates_lon>127.645836</departure_coordinates_lon><departure_coordinates_lat>26.195833</departure_coordinates_lat><departure_country_code>JP</departure_country_code><departure_country_name>Japan</departure_country_name><departure_city_code>OKA</departure_city_code><departure_city_name>Okinawa</departure_city_name><arrival_airport_iata>KIX</arrival_airport_iata><arrival_name_airport>Kansai International</arrival_name_airport><arrival_coordinates_lon>135.24397</arrival_coordinates_lon><arrival_coordinates_lat>34.43533</arrival_coordinates_lat><arrival_country_code>JP</arrival_country_code><arrival_country_name>Japan</arrival_country_name><arrival_city_code>OSA</arrival_city_code><arrival_city_name>Osaka</arrival_city_name><planes>737</planes><plane_name>Boeing 737</plane_name></routes><routes><airline_iata>BC</airline_iata><departure_airport_iata>OKA</departure_airport_iata><departure_name_airport>Naha</departure_name_airport><departure_coordinates_lon>127.645836</departure_coordinates_lon><departure_coordinates_lat>26.195833</departure_coordinates_lat><departure_country_code>JP</departure_country_code><departure_country_name>Japan</departure_country_name><departure_city_code>OKA</departure_city_code><departure_city_name>Okinawa</departure_city_name><arrival_airport_iata>MMY</arrival_airport_iata><arrival_name_airport>Hirara</arrival_name_airport><arrival_coordinates_lon>125.29778</arrival_coordinates_lon><arrival_coordinates_lat>24.779198</arrival_coordinates_lat><arrival_country_code>JP</arrival_country_code><arrival_country_name>Japan</arrival_country_name><arrival_city_code>MMY</arrival_city_code><arrival_city_name>Miyako Jima</arrival_city_name><planes>737</planes><plane_name>Boeing 737</plane_name></routes><routes><airline_iata>BC</airline_iata><departure_airport_iata>OKA</departure_airport_iata><departure_name_airport>Naha</departure_name_airport><departure_coordinates_lon>127.645836</departure_coordinates_lon><departure_coordinates_lat>26.195833</departure_coordinates_lat><departure_country_code>JP</departure_country_code><departure_country_name>Japan</departure_country_name><departure_city_code>OKA</departure_city_code><departure_city_name>Okinawa</departure_city_name><arrival_airport_iata>NGO</arrival_airport_iata><arrival_name_airport>Chu-Bu Centrair International (Central Japan International)</arrival_name_airport><arrival_coordinates_lon>136.80528</arrival_coordinates_lon><arrival_coordinates_lat>34.858334</arrival_coordinates_lat><arrival_country_code>JP</arrival_country_code><arrival_country_name>Japan</arrival_country_name><arrival_city_code>NGO</arrival_city_code><arrival_city_name>Nagoya</arrival_city_name><planes>737</planes><plane_name>Boeing 737</plane_name></routes><routes><airline_iata>BC</airline_iata><departure_airport_iata>OKA</departure_airport_iata><departure_name_airport>Naha</departure_name_airport><departure_coordinates_lon>127.645836</departure_coordinates_lon><departure_coordinates_lat>26.195833</departure_coordinates_lat><departure_country_code>JP</departure_country_code><departure_country_name>Japan</departure_country_name><departure_city_code>OKA</departure_city_code><departure_city_name>Okinawa</departure_city_name><arrival_airport_iata>NRT</arrival_airport_iata><arrival_name_airport>Narita International Airport</arrival_name_airport><arrival_coordinates_lon>140.38744</arrival_coordinates_lon><arrival_coordinates_lat>35.773212</arrival_coordinates_lat><arrival_country_code>JP</arrival_country_code><arrival_country_name>Japan</arrival_country_name><arrival_city_code>TYO</arrival_city_code><arrival_city_name>Tokyo</arrival_city_name><planes>737</planes><plane_name>Boeing 737</plane_name></routes><routes><airline_iata>BC</airline_iata><departure_airport_iata>OKA</departure_airport_iata><departure_name_airport>Naha</departure_name_airport><departure_coordinates_lon>127.645836</departure_coordinates_lon><departure_coordinates_lat>26.195833</departure_coordinates_lat><departure_country_code>JP</departure_country_code><departure_country_name>Japan</departure_country_name><departure_city_code>OKA</departure_city_code><departure_city_name>Okinawa</departure_city_name><arrival_airport_iata>UKB</arrival_airport_iata><arrival_name_airport>Kobe</arrival_name_airport><arrival_coordinates_lon>135.2284</arrival_coordinates_lon><arrival_coordinates_lat>34.6373</arrival_coordinates_lat><arrival_country_code>JP</arrival_country_code><arrival_country_name>Japan</arrival_country_name><arrival_city_code>OSA</arrival_city_code><arrival_city_name>Osaka</arrival_city_name><planes>737</planes><plane_name>Boeing 737</plane_name></routes><routes><airline_iata>BC</airline_iata><departure_airport_iata>UKB</departure_airport_iata><departure_name_airport>Kobe</departure_name_airport><departure_coordinates_lon>135.2284</departure_coordinates_lon><departure_coordinates_lat>34.6373</departure_coordinates_lat><departure_country_code>JP</departure_country_code><departure_country_name>Japan</departure_country_name><departure_city_code>OSA</departure_city_code><departure_city_name>Osaka</departure_city_name><arrival_airport_iata>CTS</arrival_airport_iata><arrival_name_airport>Chitose</arrival_name_airport><arrival_coordinates_lon>141.68134</arrival_coordinates_lon><arrival_coordinates_lat>42.78728</arrival_coordinates_lat><arrival_country_code>JP</arrival_country_code><arrival_country_name>Japan</arrival_country_name><arrival_city_code>SPK</arrival_city_code><arrival_city_name>Sapporo</arrival_city_name><planes>737</planes><plane_name>Boeing 737</plane_name></routes><routes><airline_iata>BC</airline_iata><departure_airport_iata>UKB</departure_airport_iata><departure_name_airport>Kobe</departure_name_airport><departure_coordinates_lon>135.2284</departure_coordinates_lon><departure_coordinates_lat>34.6373</departure_coordinates_lat><departure_country_code>JP</departure_country_code><departure_country_name>Japan</departure_country_name><departure_city_code>OSA</departure_city_code><departure_city_name>Osaka</departure_city_name><arrival_airport_iata>HND</arrival_airport_iata><arrival_name_airport>Haneda Airport</arrival_name_airport><arrival_coordinates_lon>139.78453</arrival_coordinates_lon><arrival_coordinates_lat>35.54907</arrival_coordinates_lat><arrival_country_code>JP</arrival_country_code><arrival_country_name>Japan</arrival_country_name><arrival_city_code>TYO</arrival_city_code><arrival_city_name>Tokyo</arrival_city_name><planes>737</planes><plane_name>Boeing 737</plane_name></routes><routes><airline_iata>BC</airline_iata><departure_airport_iata>UKB</departure_airport_iata><departure_name_airport>Kobe</departure_name_airport><departure_coordinates_lon>135.2284</departure_coordinates_lon><departure_coordinates_lat>34.6373</departure_coordinates_lat><departure_country_code>JP</departure_country_code><departure_country_name>Japan</departure_country_name><departure_city_code>OSA</departure_city_code><departure_city_name>Osaka</departure_city_name><arrival_airport_iata>IBR</arrival_airport_iata><arrival_name_airport>Ibaraki</arrival_name_airport><arrival_coordinates_lon>140.41472</arrival_coordinates_lon><arrival_coordinates_lat>36.181667</arrival_coordinates_lat><arrival_country_code>JP</arrival_country_code><arrival_country_name>Japan</arrival_country_name><arrival_city_code>IBR</arrival_city_code><arrival_city_name>Ibaraki</arrival_city_name><planes>737</planes><plane_name>Boeing 737</plane_name></routes><routes><airline_iata>BC</airline_iata><departure_airport_iata>UKB</departure_airport_iata><departure_name_airport>Kobe</departure_name_airport><departure_coordinates_lon>135.2284</departure_coordinates_lon><departure_coordinates_lat>34.6373</departure_coordinates_lat><departure_country_code>JP</departure_country_code><departure_country_name>Japan</departure_country_name><departure_city_code>OSA</departure_city_code><departure_city_name>Osaka</departure_city_name><arrival_airport_iata>KOJ</arrival_airport_iata><arrival_name_airport>Kagoshima</arrival_name_airport><arrival_coordinates_lon>130.71562</arrival_coordinates_lon><arrival_coordinates_lat>31.801224</arrival_coordinates_lat><arrival_country_code>JP</arrival_country_code><arrival_country_name>Japan</arrival_country_name><arrival_city_code>KOJ</arrival_city_code><arrival_city_name>Kagoshima</arrival_city_name><planes>737</planes><plane_name>Boeing 737</plane_na