<?xml version="1.0" encoding="utf-8"?>
<route><routes><airline_iata>UA</airline_iata><departure_airport_iata>HNL</departure_airport_iata><departure_name_airport>Honolulu International</departure_name_airport><departure_coordinates_lon>-157.92166</departure_coordinates_lon><departure_coordinates_lat>21.325832</departure_coordinates_lat><departure_country_code>US</departure_country_code><departure_country_name>United States</departure_country_name><departure_city_code>HNL</departure_city_code><departure_city_name>Honolulu</departure_city_name><arrival_airport_iata>MAJ</arrival_airport_iata><arrival_name_airport>Amata Kabua International</arrival_name_airport><arrival_coordinates_lon>171.2825</arrival_coordinates_lon><arrival_coordinates_lat>7.068717</arrival_coordinates_lat><arrival_country_code>MH</arrival_country_code><arrival_country_name>Marshall Islands</arrival_country_name><arrival_city_code>MAJ</arrival_city_code><arrival_city_name>Majuro</arrival_city_name><planes>738</planes><plane_name>Boeing 737-800</plane_name></routes><routes><airline_iata>UA</airline_iata><departure_airport_iata>KSA</departure_airport_iata><departure_name_airport>Kosrae</departure_name_airport><departure_coordinates_lon>162.9566</departure_coordinates_lon><departure_coordinates_lat>5.352478</departure_coordinates_lat><departure_country_code>FM</departure_country_code><departure_country_name>Micronesia</departure_country_name><departure_city_code>KSA</departure_city_code><departure_city_name>Kosrae</departure_city_name><arrival_airport_iata>KWA</arrival_airport_iata><arrival_name_airport>Kwajalein</arrival_name_airport><arrival_coordinates_lon>167.72195</arrival_coordinates_lon><arrival_coordinates_lat>8.720843</arrival_coordinates_lat><arrival_country_code>MH</arrival_country_code><arrival_country_name>Marshall Islands</arrival_country_name><arrival_city_code>KWA</arrival_city_code><arrival_city_name>Kwajalein</arrival_city_name><planes>738</planes><plane_name>Boeing 737-800</plane_name></routes><routes><airline_iata>UA</airline_iata><departure_airport_iata>KWA</departure_airport_iata><departure_name_airport>Kwajalein</departure_name_airport><departure_coordinates_lon>167.72195</departure_coordinates_lon><departure_coordinates_lat>8.720843</departure_coordinates_lat><departure_country_code>MH</departure_country_code><departure_country_name>Marshall Islands</departure_country_name><departure_city_code>KWA</departure_city_code><departure_city_name>Kwajalein</departure_city_name><arrival_airport_iata>MAJ</arrival_airport_iata><arrival_name_airport>Amata Kabua International</arrival_name_airport><arrival_coordinates_lon>171.2825</arrival_coordinates_lon><arrival_coordinates_lat>7.068717</arrival_coordinates_lat><arrival_country_code>MH</arrival_country_code><arrival_country_name>Marshall Islands</arrival_country_name><arrival_city_code>MAJ</arrival_city_code><arrival_city_name>Majuro</arrival_city_name><planes>738</planes><plane_name>Boeing 737-800</plane_name></routes><routes><airline_iata>UA</airline_iata><departure_airport_iata>MAJ</departure_airport_iata><departure_name_airport>Amata Kabua International</departure_name_airport><departure_coordinates_lon>171.2825</departure_coordinates_lon><departure_coordinates_lat>7.068717</departure_coordinates_lat><departure_country_code>MH</departure_country_code><departure_country_name>Marshall Islands</departure_country_name><departure_city_code>MAJ</departure_city_code><departure_city_name>Majuro</departure_city_name><arrival_airport_iata>KWA</arrival_airport_iata><arrival_name_airport>Kwajalein</arrival_name_airport><arrival_coordinates_lon>167.72195</arrival_coordinates_lon><arrival_coordinates_lat>8.720843</arrival_coordinates_lat><arrival_country_code>MH</arrival_country_code><arrival_country_name>Marshall Islands</arrival_country_name><arrival_city_code>KWA</arrival_city_code><arrival_city_name>Kwajalein</arrival_city_name><planes>738</planes><plane_name>Boeing 737-800</plane_name></routes><routes><airline_iata>UA</airline_iata><departure_airport_iata>PNI</departure_airport_iata><departure_name_airport>Pohnpei</departure_name_airport><departure_coordinates_lon>158.20334</departure_coordinates_lon><departure_coordinates_lat>6.980947</departure_coordinates_lat><departure_country_code>FM</departure_country_code><departure_country_name>Micronesia</departure_country_name><departure_city_code>PNI</departure_city_code><departure_city_name>Pohnpei</departure_city_name><arrival_airport_iata>KWA</arrival_airport_iata><arrival_name_airport>Kwajalein</arrival_name_airport><arrival_coordinates_lon>167.72195</arrival_coordinates_lon><arrival_coordinates_lat>8.720843</arrival_coordinates_lat><arrival_country_code>MH</arrival_country_code><arrival_country_name>Marshall Islands</arrival_country_name><arrival_city_code>KWA</arrival_city_code><arrival_city_name>Kwajalein</arrival_city_name><planes>738</planes><plane_name>Boeing 737-800</plane_name></routes></route>
