<?xml version="1.0" encoding="utf-8"?>
<route><routes><airline_iata>AF</airline_iata><departure_airport_iata>CDG</departure_airport_iata><departure_name_airport>Charles De Gaulle</departure_name_airport><departure_coordinates_lon>2.567023</departure_coordinates_lon><departure_coordinates_lat>49.003197</departure_coordinates_lat><departure_country_code>FR</departure_country_code><departure_country_name>France</departure_country_name><departure_city_code>PAR</departure_city_code><departure_city_name>Paris</departure_city_name><arrival_airport_iata>NKC</arrival_airport_iata><arrival_name_airport>Nouakchott</arrival_name_airport><arrival_coordinates_lon>-15.952041</arrival_coordinates_lon><arrival_coordinates_lat>18.098148</arrival_coordinates_lat><arrival_country_code>MR</arrival_country_code><arrival_country_name>Mauritania</arrival_country_name><arrival_city_code>NKC</arrival_city_code><arrival_city_name>Nouakchott</arrival_city_name><planes>332</planes><plane_name>Airbus Industrie A330-200</plane_name></routes><routes><airline_iata>AF</airline_iata><departure_airport_iata>CKY</departure_airport_iata><departure_name_airport>Conakry</departure_name_airport><departure_coordinates_lon>-13.62017</departure_coordinates_lon><departure_coordinates_lat>9.575655</departure_coordinates_lat><departure_country_code>GN</departure_country_code><departure_country_name>Guinea</departure_country_name><departure_city_code>CKY</departure_city_code><departure_city_name>Conakry</departure_city_name><arrival_airport_iata>NKC</arrival_airport_iata><arrival_name_airport>Nouakchott</arrival_name_airport><arrival_coordinates_lon>-15.952041</arrival_coordinates_lon><arrival_coordinates_lat>18.098148</arrival_coordinates_lat><arrival_country_code>MR</arrival_country_code><arrival_country_name>Mauritania</arrival_country_name><arrival_city_code>NKC</arrival_city_code><arrival_city_name>Nouakchott</arrival_city_name><planes>332</planes><plane_name>Airbus Industrie A330-200</plane_name></routes><routes><airline_iata>AH</airline_iata><departure_airport_iata>ALG</departure_airport_iata><departure_name_airport>Houari Boumediene</departure_name_airport><departure_coordinates_lon>3.21167</departure_coordinates_lon><departure_coordinates_lat>36.70058</departure_coordinates_lat><departure_country_code>DZ</departure_country_code><departure_country_name>Algeria</departure_country_name><departure_city_code>ALG</departure_city_code><departure_city_name>Algiers</departure_city_name><arrival_airport_iata>NKC</arrival_airport_iata><arrival_name_airport>Nouakchott</arrival_name_airport><arrival_coordinates_lon>-15.952041</arrival_coordinates_lon><arrival_coordinates_lat>18.098148</arrival_coordinates_lat><arrival_country_code>MR</arrival_country_code><arrival_country_name>Mauritania</arrival_country_name><arrival_city_code>NKC</arrival_city_code><arrival_city_name>Nouakchott</arrival_city_name><planes>736</planes><plane_name>Boeing 737-600</plane_name></routes><routes><airline_iata>AT</airline_iata><departure_airport_iata>CMN</departure_airport_iata><departure_name_airport>Mohamed V</departure_name_airport><departure_coordinates_lon>-7.586667</departure_coordinates_lon><departure_coordinates_lat>33.36667</departure_coordinates_lat><departure_country_code>MA</departure_country_code><departure_country_name>Morocco</departure_country_name><departure_city_code>CAS</departure_city_code><departure_city_name>Casablanca</departure_city_name><arrival_airport_iata>NKC</arrival_airport_iata><arrival_name_airport>Nouakchott</arrival_name_airport><arrival_coordinates_lon>-15.952041</arrival_coordinates_lon><arrival_coordinates_lat>18.098148</arrival_coordinates_lat><arrival_country_code>MR</arrival_country_code><arrival_country_name>Mauritania</arrival_country_name><arrival_city_code>NKC</arrival_city_code><arrival_city_name>Nouakchott</arrival_city_name><planes>738</planes><plane_name>Boeing 737-800</plane_name></routes><routes><airline_iata>DN</airline_iata><departure_airport_iata>DKR</departure_airport_iata><departure_name_airport>Dakar-Yoff-Léopold Sédar Senghor International</departure_name_airport><departure_coordinates_lon>-17.490194</departure_coordinates_lon><departure_coordinates_lat>14.744975</departure_coordinates_lat><departure_country_code>SN</departure_country_code><departure_country_name>Senegal</departure_country_name><departure_city_code>DKR</departure_city_code><departure_city_name>Dakar</departure_city_name><arrival_airport_iata>NKC</arrival_airport_iata><arrival_name_airport>Nouakchott</arrival_name_airport><arrival_coordinates_lon>-15.952041</arrival_coordinates_lon><arrival_coordinates_lat>18.098148</arrival_coordinates_lat><arrival_country_code>MR</arrival_country_code><arrival_country_name>Mauritania</arrival_country_name><arrival_city_code>NKC</arrival_city_code><arrival_city_name>Nouakchott</arrival_city_name><planes>AT7</planes><plane_name>Aerospatiale/Alenia ATR 72</plane_name></routes><routes><airline_iata>I5</airline_iata><departure_airport_iata>BKO</departure_airport_iata><departure_name_airport>Bamako</departure_name_airport><departure_coordinates_lon>-7.947951</departure_coordinates_lon><departure_coordinates_lat>12.540926</departure_coordinates_lat><departure_country_code>ML</departure_country_code><departure_country_name>Mali</departure_country_name><departure_city_code>BKO</departure_city_code><departure_city_name>Bamako</departure_city_name><arrival_airport_iata>NKC</arrival_airport_iata><arrival_name_airport>Nouakchott</arrival_name_airport><arrival_coordinates_lon>-15.952041</arrival_coordinates_lon><arrival_coordinates_lat>18.098148</arrival_coordinates_lat><arrival_country_code>MR</arrival_country_code><arrival_country_name>Mauritania</arrival_country_name><arrival_city_code>NKC</arrival_city_code><arrival_city_name>Nouakchott</arrival_city_name><planes>CRJ</planes><plane_name>Canadair Regional Jet</plane_name></routes><routes><airline_iata>IB</airline_iata><departure_airport_iata>LPA</departure_airport_iata><departure_name_airport>Gran Canaria</departure_name_airport><departure_coordinates_lon>-15.389351</departure_coordinates_lon><departure_coordinates_lat>27.938944</departure_coordinates_lat><departure_country_code>ES</departure_country_code><departure_country_name>Spain</departure_country_name><departure_city_code>LPA</departure_city_code><departure_city_name>Las Palmas</departure_city_name><arrival_airport_iata>NKC</arrival_airport_iata><arrival_name_airport>Nouakchott</arrival_name_airport><arrival_coordinates_lon>-15.952041</arrival_coordinates_lon><arrival_coordinates_lat>18.098148</arrival_coordinates_lat><arrival_country_code>MR</arrival_country_code><arrival_country_name>Mauritania</arrival_country_name><arrival_city_code>NKC</arrival_city_code><arrival_city_name>Nouakchott</arrival_city_name><planes>321</planes><plane_name>Airbus Industrie A321</plane_name></routes><routes><airline_iata>L6</airline_iata><departure_airport_iata>BKO</departure_airport_iata><departure_name_airport>Bamako</departure_name_airport><departure_coordinates_lon>-7.947951</departure_coordinates_lon><departure_coordinates_lat>12.540926</departure_coordinates_lat><departure_country_code>ML</departure_country_code><departure_country_name>Mali</departure_country_name><departure_city_code>BKO</departure_city_code><departure_city_name>Bamako</departure_city_name><arrival_airport_iata>NKC</arrival_airport_iata><arrival_name_airport>Nouakchott</arrival_name_airport><arrival_coordinates_lon>-15.952041</arrival_coordinates_lon><arrival_coordinates_lat>18.098148</arrival_coordinates_lat><arrival_country_code>MR</arrival_country_code><arrival_country_name>Mauritania</arrival_country_name><arrival_city_code>NKC</arrival_city_code><arrival_city_name>Nouakchott</arrival_city_name><planes>73G</planes><plane_name>Boeing 737-700</plane_name></routes><routes><airline_iata>L6</airline_iata><departure_airport_iata>CMN</departure_airport_iata><departure_name_airport>Mohamed V</departure_name_airport><departure_coordinates_lon>-7.586667</departure_coordinates_lon><departure_coordinates_lat>33.36667</departure_coordinates_lat><departure_country_code>MA</departure_country_code><departure_country_name>Morocco</departure_country_name><departure_city_code>CAS</departure_city_code><departure_city_name>Casablanca</departure_city_name><arrival_airport_iata>NDB</arrival_airport_iata><arrival_name_airport>Nouadhibou</arrival_name_airport><arrival_coordinates_lon>-17.028334</arrival_coordinates_lon><arrival_coordinates_lat>20.934168</arrival_coordinates_lat><arrival_country_code>MR</arrival_country_code><arrival_country_name>Mauritania</arrival_country_name><arrival_city_code>NDB</arrival_city_code><arrival_city_name>Nouadhibou</arrival_city_name><planes>73G</planes><plane_name>Boeing 737-700</plane_name></routes><routes><airline_iata>L6</airline_iata><departure_airport_iata>CMN</departure_airport_iata><departure_name_airport>Mohamed V</departure_name_airport><departure_coordinates_lon>-7.586667</departure_coordinates_lon><departure_coordinates_lat>33.36667</departure_coordinates_lat><departure_country_code>MA</departure_country_code><departure_country_name>Morocco</departure_country_name><departure_city_code>CAS</departure_city_code><departure_city_name>Casablanca</departure_city_name><arrival_airport_iata>NKC</arrival_airport_iata><arrival_name_airport>Nouakchott</arrival_name_airport><arrival_coordinates_lon>-15.952041</arrival_coordinates_lon><arrival_coordinates_lat>18.098148</arrival_coordinates_lat><arrival_country_code>MR</arrival_country_code><arrival_country_name>Mauritania</arrival_country_name><arrival_city_code>NKC</arrival_city_code><arrival_city_name>Nouakchott</arrival_city_name><planes>73G</planes><plane_name>Boeing 737-700</plane_name></routes><routes><airline_iata>L6</airline_iata><departure_airport_iata>DKR</departure_airport_iata><departure_name_airport>Dakar-Yoff-Léopold Sédar Senghor International</departure_name_airport><departure_coordinates_lon>-17.490194</departure_coordinates_lon><departure_coordinates_lat>14.744975</departure_coordinates_lat><departure_country_code>SN</departure_country_code><departure_country_name>Senegal</departure_country_name><departure_city_code>DKR</departure_city_code><departure_city_name>Dakar</departure_city_name><arrival_airport_iata>NKC</arrival_airport_iata><arrival_name_airport>Nouakchott</arrival_name_airport><arrival_coordinates_lon>-15.952041</arrival_coordinates_lon><arrival_coordinates_lat>18.098148</arrival_coordinates_lat><arrival_country_code>MR</arrival_country_code><arrival_country_name>Mauritania</arrival_country_name><arrival_city_code>NKC</arrival_city_code><arrival_city_name>Nouakchott</arrival_city_name><planes>73G</planes><plane_name>Boeing 737-700</plane_name></routes><routes><airline_iata>L6</airline_iata><departure_airport_iata>NDB</departure_airport_iata><departure_name_airport>Nouadhibou</departure_name_airport><departure_coordinates_lon>-17.028334</departure_coordinates_lon><departure_coordinates_lat>20.934168</departure_coordinates_lat><departure_country_code>MR</departure_country_code><departure_country_name>Mauritania</departure_country_name><departure_city_code>NDB</departure_city_code><departure_city_name>Nouadhibou</departure_city_name><arrival_airport_iata>NKC</arrival_airport_iata><arrival_name_airport>Nouakchott</arrival_name_airport><arrival_coordinates_lon>-15.952041</arrival_coordinates_lon><arrival_coordinates_lat>18.098148</arrival_coordinates_lat><arrival_country_code>MR</arrival_country_code><arrival_country_name>Mauritania</arrival_country_name><arrival_city_code>NKC</arrival_city_code><arrival_city_name>Nouakchott</arrival_city_name><planes>735</planes><plane_name>Boeing 737-500</plane_name></routes><routes><airline_iata>L6</airline_iata><departure_airport_iata>NDB</departure_airport_iata><departure_name_airport>Nouadhibou</departure_name_airport><departure_coordinates_lon>-17.028334</departure_coordinates_lon><departure_coordinates_lat>20.934168</departure_coordinates_lat><departure_country_code>MR</departure_country_code><departure_country_name>Mauritania</departure_country_name><departure_city_code>NDB</departure_city_code><departure_city_name>Nouadhibou</departure_city_name><arrival_airport_iata>OUZ</arrival_airport_iata><arrival_name_airport>Zouerate</arrival_name_airport><arrival_coordinates_lon>-12.35</arrival_coordinates_lon><arrival_coordinates_lat>22.733334</arrival_coordinates_lat><arrival_country_code>MR</arrival_country_code><arrival_country_name>Mauritania</arrival_country_name><arrival_city_code>OUZ</arrival_city_code><arrival_city_name>Zouerate</arrival_city_name><planes>735</planes><plane_name>Boeing 737-500</plane_name></routes><routes><airline_iata>L6</airline_iata><departure_airport_iata>NKC</departure_airport_iata><departure_name_airport>Nouakchott</departure_name_airport><departure_coordinates_lon>-15.952041</departure_coordinates_lon><departure_coordinates_lat>18.098148</departure_coordinates_lat><departure_country_code>MR</departure_country_code><departure_country_name>Mauritania</departure_country_name><departure_city_code>NKC</departure_city_code><departure_city_name>Nouakchott</departure_city_name><arrival_airport_iata>NDB</arrival_airport_iata><arrival_name_airport>Nouadhibou</arrival_name_airport><arrival_coordinates_lon>-17.028334</arrival_coordinates_lon><arrival_coordinates_lat>20.934168</arrival_coordinates_lat><arrival_country_code>MR</arrival_country_code><arrival_country_name>Mauritania</arrival_country_name><arrival_city_code>NDB</arrival_city_code><arrival_city_name>Nouadhibou</arrival_city_name><planes>735</planes><plane_name>Boeing 737-500</plane_name></routes><routes><airline_iata>L6</airline_iata><departure_airport_iata>OUZ</departure_airport_iata><departure_name_airport>Zouerate</departure_name_airport><departure_coordinates_lon>-12.35</departure_coordinates_lon><departure_coordinates_lat>22.733334</departure_coordinates_lat><departure_country_code>MR</departure_country_code><departure_country_name>Mauritania</departure_country_name><departure_city_code>OUZ</departure_city_code><departure_city_name>Zouerate</departure_city_name><arrival_airport_iata>NDB</arrival_airport_iata><arrival_name_airport>Nouadhibou</arrival_name_airport><arrival_coordinates_lon>-17.028334</arrival_coordinates_lon><arrival_coordinates_lat>20.934168</arrival_coordinates_lat><arrival_country_code>MR</arrival_country_code><arrival_country_name>Mauritania</arrival_country_name><arrival_city_code>NDB</arrival_city_code><arrival_city_name>Nouadhibou</arrival_city_name><planes>735</planes><plane_name>Boeing 737-500</plane_name></routes><routes><airline_iata>TK</airline_iata><departure_airport_iata>IST</departure_airport_iata><departure_name_airport>Ataturk</departure_name_airport><departure_coordinates_lon>28.815277</departure_coordinates_lon><departure_coordinates_lat>40.976665</departure_coordinates_lat><departure_country_code>TR</departure_country_code><departure_country_name>Turkey</departure_country_name><departure_city_code>IST</departure_city_code><departure_city_name>Istanbul</departure_city_name><arrival_airport_iata>NKC</arrival_airport_iata><arrival_name_airport>Nouakchott</arrival_name_airport><arrival_coordinates_lon>-15.952041</arrival_coordinates_lon><arrival_coordinates_lat>18.098148</arrival_coordinates_lat><arrival_country_code>MR</arrival_country_code><arrival_country_name>Mauritania</arrival_country_name><arrival_city_code>NKC</arrival_city_code><arrival_city_name>Nouakchott</arrival_city_name><planes>739</planes><plane_name>Boeing 737-900</plane_name></routes><routes><airline_iata>TU</airline_iata><departure_airport_iata>TUN</departure_airport_iata><departure_name_airport>Carthage</departure_name_airport><departure_coordinates_lon>10.21709</departure_coordinates_lon><departure_coordinates_lat>36.847622</departure_coordinates_lat><departure_country_code>TN</departure_country_code><departure_country_name>Tunisia</departure_country_name><departure_city_code>TUN</departure_city_code><departure_city_name>Tunis</departure_city_name><arrival_airport_iata>NKC</arrival_airport_iata><arrival_name_airport>Nouakchott</arrival_name_airport><arrival_coordinates_lon>-15.952041</arrival_coordinates_lon><arrival_coordinates_lat>18.098148</arrival_coordinates_lat><arrival_country_code>MR</arrival_country_code><arrival_country_name>Mauritania</arrival_country_name><arrival_city_code>NKC</arrival_city_code><arrival_city_name>Nouakchott</arrival_city_name><planes>320</planes><plane_name>Airbus Industrie A320</plane_name></routes></route>
