<?xml version="1.0" encoding="utf-8"?>
<route><routes><airline_iata>4U</airline_iata><departure_airport_iata>STR</departure_airport_iata><departure_name_airport>Stuttgart Echterdingen</departure_name_airport><departure_coordinates_lon>9.193624</departure_coordinates_lon><departure_coordinates_lat>48.69073</departure_coordinates_lat><departure_country_code>DE</departure_country_code><departure_country_name>Germany</departure_country_name><departure_city_code>STR</departure_city_code><departure_city_name>Stuttgart</departure_city_name><arrival_airport_iata>KRK</arrival_airport_iata><arrival_name_airport>John Paul II Balice International</arrival_name_airport><arrival_coordinates_lon>19.793743</arrival_coordinates_lon><arrival_coordinates_lat>50.075493</arrival_coordinates_lat><arrival_country_code>PL</arrival_country_code><arrival_country_name>Poland</arrival_country_name><arrival_city_code>KRK</arrival_city_code><arrival_city_name>Krakow</arrival_city_name><planes>319</planes><plane_name>Airbus Industrie A319</plane_name></routes><routes><airline_iata>AA</airline_iata><departure_airport_iata>LHR</departure_airport_iata><departure_name_airport>Heathrow</departure_name_airport><departure_coordinates_lon>-0.453566</departure_coordinates_lon><departure_coordinates_lat>51.469604</departure_coordinates_lat><departure_country_code>GB</departure_country_code><departure_country_name>United Kingdom</departure_country_name><departure_city_code>LON</departure_city_code><departure_city_name>London</departure_city_name><arrival_airport_iata>WAW</arrival_airport_iata><arrival_name_airport>Frederic Chopin</arrival_name_airport><arrival_coordinates_lon>20.97329</arrival_coordinates_lon><arrival_coordinates_lat>52.170906</arrival_coordinates_lat><arrival_country_code>PL</arrival_country_code><arrival_country_name>Poland</arrival_country_name><arrival_city_code>WAW</arrival_city_code><arrival_city_name>Warsaw</arrival_city_name><planes>320</planes><plane_name>Airbus Industrie A320</plane_name></routes><routes><airline_iata>AB</airline_iata><departure_airport_iata>TXL</departure_airport_iata><departure_name_airport>Berlin-tegel / Otto Lilienthal</departure_name_airport><departure_coordinates_lon>13.291722</departure_coordinates_lon><departure_coordinates_lat>52.553944</departure_coordinates_lat><departure_country_code>DE</departure_country_code><departure_country_name>Germany</departure_country_name><departure_city_code>BER</departure_city_code><departure_city_name>Berlin</departure_city_name><arrival_airport_iata>GDN</arrival_airport_iata><arrival_name_airport>Lech Walesa</arrival_name_airport><arrival_coordinates_lon>18.468655</arrival_coordinates_lon><arrival_coordinates_lat>54.380978</arrival_coordinates_lat><arrival_country_code>PL</arrival_country_code><arrival_country_name>Poland</arrival_country_name><arrival_city_code>GDN</arrival_city_code><arrival_city_name>Gdansk</arrival_city_name><planes>DH4</planes><plane_name>De Havilland Canada DHC-8-400 Dash 8/8Q</plane_name></routes><routes><airline_iata>AB</airline_iata><departure_airport_iata>TXL</departure_airport_iata><departure_name_airport>Berlin-tegel / Otto Lilienthal</departure_name_airport><departure_coordinates_lon>13.291722</departure_coordinates_lon><departure_coordinates_lat>52.553944</departure_coordinates_lat><departure_country_code>DE</departure_country_code><departure_country_name>Germany</departure_country_name><departure_city_code>BER</departure_city_code><departure_city_name>Berlin</departure_city_name><arrival_airport_iata>KRK</arrival_airport_iata><arrival_name_airport>John Paul II Balice International</arrival_name_airport><arrival_coordinates_lon>19.793743</arrival_coordinates_lon><arrival_coordinates_lat>50.075493</arrival_coordinates_lat><arrival_country_code>PL</arrival_country_code><arrival_country_name>Poland</arrival_country_name><arrival_city_code>KRK</arrival_city_code><arrival_city_name>Krakow</arrival_city_name><planes>DH4</planes><plane_name>De Havilland Canada DHC-8-400 Dash 8/8Q</plane_name></routes><routes><airline_iata>AC</airline_iata><departure_airport_iata>CPH</departure_airport_iata><departure_name_airport>Kastrup</departure_name_airport><departure_coordinates_lon>12.647601</departure_coordinates_lon><departure_coordinates_lat>55.62905</departure_coordinates_lat><departure_country_code>DK</departure_country_code><departure_country_name>Denmark</departure_country_name><departure_city_code>CPH</departure_city_code><departure_city_name>Copenhagen</departure_city_name><arrival_airport_iata>GDN</arrival_airport_iata><arrival_name_airport>Lech Walesa</arrival_name_airport><arrival_coordinates_lon>18.468655</arrival_coordinates_lon><arrival_coordinates_lat>54.380978</arrival_coordinates_lat><arrival_country_code>PL</arrival_country_code><arrival_country_name>Poland</arrival_country_name><arrival_city_code>GDN</arrival_city_code><arrival_city_name>Gdansk</arrival_city_name><planes>M80</planes><plane_name>Boeing/McDonnell Douglas MD-80</plane_name></routes><routes><airline_iata>AC</airline_iata><departure_airport_iata>CPH</departure_airport_iata><departure_name_airport>Kastrup</departure_name_airport><departure_coordinates_lon>12.647601</departure_coordinates_lon><departure_coordinates_lat>55.62905</departure_coordinates_lat><departure_country_code>DK</departure_country_code><departure_country_name>Denmark</departure_country_name><departure_city_code>CPH</departure_city_code><departure_city_name>Copenhagen</departure_city_name><arrival_airport_iata>WAW</arrival_airport_iata><arrival_name_airport>Frederic Chopin</arrival_name_airport><arrival_coordinates_lon>20.97329</arrival_coordinates_lon><arrival_coordinates_lat>52.170906</arrival_coordinates_lat><arrival_country_code>PL</arrival_country_code><arrival_country_name>Poland</arrival_country_name><arrival_city_code>WAW</arrival_city_code><arrival_city_name>Warsaw</arrival_city_name><planes>M80</planes><plane_name>Boeing/McDonnell Douglas MD-80</plane_name></routes><routes><airline_iata>AC</airline_iata><departure_airport_iata>YYZ</departure_airport_iata><departure_name_airport>Lester B. Pearson International</departure_name_airport><departure_coordinates_lon>-79.61146</departure_coordinates_lon><departure_coordinates_lat>43.681583</departure_coordinates_lat><departure_country_code>CA</departure_country_code><departure_country_name>Canada</departure_country_name><departure_city_code>YTO</departure_city_code><departure_city_name>Toronto</departure_city_name><arrival_airport_iata>WAW</arrival_airport_iata><arrival_name_airport>Frederic Chopin</arrival_name_airport><arrival_coordinates_lon>20.97329</arrival_coordinates_lon><arrival_coordinates_lat>52.170906</arrival_coordinates_lat><arrival_country_code>PL</arrival_country_code><arrival_country_name>Poland</arrival_country_name><arrival_city_code>WAW</arrival_city_code><arrival_city_name>Warsaw</arrival_city_name><planes>763</planes><plane_name>Boeing 767-300</plane_name></routes><routes><airline_iata>AC</airline_iata><departure_airport_iata>YYZ</departure_airport_iata><departure_name_airport>Lester B. Pearson International</departure_name_airport><departure_coordinates_lon>-79.61146</departure_coordinates_lon><departure_coordinates_lat>43.681583</departure_coordinates_lat><departure_country_code>CA</departure_country_code><departure_country_name>Canada</departure_country_name><departure_city_code>YTO</departure_city_code><departure_city_name>Toronto</departure_city_name><arrival_airport_iata>WAW</arrival_airport_iata><arrival_name_airport>Frederic Chopin</arrival_name_airport><arrival_coordinates_lon>20.97329</arrival_coordinates_lon><arrival_coordinates_lat>52.170906</arrival_coordinates_lat><arrival_country_code>PL</arrival_country_code><arrival_country_name>Poland</arrival_country_name><arrival_city_code>WAW</arrival_city_code><arrival_city_name>Warsaw</arrival_city_name><planes>763</planes><plane_name>Boeing 767-300</plane_name></routes><routes><airline_iata>AF</airline_iata><departure_airport_iata>CDG</departure_airport_iata><departure_name_airport>Charles De Gaulle</departure_name_airport><departure_coordinates_lon>2.567023</departure_coordinates_lon><departure_coordinates_lat>49.003197</departure_coordinates_lat><departure_country_code>FR</departure_country_code><departure_country_name>France</departure_country_name><departure_city_code>PAR</departure_city_code><departure_city_name>Paris</departure_city_name><arrival_airport_iata>WAW</arrival_airport_iata><arrival_name_airport>Frederic Chopin</arrival_name_airport><arrival_coordinates_lon>20.97329</arrival_coordinates_lon><arrival_coordinates_lat>52.170906</arrival_coordinates_lat><arrival_country_code>PL</arrival_country_code><arrival_country_name>Poland</arrival_country_name><arrival_city_code>WAW</arrival_city_code><arrival_city_name>Warsaw</arrival_city_name><planes>320</planes><plane_name>Airbus Industrie A320</plane_name></routes><routes><airline_iata>AP</airline_iata><departure_airport_iata>MXP</departure_airport_iata><departure_name_airport>Milano Malpensa</departure_name_airport><departure_coordinates_lon>8.71237</departure_coordinates_lon><departure_coordinates_lat>45.627403</departure_coordinates_lat><departure_country_code>IT</departure_country_code><departure_country_name>Italy</departure_country_name><departure_city_code>MIL</departure_city_code><departure_city_name>Milan</departure_city_name><arrival_airport_iata>WAW</arrival_airport_iata><arrival_name_airport>Frederic Chopin</arrival_name_airport><arrival_coordinates_lon>20.97329</arrival_coordinates_lon><arrival_coordinates_lat>52.170906</arrival_coordinates_lat><arrival_country_code>PL</arrival_country_code><arrival_country_name>Poland</arrival_country_name><arrival_city_code>WAW</arrival_city_code><arrival_city_name>Warsaw</arrival_city_name><planes>320</planes><plane_name>Airbus Industrie A320</plane_name></routes><routes><airline_iata>AP</airline_iata><departure_airport_iata>VCE</departure_airport_iata><departure_name_airport>Marco Polo</departure_name_airport><departure_coordinates_lon>12.337947</departure_coordinates_lon><departure_coordinates_lat>45.502285</departure_coordinates_lat><departure_country_code>IT</departure_country_code><departure_country_name>Italy</departure_country_name><departure_city_code>VCE</departure_city_code><departure_city_name>Venice</departure_city_name><arrival_airport_iata>WAW</arrival_airport_iata><arrival_name_airport>Frederic Chopin</arrival_name_airport><arrival_coordinates_lon>20.97329</arrival_coordinates_lon><arrival_coordinates_lat>52.170906</arrival_coordinates_lat><arrival_country_code>PL</arrival_country_code><arrival_country_name>Poland</arrival_country_name><arrival_city_code>WAW</arrival_city_code><arrival_city_name>Warsaw</arrival_city_name><planes>320</planes><plane_name>Airbus Industrie A320</plane_name></routes><routes><airline_iata>AY</airline_iata><departure_airport_iata>HEL</departure_airport_iata><departure_name_airport>Helsinki-vantaa</departure_name_airport><departure_coordinates_lon>24.96645</departure_coordinates_lon><departure_coordinates_lat>60.31795</departure_coordinates_lat><departure_country_code>FI</departure_country_code><departure_country_name>Finland</departure_country_name><departure_city_code>HEL</departure_city_code><departure_city_name>Helsinki</departure_city_name><arrival_airport_iata>WAW</arrival_airport_iata><arrival_name_airport>Frederic Chopin</arrival_name_airport><arrival_coordinates_lon>20.97329</arrival_coordinates_lon><arrival_coordinates_lat>52.170906</arrival_coordinates_lat><arrival_country_code>PL</arrival_country_code><arrival_country_name>Poland</arrival_country_name><arrival_city_code>WAW</arrival_city_code><arrival_city_name>Warsaw</arrival_city_name><planes>E90</planes><plane_name>Embraer ERJ-190</plane_name></routes><routes><airline_iata>AY</airline_iata><departure_airport_iata>HEL</departure_airport_iata><departure_name_airport>Helsinki-vantaa</departure_name_airport><departure_coordinates_lon>24.96645</departure_coordinates_lon><departure_coordinates_lat>60.31795</departure_coordinates_lat><departure_country_code>FI</departure_country_code><departure_country_name>Finland</departure_country_name><departure_city_code>HEL</departure_city_code><departure_city_name>Helsinki</departure_city_name><arrival_airport_iata>WAW</arrival_airport_iata><arrival_name_airport>Frederic Chopin</arrival_name_airport><arrival_coordinates_lon>20.97329</arrival_coordinates_lon><arrival_coordinates_lat>52.170906</arrival_coordinates_lat><arrival_country_code>PL</arrival_country_code><arrival_country_name>Poland</arrival_country_name><arrival_city_code>WAW</arrival_city_code><arrival_city_name>Warsaw</arrival_city_name><planes>E70</planes><plane_name>Embraer ERJ-170</plane_name></routes><routes><airline_iata>AZ</airline_iata><departure_airport_iata>FCO</departure_airport_iata><departure_name_airport>Leonardo Da Vinci (Fiumicino)</departure_name_airport><departure_coordinates_lon>12.250346</departure_coordinates_lon><departure_coordinates_lat>41.794594</departure_coordinates_lat><departure_country_code>IT</departure_country_code><departure_country_name>Italy</departure_country_name><departure_city_code>ROM</departure_city_code><departure_city_name>Rome</departure_city_name><arrival_airport_iata>WAW</arrival_airport_iata><arrival_name_airport>Frederic Chopin</arrival_name_airport><arrival_coordinates_lon>20.97329</arrival_coordinates_lon><arrival_coordinates_lat>52.170906</arrival_coordinates_lat><arrival_country_code>PL</arrival_country_code><arrival_country_name>Poland</arrival_country_name><arrival_city_code>WAW</arrival_city_code><arrival_city_name>Warsaw</arrival_city_name><planes>32S</planes><plane_name>Airbus Industrie A318/319/320/321</plane_name></routes><routes><airline_iata>AZ</airline_iata><departure_airport_iata>MXP</departure_airport_iata><departure_name_airport>Milano Malpensa</departure_name_airport><departure_coordinates_lon>8.71237</departure_coordinates_lon><departure_coordinates_lat>45.627403</departure_coordinates_lat><departure_country_code>IT</departure_country_code><departure_country_name>Italy</departure_country_name><departure_city_code>MIL</departure_city_code><departure_city_name>Milan</departure_city_name><arrival_airport_iata>WAW</arrival_airport_iata><arrival_name_airport>Frederic Chopin</arrival_name_airport><arrival_coordinates_lon>20.97329</arrival_coordinates_lon><arrival_coordinates_lat>52.170906</arrival_coordinates_lat><arrival_country_code>PL</arrival_country_code><arrival_country_name>Poland</arrival_country_name><arrival_city_code>WAW</arrival_city_code><arrival_city_name>Warsaw</arrival_city_name><planes>320</planes><plane_name>Airbus Industrie A320</plane_name></routes><routes><airline_iata>AZ</airline_iata><departure_airport_iata>VCE</departure_airport_iata><departure_name_airport>Marco Polo</departure_name_airport><departure_coordinates_lon>12.337947</departure_coordinates_lon><departure_coordinates_lat>45.502285</departure_coordinates_lat><departure_country_code>IT</departure_country_code><departure_country_name>Italy</departure_country_name><departure_city_code>VCE</departure_city_code><departure_city_name>Venice</departure_city_name><arrival_airport_iata>WAW</arrival_airport_iata><arrival_name_airport>Frederic Chopin</arrival_name_airport><arrival_coordinates_lon>20.97329</arrival_coordinates_lon><arrival_coordinates_lat>52.170906</arrival_coordinates_lat><arrival_country_code>PL</arrival_country_code><arrival_country_name>Poland</arrival_country_name><arrival_city_code>WAW</arrival_city_code><arrival_city_name>Warsaw</arrival_city_name><planes>320</planes><plane_name>Airbus Industrie A320</plane_name></routes><routes><airline_iata>B2</airline_iata><departure_airport_iata>MSQ</departure_airport_iata><departure_name_airport>Minsk National 2</departure_name_airport><departure_coordinates_lon>28.032442</departure_coordinates_lon><departure_coordinates_lat>53.889725</departure_coordinates_lat><departure_country_code>BY</departure_country_code><departure_country_name>Belarus</departure_country_name><departure_city_code>MSQ</departure_city_code><departure_city_name>Minsk</departure_city_name><arrival_airport_iata>WAW</arrival_airport_iata><arrival_name_airport>Frederic Chopin</arrival_name_airport><arrival_coordinates_lon>20.97329</arrival_coordinates_lon><arrival_coordinates_lat>52.170906</arrival_coordinates_lat><arrival_country_code>PL</arrival_country_code><arrival_country_name>Poland</arrival_country_name><arrival_city_code>WAW</arrival_city_code><arrival_city_name>Warsaw</arrival_city_name><planes>735</planes><plane_name>Boeing 737-500</plane_name></routes><routes><airline_iata>B2</airline_iata><departure_airport_iata>MSQ</departure_airport_iata><departure_name_airport>Minsk National 2</departure_name_airport><departure_coordinates_lon>28.032442</departure_coordinates_lon><departure_coordinates_lat>53.889725</departure_coordinates_lat><departure_country_code>BY</departure_country_code><departure_country_name>Belarus</departure_country_name><departure_city_code>MSQ</departure_city_code><departure_city_name>Minsk</departure_city_name><arrival_airport_iata>WAW</arrival_airport_iata><arrival_name_airport>Frederic Chopin</arrival_name_airport><arrival_coordinates_lon>20.97329</arrival_coordinates_lon><arrival_coordinates_lat>52.170906</arrival_coordinates_lat><arrival_country_code>PL</arrival_country_code><arrival_country_name>Poland</arrival_country_name><arrival_city_code>WAW</arrival_city_code><arrival_city_name>Warsaw</arrival_city_name><planes>735</planes><plane_name>Boeing 737-500</plane_name></routes><routes><airline_iata>BA</airline_iata><departure_airport_iata>LHR</departure_airport_iata><departure_name_airport>Heathrow</departure_name_airport><departure_coordinates_lon>-0.453566</departure_coordinates_lon><departure_coordinates_lat>51.469604</departure_coordinates_lat><departure_country_code>GB</departure_country_code><departure_country_name>United Kingdom</departure_country_name><departure_city_code>LON</departure_city_code><departure_city_name>London</departure_city_name><arrival_airport_iata>WAW</arrival_airport_iata><arrival_name_airport>Frederic Chopin</arrival_name_airport><arrival_coordinates_lon>20.97329</arrival_coordinates_lon><arrival_coordinates_lat>52.170906</arrival_coordinates_lat><arrival_country_code>PL</arrival_country_code><arrival_country_name>Poland</arrival_country_name><arrival_city_code>WAW</arrival_city_code><arrival_city_name>Warsaw</arrival_city_name><planes>320</planes><plane_name>Airbus Industrie A320</plane_name></routes><routes><airline_iata>BT</airline_iata><departure_airport_iata>RIX</departure_airport_iata><departure_name_airport>Riga International</departure_name_airport><departure_coordinates_lon>23.979807</departure_coordinates_lon><departure_coordinates_lat>56.92208</departure_coordinates_lat><departure_country_code>LV</departure_country_code><departure_country_name>Latvia</departure_country_name><departure_city_code>RIX</departure_city_code><departure_city_name>Riga</departure_city_name><arrival_airport_iata>WAW</arrival_airport_iata><arrival_name_airport>Frederic Chopin</arrival_name_airport><arrival_coordinates_lon>20.97329</arrival_coordinates_lon><arrival_coordinates_lat>52.170906</arrival_coordinates_lat><arrival_country_code>PL</arrival_country_code><arrival_country_name>Poland</arrival_country_name><arrival_city_code>WAW</arrival_city_code><arrival_city_name>Warsaw</arrival_city_name><planes>F50</planes><plane_name>Fokker 50</plane_name></routes><routes><airline_iata>CA</airline_iata><departure_airport_iata>PEK</departure_airport_iata><departure_name_airport>Beijing Capital International</departure_name_airport><departure_coordinates_lon>116.5871</departure_coordinates_lon><departure_coordinates_lat>40.078537</departure_coordinates_lat><departure_country_code>CN</departure_country_code><departure_country_name>China</departure_country_name><departure_city_code>BJS</departure_city_code><departure_city_name>Beijing</departure_city_name><arrival_airport_iata>WAW</arrival_airport_iata><arrival_name_airport>Frederic Chopin</arrival_name_airport><arrival_coordinates_lon>20.97329</arrival_coordinates_lon><arrival_coordinates_lat>52.170906</arrival_coordinates_lat><arrival_country_code>PL</arrival_country_code><arrival_country_name>Poland</arrival_country_name><arrival_city_code>WAW</arrival_city_code><arrival_city_name>Warsaw</arrival_city_name><planes>763</planes><plane_name>Boeing 767-300</plane_name></routes><routes><airline_iata>DY</airline_iata><departure_airport_iata>ARN</departure_airport_iata><departure_name_airport>Arlanda</departure_name_airport><departure_coordinates_lon>17.930365</departure_coordinates_lon><departure_coordinates_lat>59.64982</departure_coordinates_lat><departure_country_code>SE</departure_country_code><departure_country_name>Sweden</departure_country_name><departure_city_code>STO</departure_city_code><departure_city_name>Stockholm</departure_city_name><arrival_airport_iata>KRK</arrival_airport_iata><arrival_name_airport>John Paul II Balice International</arrival_name_airport><arrival_coordinates_lon>19.793743</arrival_coordinates_lon><arrival_coordinates_lat>50.075493</arrival_coordinates_lat><arrival_country_code>PL</arrival_country_code><arrival_country_name>Poland</arrival_country_name><arrival_city_code>KRK</arrival_city_code><arrival_city_name>Krakow</arrival_city_name><planes>73H</planes><plane_name>Boeing 737-800 With Winglets</plane_name></routes><routes><airline_iata>DY</airline_iata><departure_airport_iata>BGO</departure_airport_iata><departure_name_airport>Bergen Airport, Flesland</departure_name_airport><departure_coordinates_lon>5.228169</departure_coordinates_lon><departure_coordinates_lat>60.289062</departure_coordinates_lat><departure_country_code>NO</departure_country_code><departure_country_name>Norway</departure_country_name><departure_city_code>BGO</departure_city_code><departure_city_name>Bergen</departure_city_name><arrival_airport_iata>KRK</arrival_airport_iata><arrival_name_airport>John Paul II Balice International</arrival_name_airport><arrival_coordinates_lon>19.793743</arrival_coordinates_lon><arrival_coordinates_lat>50.075493</arrival_coordinates_lat><arrival_country_code>PL</arrival_country_code><arrival_country_name>Poland</arrival_country_name><arrival_city_code>KRK</arrival_city_code><arrival_city_name>Krakow</arrival_city_name><planes>73H</planes><plane_name>Boeing 737-800 With Winglets</plane_name></routes><routes><airline_iata>DY</airline_iata><departure_airport_iata>BGO</departure_airport_iata><departure_name_airport>Bergen Airport, Flesland</departure_name_airport><departure_coordinates_lon>5.228169</departure_coordinates_lon><departure_coordinates_lat>60.289062</departure_coordinates_lat><departure_country_code>NO</departure_country_code><departure_country_name>Norway</departure_country_name><departure_city_code>BGO</departure_city_code><departure_city_name>Bergen</departure_city_name><arrival_airport_iata>WAW</arrival_airport_iata><arrival_name_airport>Frederic Chopin</arrival_name_airport><arrival_coordinates_lon>20.97329</arrival_coordinates_lon><arrival_coordinates_lat>52.170906</arrival_coordinates_lat><arrival_country_code>PL</arrival_country_code><arrival_country_name>Poland</arrival_country_name><arrival_city_code>WAW</arrival_city_code><arrival_city_name>Warsaw</arrival_city_name><planes>73H</planes><plane_name>Boeing 737-800 With Winglets</plane_name></routes><routes><airline_iata>DY</airline_iata><departure_airport_iata>CPH</departure_airport_iata><departure_name_airport>Kastrup</departure_name_airport><departure_coordinates_lon>12.647601</departure_coordinates_lon><departure_coordinates_lat>55.62905</departure_coordinates_lat><departure_country_code>DK</departure_country_code><departure_country_name>Denmark</departure_country_name><departure_city_code>CPH</departure_city_code><departure_city_name>Copenhagen</departure_city_name><arrival_airport_iata>KRK</arrival_airport_iata><arrival_name_airport>John Paul II Balice International</arrival_name_airport><arrival_coordinates_lon>19.793743</arrival_coordinates_lon><arrival_coordinates_lat>50.075493</arrival_coordinates_lat><arrival_country_code>PL</arrival_country_code><arrival_country_name>Poland</arrival_country_name><arrival_city_code>KRK</arrival_city_code><arrival_city_name>Krakow</arrival_city_name><planes>73H</planes><plane_name>Boeing 737-800 With Winglets</plane_name></routes><routes><airline_iata>DY</airline_iata><departure_airport_iata>OSL</departure_airport_iata><departure_name_airport>Gardermoen</departure_name_airport><departure_coordinates_lon>11.100411</departure_coordinates_lon><departure_coordinates_lat>60.19419</departure_coordinates_lat><departure_country_code>NO</departure_country_code><departure_country_name>Norway</departure_country_name><departure_city_code>OSL</departure_city_code><departure_city_name>Oslo</departure_city_name><arrival_airport_iata>GDN</arrival_airport_iata><arrival_name_airport>Lech Walesa</arrival_name_airport><arrival_coordinates_lon>18.468655</arrival_coordinates_lon><arrival_coordinates_lat>54.380978</arrival_coordinates_lat><arrival_country_code>PL</arrival_country_code><arrival_country_name>Poland</arrival_country_name><arrival_city_code>GDN</arrival_city_code><arrival_city_name>Gdansk</arrival_city_name><planes>73H</planes><plane_name>Boeing 737-800 With Winglets</plane_name></routes><routes><airline_iata>DY</airline_iata><departure_airport_iata>OSL</departure_airport_iata><departure_name_airport>Gardermoen</departure_name_airport><departure_coordinates_lon>11.100411</departure_coordinates_lon><departure_coordinates_lat>60.19419</departure_coordinates_lat><departure_country_code>NO</departure_country_code><departure_country_name>Norway</departure_country_name><departure_city_code>OSL</departure_city_code><departure_city_name>Oslo</departure_city_name><arrival_airport_iata>KRK</arrival_airport_iata><arrival_name_airport>John Paul II Balice International</arrival_name_airport><arrival_coordinates_lon>19.793743</arrival_coordinates_lon><arrival_coordinates_lat>50.075493</arrival_coordinates_lat><arrival_country_code>PL</arrival_country_code><arrival_country_name>Poland</arrival_country_name><arrival_city_code>KRK</arrival_city_code><arrival_city_name>Krakow</arrival_city_name><planes>73H</planes><plane_name>Boeing 737-800 With Winglets</plane_name></routes><routes><airline_iata>DY</airline_iata><departure_airport_iata>OSL</departure_airport_iata><departure_name_airport>Gardermoen</departure_name_airport><departure_coordinates_lon>11.100411</departure_coordinates_lon><departure_coordinates_lat>60.19419</departure_coordinates_lat><departure_country_code>NO</departure_country_code><departure_country_name>Norway</departure_country_name><departure_city_code>OSL</departure_city_code><departure_city_name>Oslo</departure_city_name><arrival_airport_iata>POZ</arrival_airport_iata><arrival_name_airport>Lawica</arrival_name_airport><arrival_coordinates_lon>16.828844</arrival_coordinates_lon><arrival_coordinates_lat>52.414326</arrival_coordinates_lat><arrival_country_code>PL</arrival_country_code><arrival_country_name>Poland</arrival_country_name><arrival_city_code>POZ</arrival_city_code><arrival_city_name>Poznan</arrival_city_name><planes>73H</planes><plane_name>Boeing 737-800 With Winglets</plane_name></routes><routes><airline_iata>DY</airline_iata><departure_airport_iata>OSL</departure_airport_iata><departure_name_airport>Gardermoen</departure_name_airport><departure_coordinates_lon>11.100411</departure_coordinates_lon><departure_coordinates_lat>60.19419</departure_coordinates_lat><departure_country_code>NO</departure_country_code><departure_country_name>Norway</departure_country_name><departure_city_code>OSL</departure_city_code><departure_city_name>Oslo</departure_city_name><arrival_airport_iata>SZZ</arrival_airport_iata><arrival_name_airport>Goleniow</arrival_name_airport><arrival_coordinates_lon>14.894611</arrival_coordinates_lon><arrival_coordinates_lat>53.593525</arrival_coordinates_lat><arrival_country_code>PL</arrival_country_code><arrival_country_name>Poland</arrival_country_name><arrival_city_code>SZZ</arrival_city_code><arrival_city_name>Szczecin</arrival_city_name><planes>73H</planes><plane_name>Boeing 737-800 With Winglets</plane_name></routes><routes><airline_iata>DY</airline_iata><departure_airport_iata>OSL</departure_airport_iata><departure_name_airport>Gardermoen</departure_name_airport><departure_coordinates_lon>11.100411</departure_coordinates_lon><departure_coordinates_lat>60.19419</departure_coordinates_lat><departure_country_code>NO</departure_country_code><departure_country_name>Norway</departure_country_name><departure_city_code>OSL</departure_city_code><departure_city_name>Oslo</departure_city_name><arrival_airport_iata>WAW</arrival_airport_iata><arrival_name_airport>Frederic Chopin</arrival_name_airport><arrival_coordinates_lon>20.97329</arrival_coordinates_lon><arrival_coordinates_lat>52.170906</arrival_coordinates_lat><arrival_country_code>PL</arrival_country_code><arrival_country_name>Poland</arrival_country_name><arrival_city_code>WAW</arrival_city_code><arrival_city_name>Warsaw</arrival_city_name><planes>733</planes><plane_name>Boeing 737-300</plane_name></routes><routes><airline_iata>DY</airline_iata><departure_airport_iata>SVG</departure_airport_iata><departure_name_airport>Sola</departure_name_airport><departure_coordinates_lon>5.629197</departure_coordinates_lon><departure_coordinates_lat>58.88215</departure_coordinates_lat><departure_country_code>NO</departure_country_code><departure_country_name>Norway</departure_country_name><departure_city_code>SVG</departure_city_code><departure_city_name>Stavanger</departure_city_name><arrival_airport_iata>KRK</arrival_airport_iata><arrival_name_airport>John Paul II Balice International</arrival_name_airport><arrival_coordinates_lon>19.793743</arrival_coordinates_lon><arrival_coordinates_lat>50.075493</arrival_coordinates_lat><arrival_country_code>PL</arrival_country_code><arrival_country_name>Poland</arrival_country_name><arrival_city_code>KRK</arrival_city_code><arrival_city_name>Krakow</arrival_city_name><planes>73H</planes><plane_name>Boeing 737-800 With Winglets</plane_name></routes><routes><airline_iata>DY</airline_iata><departure_airport_iata>SVG</departure_airport_iata><departure_name_airport>Sola</departure_name_airport><departure_coordinates_lon>5.629197</departure_coordinates_lon><departure_coordinates_lat>58.88215</departure_coordinates_lat><departure_country_code>NO</departure_country_code><departure_country_name>Norway</departure_country_name><departure_city_code>SVG</departure_city_code><departure_city_name>Stavanger</departure_city_name><arrival_airport_iata>WAW</arrival_airport_iata><arrival_name_airport>Frederic Chopin</arrival_name_airport><arrival_coordinates_lon>20.97329</arrival_coordinates_lon><arrival_coordinates_lat>52.170906</arrival_coordinates_lat><arrival_country_code>PL</arrival_country_code><arrival_country_name>Poland</arrival_country_name><arrival_city_code>WAW</arrival_city_code><arrival_city_name>Warsaw</arrival_city_name><planes>73H</planes><plane_name>Boeing 737-800 With Winglets</plane_name></routes><routes><airline_iata>EI</airline_iata><departure_airport_iata>DUB</departure_airport_iata><departure_name_airport>Dublin International</departure_name_airport><departure_coordinates_lon>-6.24357</departure_coordinates_lon><departure_coordinates_lat>53.42728</departure_coordinates_lat><departure_country_code>IE</departure_country_code><departure_country_name>Ireland</departure_country_name><departure_city_code>DUB</departure_city_code><departure_city_name>Dublin</departure_city_name><arrival_airport_iata>KRK</arrival_airport_iata><arrival_name_airport>John Paul II Balice International</arrival_name_airport><arrival_coordinates_lon>19.793743</arrival_coordinates_lon><arrival_coordinates_lat>50.075493</arrival_coordinates_lat><arrival_country_code>PL</arrival_country_code><arrival_country_name>Poland</arrival_country_name><arrival_city_code>KRK</arrival_city_code><arrival_city_name>Krakow</arrival_city_name><planes>320</planes><plane_name>Airbus Industrie A320</plane_name></routes><routes><airline_iata>EI</airline_iata><departure_airport_iata>DUB</departure_airport_iata><departure_name_airport>Dublin International</departure_name_airport><departure_coordinates_lon>-6.24357</departure_coordinates_lon><departure_coordinates_lat>53.42728</departure_coordinates_lat><departure_country_code>IE</departure_country_code><departure_country_name>Ireland</departure_country_name><departure_city_code>DUB</departure_city_code><departure_city_name>Dublin</departure_city_name><arrival_airport_iata>WAW</arrival_airport_iata><arrival_name_airport>Frederic Chopin</arrival_name_airport><arrival_coordinates_lon>20.97329</arrival_coordinates_lon><arrival_coordinates_lat>52.170906</arrival_coordinates_lat><arrival_country_code>PL</arrival_country_code><arrival_country_name>Poland</arrival_country_name><arrival_city_code>WAW</arrival_city_code><arrival_city_name>Warsaw</arrival_city_name><planes>320</planes><plane_name>Airbus Industrie A320</plane_name></routes><routes><airline_iata>FB</airline_iata><departure_airport_iata>SOF</departure_airport_iata><departure_name_airport>Sofia</departure_name_airport><departure_coordinates_lon>23.41443</departure_coordinates_lon><departure_coordinates_lat>42.688343</departure_coordinates_lat><departure_country_code>BG</departure_country_code><departure_country_name>Bulgaria</departure_country_name><departure_city_code>SOF</departure_city_code><departure_city_name>Sofia</departure_city_name><arrival_airport_iata>WAW</arrival_airport_iata><arrival_name_airport>Frederic Chopin</arrival_name_airport><arrival_coordinates_lon>20.97329</arrival_coordinates_lon><arrival_coordinates_lat>52.170906</arrival_coordinates_lat><arrival_country_code>PL</arrival_country_code><arrival_country_name>Poland</arrival_country_name><arrival_city_code>WAW</arrival_city_code><arrival_city_name>Warsaw</arrival_city_name><planes>E70</planes><plane_name>Embraer ERJ-170</plane_name></routes><routes><airline_iata>FR</airline_iata><departure_airport_iata>AGP</departure_airport_iata><departure_name_airport>Pablo Ruiz Picasso</departure_name_airport><departure_coordinates_lon>-4.489616</departure_coordinates_lon><departure_coordinates_lat>36.675182</departure_coordinates_lat><departure_country_code>ES</departure_country_code><departure_country_name>Spain</departure_country_name><departure_city_code>AGP</departure_city_code><departure_city_name>Malaga</departure_city_name><arrival_airport_iata>KRK</arrival_airport_iata><arrival_name_airport>John Paul II Balice International</arrival_name_airport><arrival_coordinates_lon>19.793743</arrival_coordinates_lon><arrival_coordinates_lat>50.075493</arrival_coordinates_lat><arrival_country_code>PL</arrival_country_code><arrival_country_name>Poland</arrival_country_name><arrival_city_code>KRK</arrival_city_code><arrival_city_name>Krakow</arrival_city_name><planes>738</planes><plane_name>Boeing 737-800</plane_name></routes><routes><airline_iata>FR</airline_iata><departure_airport_iata>AGP</departure_airport_iata><departure_name_airport>Pablo Ruiz Picasso</departure_name_airport><departure_coordinates_lon>-4.489616</departure_coordinates_lon><departure_coordinates_lat>36.675182</departure_coordinates_lat><departure_country_code>ES</departure_country_code><departure_country_name>Spain</departure_country_name><departure_city_code>AGP</departure_city_code><departure_city_name>Malaga</departure_city_name><arrival_airport_iata>WRO</arrival_airport_iata><arrival_name_airport>Copernicus Airport</arrival_name_airport><arrival_coordinates_lon>16.899403</arrival_coordinates_lon><arrival_coordinates_lat>51.10482</arrival_coordinates_lat><arrival_country_code>PL</arrival_country_code><arrival_country_name>Poland</arrival_country_name><arrival_city_code>WRO</arrival_city_code><arrival_city_name>Wroclaw</arrival_city_name><planes>738</planes><plane_name>Boeing 737-800</plane_name></routes><routes><airline_iata>FR</airline_iata><departure_airport_iata>ALC</departure_airport_iata><departure_name_airport>Alicante El Altet</departure_name_airport><departure_coordinates_lon>-0.557381</departure_coordinates_lon><departure_coordinates_lat>38.287098</departure_coordinates_lat><departure_country_code>ES</departure_country_code><departure_country_name>Spain</departure_country_name><departure_city_code>ALC</departure_city_code><departure_city_name>Alicante</departure_city_name><arrival_airport_iata>KRK</arrival_airport_iata><arrival_name_airport>John Paul II Balice International</arrival_name_airport><arrival_coordinates_lon>19.793743</arrival_coordinates_lon><arrival_coordinates_lat>50.075493</arrival_coordinates_lat><arrival_country_code>PL</arrival_country_code><arrival_country_name>Poland</arrival_country_name><arrival_city_code>KRK</arrival_city_code><arrival_city_name>Krakow</arrival_city_name><planes>738</planes><plane_name>Boeing 737-800</plane_name></routes><routes><airline_iata>FR</airline_iata><departure_airport_iata>ALC</departure_airport_iata><departure_name_airport>Alicante El Altet</departure_name_airport><departure_coordinates_lon>-0.557381</departure_coordinates_lon><departure_coordinates_lat>38.287098</departure_coordinates_lat><departure_country_code>ES</departure_country_code><departure_country_name>Spain</departure_country_name><departure_city_code>ALC</departure_city_code><departure_city_name>Alicante</departure_city_name><arrival_airport_iata>WRO</arrival_airport_iata><arrival_name_airport>Copernicus Airport</arrival_name_airport><arrival_coordinates_lon>16.899403</arrival_coordinates_lon><arrival_coordinates_lat>51.10482</arrival_coordinates_lat><arrival_country_code>PL</arrival_country_code><arrival_country_name>Poland</arrival_country_name><arrival_city_code>WRO</arrival_city_code><arrival_city_name>Wroclaw</arrival_city_name><planes>738</planes><plane_name>Boeing 737-800</plane_name></routes><routes><airline_iata>FR</airline_iata><departure_airport_iata>BCN</departure_airport_iata><departure_name_airport>El Prat De Llobregat</departure_name_airport><departure_coordinates_lon>2.07593</departure_coordinates_lon><departure_coordinates_lat>41.30303</departure_coordinates_lat><departure_country_code>ES</departure_country_code><departure_country_name>Spain</departure_country_name><departure_city_code>BCN</departure_city_code><departure_city_name>Barcelona</departure_city_name><arrival_airport_iata>POZ</arrival_airport_iata><arrival_name_airport>Lawica</arrival_name_airport><arrival_coordinates_lon>16.828844</arrival_coordinates_lon><arrival_coordinates_lat>52.414326</arrival_coordinates_lat><arrival_country_code>PL</arrival_country_code><arrival_country_name>Poland</arrival_country_name><arrival_city_code>POZ</arrival_city_code><arrival_city_name>Poznan</arrival_city_name><planes>738</planes><plane_name>Boeing 737-800</plane_name></routes><routes><airline_iata>FR</airline_iata><departure_airport_iata>BCN</departure_airport_iata><departure_name_airport>El Prat De Llobregat</departure_name_airport><departure_coordinates_lon>2.07593</departure_coordinates_lon><departure_coordinates_lat>41.30303</departure_coordinates_lat><departure_country_code>ES</departure_country_code><departure_country_name>Spain</departure_country_name><departure_city_code>BCN</departure_city_code><departure_city_name>Barcelona</departure_city_name><arrival_airport_iata>WMI</arrival_airport_iata><arrival_name_airport>Modlin</arrival_name_airport><arrival_coordinates_lon>20.651667</arrival_coordinates_lon><arrival_coordinates_lat>52.45111</arrival_coordinates_lat><arrival_country_code>PL</arrival_country_code><arrival_country_name>Poland</arrival_country_name><arrival_city_code>WMI</arrival_city_code><arrival_city_name>Nowy Dwor Mazowiecki</arrival_city_name><planes>738</planes><plane_name>Boeing 737-800</plane_name></routes><routes><airline_iata>FR</airline_iata><departure_airport_iata>BGY</departure_airport_iata><departure_name_airport>Bergamo - Orio al Serio</departure_name_airport><departure_coordinates_lon>9.698713</departure_coordinates_lon><departure_coordinates_lat>45.665314</departure_coordinates_lat><departure_country_code>IT</departure_country_code><departure_country_name>Italy</departure_country_name><departure_city_code>MIL</departure_city_code><departure_city_name>Milan</departure_city_name><arrival_airport_iata>KRK</arrival_airport_iata><arrival_name_airport>John Paul II Balice International</arrival_name_airport><arrival_coordinates_lon>19.793743</arrival_coordinates_lon><arrival_coordinates_lat>50.075493</arrival_coordinates_lat><arrival_country_code>PL</arrival_country_code><arrival_country_name>Poland</arrival_country_name><arrival_city_code>KRK</arrival_city_code><arrival_city_name>Krakow</arrival_city_name><planes>738</planes><plane_name>Boeing 737-800</plane_name></routes><routes><airline_iata>FR</airline_iata><departure_airport_iata>BGY</departure_airport_iata><departure_name_airport>Bergamo - Orio al Serio</departure_name_airport><departure_coordinates_lon>9.698713</departure_coordinates_lon><departure_coordinates_lat>45.665314</departure_coordinates_lat><departure_country_code>IT</departure_country_code><departure_country_name>Italy</departure_country_name><departure_city_code>MIL</departure_city_code><departure_city_name>Milan</departure_city_name><arrival_airport_iata>LCJ</arrival_airport_iata><arrival_name_airport>Lodz Lublinek</arrival_name_airport><arrival_coordinates_lon>19.398333</arrival_coordinates_lon><arrival_coordinates_lat>51.721943</arrival_coordinates_lat><arrival_country_code>PL</arrival_country_code><arrival_country_name>Poland</arrival_country_name><arrival_city_code>LCJ</arrival_city_code><arrival_city_name>Lodz</arrival_city_name><planes>738</planes><plane_name>Boeing 737-800</plane_name></routes><routes><airline_iata>FR</airline_iata><departure_airport_iata>BGY</departure_airport_iata><departure_name_airport>Bergamo - Orio al Serio</departure_name_airport><departure_coordinates_lon>9.698713</departure_coordinates_lon><departure_coordinates_lat>45.665314</departure_coordinates_lat><departure_country_code>IT</departure_country_code><departure_country_name>Italy</departure_country_name><departure_city_code>MIL</departure_city_code><departure_city_name>Milan</departure_city_name><arrival_airport_iata>POZ</arrival_airport_iata><arrival_name_airport>Lawica</arrival_name_airport><arrival_coordinates_lon>16.828844</arrival_coordinates_lon><arrival_coordinates_lat>52.414326</arrival_coordinates_lat><arrival_country_code>PL</arrival_country_code><arrival_country_name>Poland</arrival_country_name><arrival_city_code>POZ</arrival_city_code><arrival_city_name>Poznan</arrival_city_name><planes>738</planes><plane_name>Boeing 737-800</plane_name></routes><routes><airline_iata>FR</airline_iata><departure_airport_iata>BGY</departure_airport_iata><departure_name_airport>Bergamo - Orio al Serio</departure_name_airport><departure_coordinates_lon>9.698713</departure_coordinates_lon><departure_coordinates_lat>45.665314</departure_coordinates_lat><departure_country_code>IT</departure_country_code><departure_country_name>Italy</departure_country_name><departure_city_code>MIL</departure_city_code><departure_city_name>Milan</departure_city_name><arrival_airport_iata>WMI</arrival_airport_iata><arrival_name_airport>Modlin</arrival_name_airport><arrival_coordinates_lon>20.651667</arrival_coordinates_lon><arrival_coordinates_lat>52.45111</arrival_coordinates_lat><arrival_country_code>PL</arrival_country_code><arrival_country_name>Poland</arrival_country_name><arrival_city_code>WMI</arrival_city_code><arrival_city_name>Nowy Dwor Mazowiecki</arrival_city_name><planes>738</planes><plane_name>Boeing 737-800</plane_name></routes><routes><airline_iata>FR</airline_iata><departure_airport_iata>BGY</departure_airport_iata><departure_name_airport>Bergamo - Orio al Serio</departure_name_airport><departure_coordinates_lon>9.698713</departure_coordinates_lon><departure_coordinates_lat>45.665314</departure_coordinates_lat><departure_country_code>IT</departure_country_code><departure_country_name>Italy</departure_country_name><departure_city_code>MIL</departure_city_code><departure_city_name>Milan</departure_city_name><arrival_airport_iata>WRO</arrival_airport_iata><arrival_name_airport>Copernicus Airport</arrival_name_airport><arrival_coordinates_lon>16.899403</arrival_coordinates_lon><arrival_coordinates_lat>51.10482</arrival_coordinates_lat><arrival_country_code>PL</arrival_country_code><arrival_country_name>Poland</arrival_country_name><arrival_city_code>WRO</arrival_city_code><arrival_city_name>Wroclaw</arrival_city_name><planes>738</planes><plane_name>Boeing 737-800</plane_name></routes><routes><airline_iata>FR</airline_iata><departure_airport_iata>BHX</departure_airport_iata><departure_name_airport>Birmingham International Airport</departure_name_airport><departure_coordinates_lon>-1.733256</departure_coordinates_lon><departure_coordinates_lat>52.45252</departure_coordinates_lat><departure_country_code>GB</departure_country_code><departure_country_name>United Kingdom</departure_country_name><departure_city_code>BHX</departure_city_code><departure_city_name>Birmingham</departure_city_name><arrival_airport_iata>BZG</arrival_airport_iata><arrival_name_airport>Bydgoszcz I. J. Paderewski Airport</arrival_name_airport><arrival_coordinates_lon>17.978611</arrival_coordinates_lon><arrival_coordinates_lat>53.09667</arrival_coordinates_lat><arrival_country_code>PL</arrival_country_code><arrival_country_name>Poland</arrival_country_name><arrival_city_code>BZG</arrival_city_code><arrival_city_name>Bydgoszcz</arrival_city_name><planes>738</planes><plane_name>Boeing 737-800</plane_name></routes><routes><airline_iata>FR</airline_iata><departure_airport_iata>BHX</departure_airport_iata><departure_name_airport>Birmingham International Airport</departure_name_airport><departure_coordinates_lon>-1.733256</departure_coordinates_lon><departure_coordinates_lat>52.45252</departure_coordinates_lat><departure_country_code>GB</departure_country_code><departure_country_name>United Kingdom</departure_country_name><departure_city_code>BHX</departure_city_code><departure_city_name>Birmingham</departure_city_name><arrival_airport_iata>GDN</arrival_airport_iata><arrival_name_airport>Lech Walesa</arrival_name_airport><arrival_coordinates_lon>18.468655</arrival_coordinates_lon><arrival_coordinates_lat>54.380978</arrival_coordinates_lat><arrival_country_code>PL</arrival_country_code><arrival_country_name>Poland</arrival_country_name><arrival_city_code>GDN</arrival_city_code><arrival_city_name>Gdansk</arrival_city_name><planes>738</planes><plane_name>Boeing 737-800</plane_name></routes><routes><airline_iata>FR</airline_iata><departure_airport_iata>BHX</departure_airport_iata><departure_name_airport>Birmingham International Airport</departure_name_airport><departure_coordinates_lon>-1.733256</departure_coordinates_lon><departure_coordinates_lat>52.45252</departure_coordinates_lat><departure_country_code>GB</departure_country_code><departure_country_name>United Kingdom</departure_country_name><departure_city_code>BHX</departure_city_code><departure_city_name>Birmingham</departure_city_name><arrival_airport_iata>KTW</arrival_airport_iata><arrival_name_airport>Pyrzowice</arrival_name_airport><arrival_coordinates_lon>19.07403</arrival_coordinates_lon><arrival_coordinates_lat>50.470833</arrival_coordinates_lat><arrival_country_code>PL</arrival_country_code><arrival_country_name>Poland</arrival_country_name><arrival_city_code>KTW</arrival_city_code><arrival_city_name>Katowice</arrival_city_name><planes>738</planes><plane_name>Boeing 737-800</plane_name></routes><routes><airline_iata>FR</airline_iata><departure_airport_iata>BHX</departure_airport_iata><departure_name_airport>Birmingham International Airport</departure_name_airport><departure_coordinates_lon>-1.733256</departure_coordinates_lon><departure_coordinates_lat>52.45252</departure_coordinates_lat><departure_country_code>GB</departure_country_code><departure_country_name>United Kingdom</departure_country_name><departure_city_code>BHX</departure_city_code><departure_city_name>Birmingham</departure_city_name><arrival_airport_iata>RZE</arrival_airport_iata><arrival_name_airport>Jasionka</arrival_name_airport><arrival_coordinates_lon>22.03133</arrival_coordinates_lon><arrival_coordinates_lat>50.11525</arrival_coordinates_lat><arrival_country_code>PL</arrival_country_code><arrival_country_name>Poland</arrival_country_name><arrival_city_code>RZE</arrival_city_code><arrival_city_name>Rzeszow</arrival_city_name><planes>738</planes><plane_name>Boeing 737-800</plane_name></routes><routes><airline_iata>FR</airline_iata><departure_airport_iata>BLL</departure_airport_iata><departure_name_airport>Billund</departure_name_airport><departure_coordinates_lon>9.147874</departure_coordinates_lon><departure_coordinates_lat>55.747383</departure_coordinates_lat><departure_country_code>DK</departure_country_code><departure_country_name>Denmark</departure_country_name><departure_city_code>BLL</departure_city_code><departure_city_name>Billund</departure_city_name><arrival_airport_iata>KRK</arrival_airport_iata><arrival_name_airport>John Paul II Balice International</arrival_name_airport><arrival_coordinates_lon>19.793743</arrival_coordinates_lon><arrival_coordinates_lat>50.075493</arrival_coordinates_lat><arrival_country_code>PL</arrival_country_code><arrival_country_name>Poland</arrival_country_name><arrival_city_code>KRK</arrival_city_code><arrival_city_name>Krakow</arrival_city_name><planes>738</planes><plane_name>Boeing 737-800</plane_name></routes><routes><airline_iata>FR</airline_iata><departure_airport_iata>BLQ</departure_airport_iata><departure_name_airport>Guglielmo Marconi</departure_name_airport><departure_coordinates_lon>11.293289</departure_coordinates_lon><departure_coordinates_lat>44.529266</departure_coordinates_lat><departure_country_code>IT</departure_country_code><departure_country_name>Italy</departure_country_name><departure_city_code>BLQ</departure_city_code><departure_city_name>Bologna</departure_city_name><arrival_airport_iata>KRK</arrival_airport_iata><arrival_name_airport>John Paul II Balice International</arrival_name_airport><arrival_coordinates_lon>19.793743</arrival_coordinates_lon><arrival_coordinates_lat>50.075493</arrival_coordinates_lat><arrival_country_code>PL</arrival_country_code><arrival_country_name>Poland</arrival_country_name><arrival_city_code>KRK</arrival_city_code><arrival_city_name>Krakow</arrival_city_name><planes>738</planes><plane_name>Boeing 737-800</plane_name></routes><routes><airline_iata>FR</airline_iata><departure_airport_iata>BLQ</departure_airport_iata><departure_name_airport>Guglielmo Marconi</departure_name_airport><departure_coordinates_lon>11.293289</departure_coordinates_lon><departure_coordinates_lat>44.529266</departure_coordinates_lat><departure_country_code>IT</departure_country_code><departure_country_name>Italy</departure_country_name><departure_city_code>BLQ</departure_city_code><departure_city_name>Bologna</departure_city_name><arrival_airport_iata>POZ</arrival_airport_iata><arrival_name_airport>Lawica</arrival_name_airport><arrival_coordinates_lon>16.828844</arrival_coordinates_lon><arrival_coordinates_lat>52.414326</arrival_coordinates_lat><arrival_country_code>PL</arrival_country_code><arrival_country_name>Poland</arrival_country_name><arrival_city_code>POZ</arrival_city_code><arrival_city_name>Poznan</arrival_city_name><planes>738</planes><plane_name>Boeing 737-800</plane_name></routes><routes><airline_iata>FR</airline_iata><departure_airport_iata>BLQ</departure_airport_iata><departure_name_airport>Guglielmo Marconi</departure_name_airport><departure_coordinates_lon>11.293289</departure_coordinates_lon><departure_coordinates_lat>44.529266</departure_coordinates_lat><departure_country_code>IT</departure_country_code><departure_country_name>Italy</departure_country_name><departure_city_code>BLQ</departure_city_code><departure_city_name>Bologna</departure_city_name><arrival_airport_iata>WMI</arrival_airport_iata><arrival_name_airport>Modlin</arrival_name_airport><arrival_coordinates_lon>20.651667</arrival_coordinates_lon><arrival_coordinates_lat>52.45111</arrival_coordinates_lat><arrival_country_code>PL</arrival_country_code><arrival_country_name>Poland</arrival_country_name><arrival_city_code>WMI</arrival_city_code><arrival_city_name>Nowy Dwor Mazowiecki</arrival_city_name><planes>738</planes><plane_name>Boeing 737-800</plane_name></routes><routes><airline_iata>FR</airline_iata><departure_airport_iata>BLQ</departure_airport_iata><departure_name_airport>Guglielmo Marconi</departure_name_airport><departure_coordinates_lon>11.293289</departure_coordinates_lon><departure_coordinates_lat>44.529266</departure_coordinates_lat><departure_country_code>IT</departure_country_code><departure_country_name>Italy</departure_country_name><departure_city_code>BLQ</departure_city_code><departure_city_name>Bologna</departure_city_name><arrival_airport_iata>WRO</arrival_airport_iata><arrival_name_airport>Copernicus Airport</arrival_name_airport><arrival_coordinates_lon>16.899403</arrival_coordinates_lon><arrival_coordinates_lat>51.10482</arrival_coordinates_lat><arrival_country_code>PL</arrival_country_code><arrival_country_name>Poland</arrival_country_name><arrival_city_code>WRO</arrival_city_code><arrival_city_name>Wroclaw</arrival_city_name><planes>738</planes><plane_name>Boeing 737-800</plane_name></routes><routes><airline_iata>FR</airline_iata><departure_airport_iata>BOH</departure_airport_iata><departure_name_airport>Bournemouth International</departure_name_airport><departure_coordinates_lon>-1.832476</departure_coordinates_lon><departure_coordinates_lat>50.77827</departure_coordinates_lat><departure_country_code>GB</departure_country_code><departure_country_name>United Kingdom</departure_country_name><departure_city_code>BOH</departure_city_code><departure_city_name>Bournemouth</departure_city_name><arrival_airport_iata>WRO</arrival_airport_iata><arrival_name_airport>Copernicus Airport</arrival_name_airport><arrival_coordinates_lon>16.899403</arrival_coordinates_lon><arrival_coordinates_lat>51.10482</arrival_coordinates_lat><arrival_country_code>PL</arrival_country_code><arrival_country_name>Poland</arrival_country_name><arrival_city_code>WRO</arrival_city_code><arrival_city_name>Wroclaw</arrival_city_name><planes>738</planes><plane_name>Boeing 737-800</plane_name></routes><routes><airline_iata>FR</airline_iata><departure_airport_iata>BRE</departure_airport_iata><departure_name_airport>Bremen</departure_name_airport><departure_coordinates_lon>8.785352</departure_coordinates_lon><departure_coordinates_lat>53.05297</departure_coordinates_lat><departure_country_code>DE</departure_country_code><departure_country_name>Germany</departure_country_name><departure_city_code>BRE</departure_city_code><departure_city_name>Bremen</departure_city_name><arrival_airport_iata>LCJ</arrival_airport_iata><arrival_name_airport>Lodz Lublinek</arrival_name_airport><arrival_coordinates_lon>19.398333</arrival_coordinates_lon><arrival_coordinates_lat>51.721943</arrival_coordinates_lat><arrival_country_code>PL</arrival_country_code><arrival_country_name>Poland</arrival_country_name><arrival_city_code>LCJ</arrival_city_code><arrival_city_name>Lodz</arrival_city_name><planes>738</planes><plane_name>Boeing 737-800</plane_name></routes><routes><airline_iata>FR</airline_iata><departure_airport_iata>BRS</departure_airport_iata><departure_name_airport>Bristol</departure_name_airport><departure_coordinates_lon>-2.710659</departure_coordinates_lon><departure_coordinates_lat>51.386757</departure_coordinates_lat><departure_country_code>GB</departure_country_code><departure_country_name>United Kingdom</departure_country_name><departure_city_code>BRS</departure_city_code><departure_city_name>Bristol</departure_city_name><arrival_airport_iata>GDN</arrival_airport_iata><arrival_name_airport>Lech Walesa</arrival_name_airport><arrival_coordinates_lon>18.468655</arrival_coordinates_lon><arrival_coordinates_lat>54.380978</arrival_coordinates_lat><arrival_country_code>PL</arrival_country_code><arrival_country_name>Poland</arrival_country_name><arrival_city_code>GDN</arrival_city_code><arrival_city_name>Gdansk</arrival_city_name><planes>738</planes><plane_name>Boeing 737-800</plane_name></routes><routes><airline_iata>FR</airline_iata><departure_airport_iata>BRS</departure_airport_iata><departure_name_airport>Bristol</departure_name_airport><departure_coordinates_lon>-2.710659</departure_coordinates_lon><departure_coordinates_lat>51.386757</departure_coordinates_lat><departure_country_code>GB</departure_country_code><departure_country_name>United Kingdom</departure_country_name><departure_city_code>BRS</departure_city_code><departure_city_name>Bristol</departure_city_name><arrival_airport_iata>KTW</arrival_airport_iata><arrival_name_airport>Pyrzowice</arrival_name_airport><arrival_coordinates_lon>19.07403</arrival_coordinates_lon><arrival_coordinates_lat>50.470833</arrival_coordinates_lat><arrival_country_code>PL</arrival_country_code><arrival_country_name>Poland</arrival_country_name><arrival_city_code>KTW</arrival_city_code><arrival_city_name>Katowice</arrival_city_name><planes>738</planes><plane_name>Boeing 737-800</plane_name></routes><routes><airline_iata>FR</airline_iata><departure_airport_iata>BRS</departure_airport_iata><departure_name_airport>Bristol</departure_name_airport><departure_coordinates_lon>-2.710659</departure_coordinates_lon><departure_coordinates_lat>51.386757</departure_coordinates_lat><departure_country_code>GB</departure_country_code><departure_country_name>United Kingdom</departure_country_name><departure_city_code>BRS</departure_city_code><departure_city_name>Bristol</departure_city_name><arrival_airport_iata>LCJ</arrival_airport_iata><arrival_name_airport>Lodz Lublinek</arrival_name_airport><arrival_coordinates_lon>19.398333</arrival_coordinates_lon><arrival_coordinates_lat>51.721943</arrival_coordinates_lat><arrival_country_code>PL</arrival_country_code><arrival_country_name>Poland</arrival_country_name><arrival_city_code>LCJ</arrival_city_code><arrival_city_name>Lodz</arrival_city_name><planes>738</planes><plane_name>Boeing 737-800</plane_name></routes><routes><airline_iata>FR</airline_iata><departure_airport_iata>BRS</departure_airport_iata><departure_name_airport>Bristol</departure_name_airport><departure_coordinates_lon>-2.710659</departure_coordinates_lon><departure_coordinates_lat>51.386757</departure_coordinates_lat><departure_country_code>GB</departure_country_code><departure_country_name>United Kingdom</departure_country_name><departure_city_code>BRS</departure_city_code><departure_city_name>Bristol</departure_city_name><arrival_airport_iata>POZ</arrival_airport_iata><arrival_name_airport>Lawica</arrival_name_airport><arrival_coordinates_lon>16.828844</arrival_coordinates_lon><arrival_coordinates_lat>52.414326</arrival_coordinates_lat><arrival_country_code>PL</arrival_country_code><arrival_country_name>Poland</arrival_country_name><arrival_city_code>POZ</arrival_city_code><arrival_city_name>Poznan</arrival_city_name><planes>738</planes><plane_name>Boeing 737-800</plane_name></routes><routes><airline_iata>FR</airline_iata><departure_airport_iata>BRS</departure_airport_iata><departure_name_airport>Bristol</departure_name_airport><departure_coordinates_lon>-2.710659</departure_coordinates_lon><departure_coordinates_lat>51.386757</departure_coordinates_lat><departure_country_code>GB</departure_country_code><departure_country_name>United Kingdom</departure_country_name><departure_city_code>BRS</departure_city_code><departure_city_name>Bristol</departure_city_name><arrival_airport_iata>RZE</arrival_airport_iata><arrival_name_airport>Jasionka</arrival_name_airport><arrival_coordinates_lon>22.03133</arrival_coordinates_lon><arrival_coordinates_lat>50.11525</arrival_coordinates_lat><arrival_country_code>PL</arrival_country_code><arrival_country_name>Poland</arrival_country_name><arrival_city_code>RZE</arrival_city_code><arrival_city_name>Rzeszow</arrival_city_name><planes>738</planes><plane_name>Boeing 737-800</plane_name></routes><routes><airline_iata>FR</airline_iata><departure_airport_iata>BRS</departure_airport_iata><departure_name_airport>Bristol</departure_name_airport><departure_coordinates_lon>-2.710659</departure_coordinates_lon><departure_coordinates_lat>51.386757</departure_coordinates_lat><departure_country_code>GB</departure_country_code><departure_country_name>United Kingdom</departure_country_name><departure_city_code>BRS</departure_city_code><departure_city_name>Bristol</departure_city_name><arrival_airport_iata>WRO</arrival_airport_iata><arrival_name_airport>Copernicus Airport</arrival_name_airport><arrival_coordinates_lon>16.899403</arrival_coordinates_lon><arrival_coordinates_lat>51.10482</arrival_coordinates_lat><arrival_country_code>PL</arrival_country_code><arrival_country_name>Poland</arrival_country_name><arrival_city_code>WRO</arrival_city_code><arrival_city_name>Wroclaw</arrival_city_name><planes>738</planes><plane_name>Boeing 737-800</plane_name></routes><routes><airline_iata>FR</airline_iata><departure_airport_iata>BUD</departure_airport_iata><departure_name_airport>Liszt Ferenc International</departure_name_airport><departure_coordinates_lon>19.261621</departure_coordinates_lon><departure_coordinates_lat>47.433037</departure_coordinates_lat><departure_country_code>HU</departure_country_code><departure_country_name>Hungary</departure_country_name><departure_city_code>BUD</departure_city_code><departure_city_name>Budapest</departure_city_name><arrival_airport_iata>KRK</arrival_airport_iata><arrival_name_airport>John Paul II Balice International</arrival_name_airport><arrival_coordinates_lon>19.793743</arrival_coordinates_lon><arrival_coordinates_lat>50.075493</arrival_coordinates_lat><arrival_country_code>PL</arrival_country_code><arrival_country_name>Poland</arrival_country_name><arrival_city_code>KRK</arrival_city_code><arrival_city_name>Krakow</arrival_city_name><planes>738</planes><plane_name>Boeing 737-800</plane_name></routes><routes><airline_iata>FR</airline_iata><departure_airport_iata>BUD</departure_airport_iata><departure_name_airport>Liszt Ferenc International</departure_name_airport><departure_coordinates_lon>19.261621</departure_coordinates_lon><departure_coordinates_lat>47.433037</departure_coordinates_lat><departure_country_code>HU</departure_country_code><departure_country_name>Hungary</departure_country_name><departure_city_code>BUD</departure_city_code><departure_city_name>Budapest</departure_city_name><arrival_airport_iata>WMI</arrival_airport_iata><arrival_name_airport>Modlin</arrival_name_airport><arrival_coordinates_lon>20.651667</arrival_coordinates_lon><arrival_coordinates_lat>52.45111</arrival_coordinates_lat><arrival_country_code>PL</arrival_country_code><arrival_country_name>Poland</arrival_country_name><arrival_city_code>WMI</arrival_city_code><arrival_city_name>Nowy Dwor Mazowiecki</arrival_city_name><planes>738</planes><plane_name>Boeing 737-800</plane_name></routes><routes><airline_iata>FR</airline_iata><departure_airport_iata>BVA</departure_airport_iata><departure_name_airport>Beauvais-Tille</departure_name_airport><departure_coordinates_lon>2.110815</departure_coordinates_lon><departure_coordinates_lat>49.459488</departure_coordinates_lat><departure_country_code>FR</departure_country_code><departure_country_name>France</departure_country_name><departure_city_code>PAR</departure_city_code><departure_city_name>Paris</departure_city_name><arrival_airport_iata>KRK</arrival_airport_iata><arrival_name_airport>John Paul II Balice International</arrival_name_airport><arrival_coordinates_lon>19.793743</arrival_coordinates_lon><arrival_coordinates_lat>50.075493</arrival_coordinates_lat><arrival_country_code>PL</arrival_country_code><arrival_country_name>Poland</arrival_country_name><arrival_city_code>KRK</arrival_city_code><arrival_city_name>Krakow</arrival_city_name><planes>738</planes><plane_name>Boeing 737-800</plane_name></routes><routes><airline_iata>FR</airline_iata><departure_airport_iata>BVA</departure_airport_iata><departure_name_airport>Beauvais-Tille</departure_name_airport><departure_coordinates_lon>2.110815</departure_coordinates_lon><departure_coordinates_lat>49.459488</departure_coordinates_lat><departure_country_code>FR</departure_country_code><departure_country_name>France</departure_country_name><departure_city_code>PAR</departure_city_code><departure_city_name>Paris</departure_city_name><arrival_airport_iata>WRO</arrival_airport_iata><arrival_name_airport>Copernicus Airport</arrival_name_airport><arrival_coordinates_lon>16.899403</arrival_coordinates_lon><arrival_coordinates_lat>51.10482</arrival_coordinates_lat><arrival_country_code>PL</arrival_country_code><arrival_country_name>Poland</arrival_country_name><arrival_city_code>WRO</arrival_city_code><arrival_city_name>Wroclaw</arrival_city_name><planes>738</planes><plane_name>Boeing 737-800</plane_name></routes><routes><airline_iata>FR</airline_iata><departure_airport_iata>CAG</departure_airport_iata><departure_name_airport>Elmas</departure_name_airport><departure_coordinates_lon>9.060673</departure_coordinates_lon><departure_coordinates_lat>39.254333</departure_coordinates_lat><departure_country_code>IT</departure_country_code><departure_country_name>Italy</departure_country_name><departure_city_code>CAG</departure_city_code><departure_city_name>Cagliari</departure_city_name><arrival_airport_iata>KRK</arrival_airport_iata><arrival_name_airport>John Paul II Balice International</arrival_name_airport><arrival_coordinates_lon>19.793743</arrival_coordinates_lon><arrival_coordinates_lat>50.075493</arrival_coordinates_lat><arrival_country_code>PL</arrival_country_code><arrival_country_name>Poland</arrival_country_name><arrival_city_code>KRK</arrival_city_code><arrival_city_name>Krakow</arrival_city_name><planes>738</planes><plane_name>Boeing 737-800</plane_name></routes><routes><airline_iata>FR</airline_iata><departure_airport_iata>CHQ</departure_airport_iata><departure_name_airport>Souda</departure_name_airport><departure_coordinates_lon>24.140373</departure_coordinates_lon><departure_coordinates_lat>35.5402</departure_coordinates_lat><departure_country_code>GR</departure_country_code><departure_country_name>Greece</departure_country_name><departure_city_code>CHQ</departure_city_code><departure_city_name>Chania</departure_city_name><arrival_airport_iata>WRO</arrival_airport_iata><arrival_name_airport>Copernicus Airport</arrival_name_airport><arrival_coordinates_lon>16.899403</arrival_coordinates_lon><arrival_coordinates_lat>51.10482</arrival_coordinates_lat><arrival_country_code>PL</arrival_country_code><arrival_country_name>Poland</arrival_country_name><arrival_city_code>WRO</arrival_city_code><arrival_city_name>Wroclaw</arrival_city_name><planes>738</planes><plane_name>Boeing 737-800</plane_name></routes><routes><airline_iata>FR</airline_iata><departure_airport_iata>CIA</departure_airport_iata><departure_name_airport>Ciampino</departure_name_airport><departure_coordinates_lon>12.590987</departure_coordinates_lon><departure_coordinates_lat>41.799065</departure_coordinates_lat><departure_country_code>IT</departure_country_code><departure_country_name>Italy</departure_country_name><departure_city_code>ROM</departure_city_code><departure_city_name>Rome</departure_city_name><arrival_airport_iata>KRK</arrival_airport_iata><arrival_name_airport>John Paul II Balice International</arrival_name_airport><arrival_coordinates_lon>19.793743</arrival_coordinates_lon><arrival_coordinates_lat>50.075493</arrival_coordinates_lat><arrival_country_code>PL</arrival_country_code><arrival_country_name>Poland</arrival_country_name><arrival_city_code>KRK</arrival_city_code><arrival_city_name>Krakow</arrival_city_name><planes>738</planes><plane_name>Boeing 737-800</plane_name></routes><routes><airline_iata>FR</airline_iata><departure_airport_iata>CIA</departure_airport_iata><departure_name_airport>Ciampino</departure_name_airport><departure_coordinates_lon>12.590987</departure_coordinates_lon><departure_coordinates_lat>41.799065</departure_coordinates_lat><departure_country_code>IT</departure_country_code><departure_country_name>Italy</departure_country_name><departure_city_code>ROM</departure_city_code><departure_city_name>Rome</departure_city_name><arrival_airport_iata>POZ</arrival_airport_iata><arrival_name_airport>Lawica</arrival_name_airport><arrival_coordinates_lon>16.828844</arrival_coordinates_lon><arrival_coordinates_lat>52.414326</arrival_coordinates_lat><arrival_country_code>PL</arrival_country_code><arrival_country_name>Poland</arrival_country_name><arrival_city_code>POZ</arrival_city_code><arrival_city_name>Poznan</arrival_city_name><planes>738</planes><plane_name>Boeing 737-800</plane_name></routes><routes><airline_iata>FR</airline_iata><departure_airport_iata>CIA</departure_airport_iata><departure_name_airport>Ciampino</departure_name_airport><departure_coordinates_lon>12.590987</departure_coordinates_lon><departure_coordinates_lat>41.799065</departure_coordinates_lat><departure_country_code>IT</departure_country_code><departure_country_name>Italy</departure_country_name><departure_city_code>ROM</departure_city_code><departure_city_name>Rome</departure_city_name><arrival_airport_iata>WMI</arrival_airport_iata><arrival_name_airport>Modlin</arrival_name_airport><arrival_coordinates_lon>20.651667</arrival_coordinates_lon><arrival_coordinates_lat>52.45111</arrival_coordinates_lat><arrival_country_code>PL</arrival_country_code><arrival_country_name>Poland</arrival_country_name><arrival_city_code>WMI</arrival_city_code><arrival_city_name>Nowy Dwor Mazowiecki</arrival_city_name><planes>738</planes><plane_name>Boeing 737-800</plane_name></routes><routes><airline_iata>FR</airline_iata><departure_airport_iata>CIA</departure_airport_iata><departure_name_airport>Ciampino</departure_name_airport><departure_coordinates_lon>12.590987</departure_coordinates_lon><departure_coordinates_lat>41.799065</departure_coordinates_lat><departure_country_code>IT</departure_country_code><departure_country_name>Italy</departure_country_name><departure_city_code>ROM</departure_city_code><departure_city_name>Rome</departure_city_name><arrival_airport_iata>WRO</arrival_airport_iata><arrival_name_airport>Copernicus Airport</arrival_name_airport><arrival_coordinates_lon>16.899403</arrival_coordinates_lon><arrival_coordinates_lat>51.10482</arrival_coordinates_lat><arrival_country_code>PL</arrival_country_code><arrival_country_name>Poland</arrival_country_name><arrival_city_code>WRO</arrival_city_code><arrival_city_name>Wroclaw</arrival_city_name><planes>738</planes><plane_name>Boeing 737-800</plane_name></routes><routes><airline_iata>FR</airline_iata><departure_airport_iata>CRL</departure_airport_iata><departure_name_airport>Charleroi Brussels South</departure_name_airport><departure_coordinates_lon>4.451703</departure_coordinates_lon><departure_coordinates_lat>50.456696</departure_coordinates_lat><departure_country_code>BE</departure_country_code><departure_country_name>Belgium</departure_country_name><departure_city_code>BRU</departure_city_code><departure_city_name>Brussels</departure_city_name><arrival_airport_iata>KRK</arrival_airport_iata><arrival_name_airport>John Paul II Balice International</arrival_name_airport><arrival_coordinates_lon>19.793743</arrival_coordinates_lon><arrival_coordinates_lat>50.075493</arrival_coordinates_lat><arrival_country_code>PL</arrival_country_code><arrival_country_name>Poland</arrival_country_name><arrival_city_code>KRK</arrival_city_code><arrival_city_name>Krakow</arrival_city_name><planes>738</planes><plane_name>Boeing 737-800</plane_name></routes><routes><airline_iata>FR</airline_iata><departure_airport_iata>CRL</departure_airport_iata><departure_name_airport>Charleroi Brussels South</departure_name_airport><departure_coordinates_lon>4.451703</departure_coordinates_lon><departure_coordinates_lat>50.456696</departure_coordinates_lat><departure_country_code>BE</departure_country_code><departure_country_name>Belgium</departure_country_name><departure_city_code>BRU</departure_city_code><departure_city_name>Brussels</departure_city_name><arrival_airport_iata>WMI</arrival_airport_iata><arrival_name_airport>Modlin</arrival_name_airport><arrival_coordinates_lon>20.651667</arrival_coordinates_lon><arrival_coordinates_lat>52.45111</arrival_coordinates_lat><arrival_country_code>PL</arrival_country_code><arrival_country_name>Poland</arrival_country_name><arrival_city_code>WMI</arrival_city_code><arrival_city_name>Nowy Dwor Mazowiecki</arrival_city_name><planes>738</planes><plane_name>Boeing 737-800</plane_name></routes><routes><airline_iata>FR</airline_iata><departure_airport_iata>CRL</departure_airport_iata><departure_name_airport>Charleroi Brussels South</departure_name_airport><departure_coordinates_lon>4.451703</departure_coordinates_lon><departure_coordinates_lat>50.456696</departure_coordinates_lat><departure_country_code>BE</departure_country_code><departure_country_name>Belgium</departure_country_name><departure_city_code>BRU</departure_city_code><departure_city_name>Brussels</departure_city_name><arrival_airport_iata>WRO</arrival_airport_iata><arrival_name_airport>Copernicus Airport</arrival_name_airport><arrival_coordinates_lon>16.899403</arrival_coordinates_lon><arrival_coordinates_lat>51.10482</arrival_coordinates_lat><arrival_country_code>PL</arrival_country_code><arrival_country_name>Poland</arrival_country_name><arrival_city_code>WRO</arrival_city_code><arrival_city_name>Wroclaw</arrival_city_name><planes>738</planes><plane_name>Boeing 737-800</plane_name></routes><routes><airline_iata>FR</airline_iata><departure_airport_iata>DUB</departure_airport_iata><departure_name_airport>Dublin International</departure_name_airport><departure_coordinates_lon>-6.24357</departure_coordinates_lon><departure_coordinates_lat>53.42728</departure_coordinates_lat><departure_country_code>IE</departure_country_code><departure_country_name>Ireland</departure_country_name><departure_city_code>DUB</departure_city_code><departure_city_name>Dublin</departure_city_name><arrival_airport_iata>BZG</arrival_airport_iata><arrival_name_airport>Bydgoszcz I. J. Paderewski Airport</arrival_name_airport><arrival_coordinates_lon>17.978611</arrival_coordinates_lon><arrival_coordinates_lat>53.09667</arrival_coordinates_lat><arrival_country_code>PL</arrival_country_code><arrival_country_name>Poland</arrival_country_name><arrival_city_code>BZG</arrival_city_code><arrival_city_name>Bydgoszcz</arrival_city_name><planes>738</planes><plane_name>Boeing 737-800</plane_name></routes><routes><airline_iata>FR</airline_iata><departure_airport_iata>DUB</departure_airport_iata><departure_name_airport>Dublin International</departure_name_airport><departure_coordinates_lon>-6.24357</departure_coordinates_lon><departure_coordinates_lat>53.42728</departure_coordinates_lat><departure_country_code>IE</departure_country_code><departure_country_name>Ireland</departure_country_name><departure_city_code>DUB</departure_city_code><departure_city_name>Dublin</departure_city_name><arrival_airport_iata>GDN</arrival_airport_iata><arrival_name_airport>Lech Walesa</arrival_name_airport><arrival_coordinates_lon>18.468655</arrival_coordinates_lon><arrival_coordinates_lat>54.380978</arrival_coordinates_lat><arrival_country_code>PL</arrival_country_code><arrival_country_name>Poland</arrival_country_name><arrival_city_code>GDN</arrival_city_code><arrival_city_name>Gdansk</arrival_city_name><planes>738</planes><plane_name>Boeing 737-800</plane_name></routes><routes><airline_iata>FR</airline_iata><departure_airport_iata>DUB</departure_airport_iata><departure_name_airport>Dublin International</departure_name_airport><departure_coordinates_lon>-6.24357</departure_coordinates_lon><departure_coordinates_lat>53.42728</departure_coordinates_lat><departure_country_code>IE</departure_country_code><departure_country_name>Ireland</departure_country_name><departure_city_code>DUB</departure_city_code><departure_city_name>Dublin</departure_city_name><arrival_airport_iata>KRK</arrival_airport_iata><arrival_name_airport>John Paul II Balice International</arrival_name_airport><arrival_coordinates_lon>19.793743</arrival_coordinates_lon><arrival_coordinates_lat>50.075493</arrival_coordinates_lat><arrival_country_code>PL</arrival_country_code><arrival_country_name>Poland</arrival_country_name><arrival_city_code>KRK</arrival_city_code><arrival_city_name>Krakow</arrival_city_name><planes>738</planes><plane_name>Boeing 737-800</plane_name></routes><routes><airline_iata>FR</airline_iata><departure_airport_iata>DUB</departure_airport_iata><departure_name_airport>Dublin International</departure_name_airport><departure_coordinates_lon>-6.24357</departure_coordinates_lon><departure_coordinates_lat>53.42728</departure_coordinates_lat><departure_country_code>IE</departure_country_code><departure_country_name>Ireland</departure_country_name><departure_city_code>DUB</departure_city_code><departure_city_name>Dublin</departure_city_name><arrival_airport_iata>KTW</arrival_airport_iata><arrival_name_airport>Pyrzowice</arrival_name_airport><arrival_coordinates_lon>19.07403</arrival_coordinates_lon><arrival_coordinates_lat>50.470833</arrival_coordinates_lat><arrival_country_code>PL</arrival_country_code><arrival_country_name>Poland</arrival_country_name><arrival_city_code>KTW</arrival_city_code><arrival_city_name>Katowice</arrival_city_name><planes>738</planes><plane_name>Boeing 737-800</plane_name></routes><routes><airline_iata>FR</airline_iata><departure_airport_iata>DUB</departure_airport_iata><departure_name_airport>Dublin International</departure_name_airport><departure_coordinates_lon>-6.24357</departure_coordinates_lon><departure_coordinates_lat>53.42728</departure_coordinates_lat><departure_country_code>IE</departure_country_code><departure_country_name>Ireland</departure_country_name><departure_city_code>DUB</departure_city_code><departure_city_name>Dublin</departure_city_name><arrival_airport_iata>LCJ</arrival_airport_iata><arrival_name_airport>Lodz Lublinek</arrival_name_airport><arrival_coordinates_lon>19.398333</arrival_coordinates_lon><arrival_coordinates_lat>51.721943</arrival_coordinates_lat><arrival_country_code>PL</arrival_country_code><arrival_country_name>Poland</arrival_country_name><arrival_city_code>LCJ</arrival_city_code><arrival_city_name>Lodz</arrival_city_name><planes>738</planes><plane_name>Boeing 737-800</plane_name></routes><routes><airline_iata>FR</airline_iata><departure_airport_iata>DUB</departure_airport_iata><departure_name_airport>Dublin International</departure_name_airport><departure_coordinates_lon>-6.24357</departure_coordinates_lon><departure_coordinates_lat>53.42728</departure_coordinates_lat><departure_country_code>IE</departure_country_code><departure_country_name>Ireland</departure_country_name><departure_city_code>DUB</departure_city_code><departure_city_name>Dublin</departure_city_name><arrival_airport_iata>POZ</arrival_airport_iata><arrival_name_airport>Lawica</arrival_name_airport><arrival_coordinates_lon>16.828844</arrival_coordinates_lon><arrival_coordinates_lat>52.414326</arrival_coordinates_lat><arrival_country_code>PL</arrival_country_code><arrival_country_name>Poland</arrival_country_name><arrival_city_code>POZ</arrival_city_code><arrival_city_name>Poznan</arrival_city_name><planes>738</planes><plane_name>Boeing 737-800</plane_name></routes><routes><airline_iata>FR</airline_iata><departure_airport_iata>DUB</departure_airport_iata><departure_name_airport>Dublin International</departure_name_airport><departure_coordinates_lon>-6.24357</departure_coordinates_lon><departure_coordinates_lat>53.42728</departure_coordinates_lat><departure_country_code>IE</departure_country_code><departure_country_name>Ireland</departure_country_name><departure_city_code>DUB</departure_city_code><departure_city_name>Dublin</departure_city_name><arrival_airport_iata>RZE</arrival_airport_iata><arrival_name_airport>Jasionka</arrival_name_airport><arrival_coordinates_lon>22.03133</arrival_coordinates_lon><arrival_coordinates_lat>50.11525</arrival_coordinates_lat><arrival_country_code>PL</arrival_country_code><arrival_country_name>Poland</arrival_country_name><arrival_city_code>RZE</arrival_city_code><arrival_city_name>Rzeszow</arrival_city_name><planes>738</planes><plane_name>Boeing 737-800</plane_name></routes><routes><airline_iata>FR</airline_iata><departure_airport_iata>DUB</departure_airport_iata><departure_name_airport>Dublin International</departure_name_airport><departure_coordinates_lon>-6.24357</departure_coordinates_lon><departure_coordinates_lat>53.42728</departure_coordinates_lat><departure_country_code>IE</departure_country_code><departure_country_name>Ireland</departure_country_name><departure_city_code>DUB</departure_city_code><departure_city_name>Dublin</departure_city_name><arrival_airport_iata>SZZ</arrival_airport_iata><arrival_name_airport>Goleniow</arrival_name_airport><arrival_coordinates_lon>14.894611</arrival_coordinates_lon><arrival_coordinates_lat>53.593525</arrival_coordinates_lat><arrival_country_code>PL</arrival_country_code><arrival_country_name>Poland</arrival_country_name><arrival_city_code>SZZ</arrival_city_code><arrival_city_name>Szczecin</arrival_city_name><planes>738</planes><plane_name>Boeing 737-800</plane_name></routes><routes><airline_iata>FR</airline_iata><departure_airport_iata>DUB</departure_airport_iata><departure_name_airport>Dublin International</departure_name_airport><departure_coordinates_lon>-6.24357</departure_coordinates_lon><departure_coordinates_lat>53.42728</departure_coordinates_lat><departure_country_code>IE</departure_country_code><departure_country_name>Ireland</departure_country_name><departure_city_code>DUB</departure_city_code><departure_city_name>Dublin</departure_city_name><arrival_airport_iata>WMI</arrival_airport_iata><arrival_name_airport>Modlin</arrival_name_airport><arrival_coordinates_lon>20.651667</arrival_coordinates_lon><arrival_coordinates_lat>52.45111</arrival_coordinates_lat><arrival_country_code>PL</arrival_country_code><arrival_country_name>Poland</arrival_country_name><arrival_city_code>WMI</arrival_city_code><arrival_city_name>Nowy Dwor Mazowiecki</arrival_city_name><planes>738</planes><plane_name>Boeing 737-800</plane_name></routes><routes><airline_iata>FR</airline_iata><departure_airport_iata>DUB</departure_airport_iata><departure_name_airport>Dublin International</departure_name_airport><departure_coordinates_lon>-6.24357</departure_coordinates_lon><departure_coordinates_lat>53.42728</departure_coordinates_lat><departure_country_code>IE</departure_country_code><departure_country_name>Ireland</departure_country_name><departure_city_code>DUB</departure_city_code><departure_city_name>Dublin</departure_city_name><arrival_airport_iata>WRO</arrival_airport_iata><arrival_name_airport>Copernicus Airport</arrival_name_airport><arrival_coordinates_lon>16.899403</arrival_coordinates_lon><arrival_coordinates_lat>51.10482</arrival_coordinates_lat><arrival_country_code>PL</arrival_country_code><arrival_country_name>Poland</arrival_country_name><arrival_city_code>WRO</arrival_city_code><arrival_city_name>Wroclaw</arrival_city_name><planes>738</planes><plane_name>Boeing 737-800</plane_name></routes><routes><airline_iata>FR</airline_iata><departure_airport_iata>EDI</departure_airport_iata><departure_name_airport>Edinburgh</departure_name_airport><departure_coordinates_lon>-3.364177</departure_coordinates_lon><departure_coordinates_lat>55.948143</departure_coordinates_lat><departure_country_code>GB</departure_country_code><departure_country_name>United Kingdom</departure_country_name><departure_city_code>EDI</departure_city_code><departure_city_name>Edinburgh</departure_city_name><arrival_airport_iata>GDN</arrival_airport_iata><arrival_name_airport>Lech Walesa</arrival_name_airport><arrival_coordinates_lon>18.468655</arrival_coordinates_lon><arrival_coordinates_lat>54.380978</arrival_coordinates_lat><arrival_country_code>PL</arrival_country_code><arrival_country_name>Poland</arrival_country_name><arrival_city_code>GDN</arrival_city_code><arrival_city_name>Gdansk</arrival_city_name><planes>738</planes><plane_name>Boeing 737-800</plane_name></routes><routes><airline_iata>FR</airline_iata><departure_airport_iata>EDI</departure_airport_iata><departure_name_airport>Edinburgh</departure_name_airport><departure_coordinates_lon>-3.364177</departure_coordinates_lon><departure_coordinates_lat>55.948143</departure_coordinates_lat><departure_country_code>GB</departure_country_code><departure_country_name>United Kingdom</departure_country_name><departure_city_code>EDI</departure_city_code><departure_city_name>Edinburgh</departure_city_name><arrival_airport_iata>KRK</arrival_airport_iata><arrival_name_airport>John Paul II Balice International</arrival_name_airport><arrival_coordinates_lon>19.793743</arrival_coordinates_lon><arrival_coordinates_lat>50.075493</arrival_coordinates_lat><arrival_country_code>PL</arrival_country_code><arrival_country_name>Poland</arrival_country_name><arrival_city_code>KRK</arrival_city_code><arrival_city_name>Krakow</arrival_city_name><planes>738</planes><plane_name>Boeing 737-800</plane_name></routes><routes><airline_iata>FR</airline_iata><departure_airport_iata>EDI</departure_airport_iata><departure_name_airport>Edinburgh</departure_name_airport><departure_coordinates_lon>-3.364177</departure_coordinates_lon><departure_coordinates_lat>55.948143</departure_coordinates_lat><departure_country_code>GB</departure_country_code><departure_country_name>United Kingdom</departure_country_name><departure_city_code>EDI</departure_city_code><departure_city_name>Edinburgh</departure_city_name><arrival_airport_iata>LCJ</arrival_airport_iata><arrival_name_airport>Lodz Lublinek</arrival_name_airport><arrival_coordinates_lon>19.398333</arrival_coordinates_lon><arrival_coordinates_lat>51.721943</arrival_coordinates_lat><arrival_country_code>PL</arrival_country_code><arrival_country_name>Poland</arrival_country_name><arrival_city_code>LCJ</arrival_city_code><arrival_city_name>Lodz</arrival_city_name><planes>738</planes><plane_name>Boeing 737-800</plane_name></routes><routes><airline_iata>FR</airline_iata><departure_airport_iata>EDI</departure_airport_iata><departure_name_airport>Edinburgh</departure_name_airport><departure_coordinates_lon>-3.364177</departure_coordinates_lon><departure_coordinates_lat>55.948143</departure_coordinates_lat><departure_country_code>GB</departure_country_code><departure_country_name>United Kingdom</departure_country_name><departure_city_code>EDI</departure_city_code><departure_city_name>Edinburgh</departure_city_name><arrival_airport_iata>POZ</arrival_airport_iata><arrival_name_airport>Lawica</arrival_name_airport><arrival_coordinates_lon>16.828844</arrival_coordinates_lon><arrival_coordinates_lat>52.414326</arrival_coordinates_lat><arrival_country_code>PL</arrival_country_code><arrival_country_name>Poland</arrival_country_name><arrival_city_code>POZ</arrival_city_code><arrival_city_name>Poznan</arrival_city_name><planes>738</planes><plane_name>Boeing 737-800</plane_name></routes><routes><airline_iata>FR</airline_iata><departure_airport_iata>EDI</departure_airport_iata><departure_name_airport>Edinburgh</departure_name_airport><departure_coordinates_lon>-3.364177</departure_coordinates_lon><departure_coordinates_lat>55.948143</departure_coordinates_lat><departure_country_code>GB</departure_country_code><departure_country_name>United Kingdom</departure_country_name><departure_city_code>EDI</departure_city_code><departure_city_name>Edinburgh</departure_city_name><arrival_airport_iata>SZZ</arrival_airport_iata><arrival_name_airport>Goleniow</arrival_name_airport><arrival_coordinates_lon>14.894611</arrival_coordinates_lon><arrival_coordinates_lat>53.593525</arrival_coordinates_lat><arrival_country_code>PL</arrival_country_code><arrival_country_name>Poland</arrival_country_name><arrival_city_code>SZZ</arrival_city_code><arrival_city_name>Szczecin</arrival_city_name><planes>738</planes><plane_name>Boeing 737-800</plane_name></routes><routes><airline_iata>FR</airline_iata><departure_airport_iata>EIN</departure_airport_iata><departure_name_airport>Eindhoven</departure_name_airport><departure_coordinates_lon>5.391795</departure_coordinates_lon><departure_coordinates_lat>51.457954</departure_coordinates_lat><departure_country_code>NL</departure_country_code><departure_country_name>Netherlands</departure_country_name><departure_city_code>EIN</departure_city_code><departure_city_name>Eindhoven</departure_city_name><arrival_airport_iata>GDN</arrival_airport_iata><arrival_name_airport>Lech Walesa</arrival_name_airport><arrival_coordinates_lon>18.468655</arrival_coordinates_lon><arrival_coordinates_lat>54.380978</arrival_coordinates_lat><arrival_country_code>PL</arrival_country_code><arrival_country_name>Poland</arrival_country_name><arrival_city_code>GDN</arrival_city_code><arrival_city_name>Gdansk</arrival_city_name><planes>738</planes><plane_name>Boeing 737-800</plane_name></routes><routes><airline_iata>FR</airline_iata><departure_airport_iata>EIN</departure_airport_iata><departure_name_airport>Eindhoven</departure_name_airport><departure_coordinates_lon>5.391795</departure_coordinates_lon><departure_coordinates_lat>51.457954</departure_coordinates_lat><departure_country_code>NL</departure_country_code><departure_country_name>Netherlands</departure_country_name><departure_city_code>EIN</departure_city_code><departure_city_name>Eindhoven</departure_city_name><arrival_airport_iata>KRK</arrival_airport_iata><arrival_name_airport>John Paul II Balice International</arrival_name_airport><arrival_coordinates_lon>19.793743</arrival_coordinates_lon><arrival_coordinates_lat>50.075493</arrival_coordinates_lat><arrival_country_code>PL</arrival_country_code><arrival_country_name>Poland</arrival_country_name><arrival_city_code>KRK</arrival_city_code><arrival_city_name>Krakow</arrival_city_name><planes>738</planes><plane_name>Boeing 737-800</plane_name></routes><routes><airline_iata>FR</airline_iata><departure_airport_iata>EMA</departure_airport_iata><departure_name_airport>East Midlands</departure_name_airport><departure_coordinates_lon>-1.330595</departure_coordinates_lon><departure_coordinates_lat>52.82587</departure_coordinates_lat><departure_country_code>GB</departure_country_code><departure_country_name>United Kingdom</departure_country_name><departure_city_code>NQT</departure_city_code><departure_city_name>Nottingham</departure_city_name><arrival_airport_iata>KRK</arrival_airport_iata><arrival_name_airport>John Paul II Balice International</arrival_name_airport><arrival_coordinates_lon>19.793743</arrival_coordinates_lon><arrival_coordinates_lat>50.075493</arrival_coordinates_lat><arrival_country_code>PL</arrival_country_code><arrival_country_name>Poland</arrival_country_name><arrival_city_code>KRK</arrival_city_code><arrival_city_name>Krakow</arrival_city_name><planes>738</planes><plane_name>Boeing 737-800</plane_name></routes><routes><airline_iata>FR</airline_iata><departure_airport_iata>EMA</departure_airport_iata><departure_name_airport>East Midlands</departure_name_airport><departure_coordinates_lon>-1.330595</departure_coordinates_lon><departure_coordinates_lat>52.82587</departure_coordinates_lat><departure_country_code>GB</departure_country_code><departure_country_name>United Kingdom</departure_country_name><departure_city_code>NQT</departure_city_code><departure_city_name>Nottingham</departure_city_name><arrival_airport_iata>LCJ</arrival_airport_iata><arrival_name_airport>Lodz Lublinek</arrival_name_airport><arrival_coordinates_lon>19.398333</arrival_coordinates_lon><arrival_coordinates_lat>51.721943</arrival_coordinates_lat><arrival_country_code>PL</arrival_country_code><arrival_country_name>Poland</arrival_country_name><arrival_city_code>LCJ</arrival_city_code><arrival_city_name>Lodz</arrival_city_name><planes>738</planes><plane_name>Boeing 737-800</plane_name></routes><routes><airline_iata>FR</airline_iata><departure_airport_iata>EMA</departure_airport_iata><departure_name_airport>East Midlands</departure_name_airport><departure_coordinates_lon>-1.330595</departure_coordinates_lon><departure_coordinates_lat>52.82587</departure_coordinates_lat><departure_country_code>GB</departure_country_code><departure_country_name>United Kingdom</departure_country_name><departure_city_code>NQT</departure_city_code><departure_city_name>Nottingham</departure_city_name><arrival_airport_iata>RZE</arrival_airport_iata><arrival_name_airport>Jasionka</arrival_name_airport><arrival_coordinates_lon>22.03133</arrival_coordinates_lon><arrival_coordinates_lat>50.11525</arrival_coordinates_lat><arrival_country_code>PL</arrival_country_code><arrival_country_name>Poland</arrival_country_name><arrival_city_code>RZE</arrival_city_code><arrival_city_name>Rzeszow</arrival_city_name><planes>738</planes><plane_name>Boeing 737-800</plane_name></routes><routes><airline_iata>FR</airline_iata><departure_airport_iata>EMA</departure_airport_iata><departure_name_airport>East Midlands</departure_name_airport><departure_coordinates_lon>-1.330595</departure_coordinates_lon><departure_coordinates_lat>52.82587</departure_coordinates_lat><departure_country_code>GB</departure_country_code><departure_country_name>United Kingdom</departure_country_name><departure_city_code>NQT</departure_city_code><departure_city_name>Nottingham</departure_city_name><arrival_airport_iata>WRO</arrival_airport_iata><arrival_name_airport>Copernicus Airport</arrival_name_airport><arrival_coordinates_lon>16.899403</arrival_coordinates_lon><arrival_coordinates_lat>51.10482</arrival_coordinates_lat><arrival_country_code>PL</arrival_country_code><arrival_country_name>Poland</arrival_country_name><arrival_city_code>WRO</arrival_city_code><arrival_city_name>Wroclaw</arrival_city_name><planes>738</planes><plane_name>Boeing 737-800</plane_name></routes><routes><airline_iata>FR</airline_iata><departure_airport_iata>GRO</departure_airport_iata><departure_name_airport>Girona-Costa Brava</departure_name_airport><departure_coordinates_lon>2.766383</departure_coordinates_lon><departure_coordinates_lat>41.89804</departure_coordinates_lat><departure_country_code>ES</departure_country_code><departure_country_name>Spain</departure_country_name><departure_city_code>GRO</departure_city_code><departure_city_name>Gerona</departure_city_name><arrival_airport_iata>BZG</arrival_airport_iata><arrival_name_airport>Bydgoszcz I. J. Paderewski Airport</arrival_name_airport><arrival_coordinates_lon>17.978611</arrival_coordinates_lon><arrival_coordinates_lat>53.09667</arrival_coordinates_lat><arrival_country_code>PL</arrival_country_code><arrival_country_name>Poland</arrival_country_name><arrival_city_code>BZG</arrival_city_code><arrival_city_name>Bydgoszcz</arrival_city_name><planes>738</planes><plane_name>Boeing 737-800</plane_name></routes><routes><airline_iata>FR</airline_iata><departure_airport_iata>GRO</departure_airport_iata><departure_name_airport>Girona-Costa Brava</departure_name_airport><departure_coordinates_lon>2.766383</departure_coordinates_lon><departure_coordinates_lat>41.89804</departure_coordinates_lat><departure_country_code>ES</departure_country_code><departure_country_name>Spain</departure_country_name><departure_city_code>GRO</departure_city_code><departure_city_name>Gerona</departure_city_name><arrival_airport_iata>GDN</arrival_airport_iata><arrival_name_airport>Lech Walesa</arrival_name_airport><arrival_coordinates_lon>18.468655</arrival_coordinates_lon><arrival_coordinates_lat>54.380978</arrival_coordinates_lat><arrival_country_code>PL</arrival_country_code><arrival_country_name>Poland</arrival_country_name><arrival_city_code>GDN</arrival_city_code><arrival_city_name>Gdansk</arrival_city_name><planes>738</planes><plane_name>Boeing 737-800</plane_name></routes><routes><airline_iata>FR</airline_iata><departure_airport_iata>GRO</departure_airport_iata><departure_name_airport>Girona-Costa Brava</departure_name_airport><departure_coordinates_lon>2.766383</departure_coordinates_lon><departure_coordinates_lat>41.89804</departure_coordinates_lat><departure_country_code>ES</departure_country_code><departure_country_name>Spain</departure_country_name><departure_city_code>GRO</departure_city_code><departure_city_name>Gerona</departure_city_name><arrival_airport_iata>KRK</arrival_airport_iata><arrival_name_airport>John Paul II Balice International</arrival_name_airport><arrival_coordinates_lon>19.793743</arrival_coordinates_lon><arrival_coordinates_lat>50.075493</arrival_coordinates_lat><arrival_country_code>PL</arrival_country_code><arrival_country_name>Poland</arrival_country_name><arrival_city_code>KRK</arrival_city_code><arrival_city_name>Krakow</arrival_city_name><planes>738</planes><plane_name>Boeing 737-800</plane_name></routes><routes><airline_iata>FR</airline_iata><departure_airport_iata>GRO</departure_airport_iata><departure_name_airport>Girona-Costa Brava</departure_name_airport><departure_coordinates_lon>2.766383</departure_coordinates_lon><departure_coordinates_lat>41.89804</departure_coordinates_lat><departure_country_code>ES</departure_country_code><departure_country_name>Spain</departure_country_name><departure_city_code>GRO</departure_city_code><departure_city_name>Gerona</departure_city_name><arrival_airport_iata>RZE</arrival_airport_iata><arrival_name_airport>Jasionka</arrival_name_airport><arrival_coordinates_lon>22.03133</arrival_coordinates_lon><arrival_coordinates_lat>50.11525</arrival_coordinates_lat><arrival_country_code>PL</arrival_country_code><arrival_country_name>Poland</arrival_country_name><arrival_city_code>RZE</arrival_city_code><arrival_city_name>Rzeszow</arrival_city_name><planes>738</planes><plane_name>Boeing 737-800</plane_name></routes><routes><airline_iata>FR</airline_iata><departure_airport_iata>GRO</departure_airport_iata><departure_name_airport>Girona-Costa Brava</departure_name_airport><departure_coordinates_lon>2.766383</departure_coordinates_lon><departure_coordinates_lat>41.89804</departure_coordinates_lat><departure_country_code>ES</departure_country_code><departure_country_name>Spain</departure_country_name><departure_city_code>GRO</departure_city_code><departure_city_name>Gerona</departure_city_name><arrival_airport_iata>WRO</arrival_airport_iata><arrival_name_airport>Copernicus Airport</arrival_name_airport><arrival_coordinates_lon>16.899403</arrival_coordinates_lon><arrival_coordinates_lat>51.10482</arrival_coordinates_lat><arrival_country_code>PL</arrival_country_code><arrival_country_name>Poland</arrival_country_name><arrival_city_code>WRO</arrival_city_code><arrival_city_name>Wroclaw</arrival_city_name><planes>738</planes><plane_name>Boeing 737-800</plane_name></routes><routes><airline_iata>FR</airline_iata><departure_airport_iata>LBA</departure_airport_iata><departure_name_airport>Leeds/bradford</departure_name_airport><departure_coordinates_lon>-1.659985</departure_coordinates_lon><departure_coordinates_lat>53.86934</departure_coordinates_lat><departure_country_code>GB</departure_country_code><departure_country_name>United Kingdom</departure_country_name><departure_city_code>LBA</departure_city_code><departure_city_name>Leeds</departure_city_name><arrival_airport_iata>GDN</arrival_airport_iata><arrival_name_airport>Lech Walesa</arrival_name_airport><arrival_co