<?xml version="1.0" encoding="utf-8"?>
<route><routes><airline_iata>9W</airline_iata><departure_airport_iata>BOM</departure_airport_iata><departure_name_airport>Chhatrapati Shivaji International (Sahar International)</departure_name_airport><departure_coordinates_lon>72.87497</departure_coordinates_lon><departure_coordinates_lat>19.095509</departure_coordinates_lat><departure_country_code>IN</departure_country_code><departure_country_name>India</departure_country_name><departure_city_code>BOM</departure_city_code><departure_city_name>Mumbai</departure_city_name><arrival_airport_iata>DOH</arrival_airport_iata><arrival_name_airport>Doha International</arrival_name_airport><arrival_coordinates_lon>51.558067</arrival_coordinates_lon><arrival_coordinates_lat>25.267569</arrival_coordinates_lat><arrival_country_code>QA</arrival_country_code><arrival_country_name>Qatar</arrival_country_name><arrival_city_code>DOH</arrival_city_code><arrival_city_name>Doha</arrival_city_name><planes>73H</planes><plane_name>Boeing 737-800 With Winglets</plane_name></routes><routes><airline_iata>9W</airline_iata><departure_airport_iata>COK</departure_airport_iata><departure_name_airport>Cochin International</departure_name_airport><departure_coordinates_lon>76.39053</departure_coordinates_lon><departure_coordinates_lat>10.155644</departure_coordinates_lat><departure_country_code>IN</departure_country_code><departure_country_name>India</departure_country_name><departure_city_code>COK</departure_city_code><departure_city_name>Kochi</departure_city_name><arrival_airport_iata>DOH</arrival_airport_iata><arrival_name_airport>Doha International</arrival_name_airport><arrival_coordinates_lon>51.558067</arrival_coordinates_lon><arrival_coordinates_lat>25.267569</arrival_coordinates_lat><arrival_country_code>QA</arrival_country_code><arrival_country_name>Qatar</arrival_country_name><arrival_city_code>DOH</arrival_city_code><arrival_city_name>Doha</arrival_city_name><planes>73H</planes><plane_name>Boeing 737-800 With Winglets</plane_name></routes><routes><airline_iata>9W</airline_iata><departure_airport_iata>DEL</departure_airport_iata><departure_name_airport>Indira Gandhi International</departure_name_airport><departure_coordinates_lon>77.10079</departure_coordinates_lon><departure_coordinates_lat>28.556555</departure_coordinates_lat><departure_country_code>IN</departure_country_code><departure_country_name>India</departure_country_name><departure_city_code>DEL</departure_city_code><departure_city_name>New Delhi</departure_city_name><arrival_airport_iata>DOH</arrival_airport_iata><arrival_name_airport>Doha International</arrival_name_airport><arrival_coordinates_lon>51.558067</arrival_coordinates_lon><arrival_coordinates_lat>25.267569</arrival_coordinates_lat><arrival_country_code>QA</arrival_country_code><arrival_country_name>Qatar</arrival_country_name><arrival_city_code>DOH</arrival_city_code><arrival_city_name>Doha</arrival_city_name><planes>73H</planes><plane_name>Boeing 737-800 With Winglets</plane_name></routes><routes><airline_iata>AA</airline_iata><departure_airport_iata>BAH</departure_airport_iata><departure_name_airport>Bahrain International</departure_name_airport><departure_coordinates_lon>50.62605</departure_coordinates_lon><departure_coordinates_lat>26.26918</departure_coordinates_lat><departure_country_code>BH</departure_country_code><departure_country_name>Bahrain</departure_country_name><departure_city_code>BAH</departure_city_code><departure_city_name>Manama</departure_city_name><arrival_airport_iata>DOH</arrival_airport_iata><arrival_name_airport>Doha International</arrival_name_airport><arrival_coordinates_lon>51.558067</arrival_coordinates_lon><arrival_coordinates_lat>25.267569</arrival_coordinates_lat><arrival_country_code>QA</arrival_country_code><arrival_country_name>Qatar</arrival_country_name><arrival_city_code>DOH</arrival_city_code><arrival_city_name>Doha</arrival_city_name><planes>777</planes><plane_name>Boeing 777</plane_name></routes><routes><airline_iata>AC</airline_iata><departure_airport_iata>BAH</departure_airport_iata><departure_name_airport>Bahrain International</departure_name_airport><departure_coordinates_lon>50.62605</departure_coordinates_lon><departure_coordinates_lat>26.26918</departure_coordinates_lat><departure_country_code>BH</departure_country_code><departure_country_name>Bahrain</departure_country_name><departure_city_code>BAH</departure_city_code><departure_city_name>Manama</departure_city_name><arrival_airport_iata>DOH</arrival_airport_iata><arrival_name_airport>Doha International</arrival_name_airport><arrival_coordinates_lon>51.558067</arrival_coordinates_lon><arrival_coordinates_lat>25.267569</arrival_coordinates_lat><arrival_country_code>QA</arrival_country_code><arrival_country_name>Qatar</arrival_country_name><arrival_city_code>DOH</arrival_city_code><arrival_city_name>Doha</arrival_city_name><planes>333</planes><plane_name>Airbus Industrie A330-300</plane_name></routes><routes><airline_iata>AC</airline_iata><departure_airport_iata>FRA</departure_airport_iata><departure_name_airport>Frankfurt International Airport</departure_name_airport><departure_coordinates_lon>8.570773</departure_coordinates_lon><departure_coordinates_lat>50.050735</departure_coordinates_lat><departure_country_code>DE</departure_country_code><departure_country_name>Germany</departure_country_name><departure_city_code>FRA</departure_city_code><departure_city_name>Frankfurt</departure_city_name><arrival_airport_iata>DOH</arrival_airport_iata><arrival_name_airport>Doha International</arrival_name_airport><arrival_coordinates_lon>51.558067</arrival_coordinates_lon><arrival_coordinates_lat>25.267569</arrival_coordinates_lat><arrival_country_code>QA</arrival_country_code><arrival_country_name>Qatar</arrival_country_name><arrival_city_code>DOH</arrival_city_code><arrival_city_name>Doha</arrival_city_name><planes>333</planes><plane_name>Airbus Industrie A330-300</plane_name></routes><routes><airline_iata>AF</airline_iata><departure_airport_iata>AMS</departure_airport_iata><departure_name_airport>Schiphol</departure_name_airport><departure_coordinates_lon>4.763385</departure_coordinates_lon><departure_coordinates_lat>52.30907</departure_coordinates_lat><departure_country_code>NL</departure_country_code><departure_country_name>Netherlands</departure_country_name><departure_city_code>AMS</departure_city_code><departure_city_name>Amsterdam</departure_city_name><arrival_airport_iata>DOH</arrival_airport_iata><arrival_name_airport>Doha International</arrival_name_airport><arrival_coordinates_lon>51.558067</arrival_coordinates_lon><arrival_coordinates_lat>25.267569</arrival_coordinates_lat><arrival_country_code>QA</arrival_country_code><arrival_country_name>Qatar</arrival_country_name><arrival_city_code>DOH</arrival_city_code><arrival_city_name>Doha</arrival_city_name><planes>332</planes><plane_name>Airbus Industrie A330-200</plane_name></routes><routes><airline_iata>AF</airline_iata><departure_airport_iata>MCT</departure_airport_iata><departure_name_airport>Seeb</departure_name_airport><departure_coordinates_lon>58.29022</departure_coordinates_lon><departure_coordinates_lat>23.588078</departure_coordinates_lat><departure_country_code>OM</departure_country_code><departure_country_name>Oman</departure_country_name><departure_city_code>MCT</departure_city_code><departure_city_name>Muscat</departure_city_name><arrival_airport_iata>DOH</arrival_airport_iata><arrival_name_airport>Doha International</arrival_name_airport><arrival_coordinates_lon>51.558067</arrival_coordinates_lon><arrival_coordinates_lat>25.267569</arrival_coordinates_lat><arrival_country_code>QA</arrival_country_code><arrival_country_name>Qatar</arrival_country_name><arrival_city_code>DOH</arrival_city_code><arrival_city_name>Doha</arrival_city_name><planes>332</planes><plane_name>Airbus Industrie A330-200</plane_name></routes><routes><airline_iata>BA</airline_iata><departure_airport_iata>BAH</departure_airport_iata><departure_name_airport>Bahrain International</departure_name_airport><departure_coordinates_lon>50.62605</departure_coordinates_lon><departure_coordinates_lat>26.26918</departure_coordinates_lat><departure_country_code>BH</departure_country_code><departure_country_name>Bahrain</departure_country_name><departure_city_code>BAH</departure_city_code><departure_city_name>Manama</departure_city_name><arrival_airport_iata>DOH</arrival_airport_iata><arrival_name_airport>Doha International</arrival_name_airport><arrival_coordinates_lon>51.558067</arrival_coordinates_lon><arrival_coordinates_lat>25.267569</arrival_coordinates_lat><arrival_country_code>QA</arrival_country_code><arrival_country_name>Qatar</arrival_country_name><arrival_city_code>DOH</arrival_city_code><arrival_city_name>Doha</arrival_city_name><planes>777</planes><plane_name>Boeing 777</plane_name></routes><routes><airline_iata>BG</airline_iata><departure_airport_iata>DAC</departure_airport_iata><departure_name_airport>Zia International</departure_name_airport><departure_coordinates_lon>90.405876</departure_coordinates_lon><departure_coordinates_lat>23.848648</departure_coordinates_lat><departure_country_code>BD</departure_country_code><departure_country_name>Bangladesh</departure_country_name><departure_city_code>DAC</departure_city_code><departure_city_name>Dhaka</departure_city_name><arrival_airport_iata>DOH</arrival_airport_iata><arrival_name_airport>Doha International</arrival_name_airport><arrival_coordinates_lon>51.558067</arrival_coordinates_lon><arrival_coordinates_lat>25.267569</arrival_coordinates_lat><arrival_country_code>QA</arrival_country_code><arrival_country_name>Qatar</arrival_country_name><arrival_city_code>DOH</arrival_city_code><arrival_city_name>Doha</arrival_city_name><planes>313</planes><plane_name>Airbus Industrie A310-300</plane_name></routes><routes><airline_iata>BN</airline_iata><departure_airport_iata>BAH</departure_airport_iata><departure_name_airport>Bahrain International</departure_name_airport><departure_coordinates_lon>50.62605</departure_coordinates_lon><departure_coordinates_lat>26.26918</departure_coordinates_lat><departure_country_code>BH</departure_country_code><departure_country_name>Bahrain</departure_country_name><departure_city_code>BAH</departure_city_code><departure_city_name>Manama</departure_city_name><arrival_airport_iata>DOH</arrival_airport_iata><arrival_name_airport>Doha International</arrival_name_airport><arrival_coordinates_lon>51.558067</arrival_coordinates_lon><arrival_coordinates_lat>25.267569</arrival_coordinates_lat><arrival_country_code>QA</arrival_country_code><arrival_country_name>Qatar</arrival_country_name><arrival_city_code>DOH</arrival_city_code><arrival_city_name>Doha</arrival_city_name><planes>320</planes><plane_name>Airbus Industrie A320</plane_name></routes><routes><airline_iata>DL</airline_iata><departure_airport_iata>AMS</departure_airport_iata><departure_name_airport>Schiphol</departure_name_airport><departure_coordinates_lon>4.763385</departure_coordinates_lon><departure_coordinates_lat>52.30907</departure_coordinates_lat><departure_country_code>NL</departure_country_code><departure_country_name>Netherlands</departure_country_name><departure_city_code>AMS</departure_city_code><departure_city_name>Amsterdam</departure_city_name><arrival_airport_iata>DOH</arrival_airport_iata><arrival_name_airport>Doha International</arrival_name_airport><arrival_coordinates_lon>51.558067</arrival_coordinates_lon><arrival_coordinates_lat>25.267569</arrival_coordinates_lat><arrival_country_code>QA</arrival_country_code><arrival_country_name>Qatar</arrival_country_name><arrival_city_code>DOH</arrival_city_code><arrival_city_name>Doha</arrival_city_name><planes>332</planes><plane_name>Airbus Industrie A330-200</plane_name></routes><routes><airline_iata>DL</airline_iata><departure_airport_iata>MCT</departure_airport_iata><departure_name_airport>Seeb</departure_name_airport><departure_coordinates_lon>58.29022</departure_coordinates_lon><departure_coordinates_lat>23.588078</departure_coordinates_lat><departure_country_code>OM</departure_country_code><departure_country_name>Oman</departure_country_name><departure_city_code>MCT</departure_city_code><departure_city_name>Muscat</departure_city_name><arrival_airport_iata>DOH</arrival_airport_iata><arrival_name_airport>Doha International</arrival_name_airport><arrival_coordinates_lon>51.558067</arrival_coordinates_lon><arrival_coordinates_lat>25.267569</arrival_coordinates_lat><arrival_country_code>QA</arrival_country_code><arrival_country_name>Qatar</arrival_country_name><arrival_city_code>DOH</arrival_city_code><arrival_city_name>Doha</arrival_city_name><planes>332</planes><plane_name>Airbus Industrie A330-200</plane_name></routes><routes><airline_iata>EK</airline_iata><departure_airport_iata>DXB</departure_airport_iata><departure_name_airport>Dubai</departure_name_airport><departure_coordinates_lon>55.352917</departure_coordinates_lon><departure_coordinates_lat>25.248665</departure_coordinates_lat><departure_country_code>AE</departure_country_code><departure_country_name>United Arab Emirates</departure_country_name><departure_city_code>DXB</departure_city_code><departure_city_name>Dubai</departure_city_name><arrival_airport_iata>DOH</arrival_airport_iata><arrival_name_airport>Doha International</arrival_name_airport><arrival_coordinates_lon>51.558067</arrival_coordinates_lon><arrival_coordinates_lat>25.267569</arrival_coordinates_lat><arrival_country_code>QA</arrival_country_code><arrival_country_name>Qatar</arrival_country_name><arrival_city_code>DOH</arrival_city_code><arrival_city_name>Doha</arrival_city_name><planes>332</planes><plane_name>Airbus Industrie A330-200</plane_name></routes><routes><airline_iata>EP</airline_iata><departure_airport_iata>BND</departure_airport_iata><departure_name_airport>Bandar Abbas</departure_name_airport><departure_coordinates_lon>56.368385</departure_coordinates_lon><departure_coordinates_lat>27.21059</departure_coordinates_lat><departure_country_code>IR</departure_country_code><departure_country_name>Iran</departure_country_name><departure_city_code>BND</departure_city_code><departure_city_name>Bandar Abbas</departure_city_name><arrival_airport_iata>DOH</arrival_airport_iata><arrival_name_airport>Doha International</arrival_name_airport><arrival_coordinates_lon>51.558067</arrival_coordinates_lon><arrival_coordinates_lat>25.267569</arrival_coordinates_lat><arrival_country_code>QA</arrival_country_code><arrival_country_name>Qatar</arrival_country_name><arrival_city_code>DOH</arrival_city_code><arrival_city_name>Doha</arrival_city_name><planes>100</planes><plane_name>Fokker 100</plane_name></routes><routes><airline_iata>EP</airline_iata><departure_airport_iata>LFM</departure_airport_iata><departure_name_airport>Lamerd</departure_name_airport><departure_coordinates_lon>53.190926</departure_coordinates_lon><departure_coordinates_lat>27.37412</departure_coordinates_lat><departure_country_code>IR</departure_country_code><departure_country_name>Iran</departure_country_name><departure_city_code>LFM</departure_city_code><departure_city_name>Lamerd</departure_city_name><arrival_airport_iata>DOH</arrival_airport_iata><arrival_name_airport>Doha International</arrival_name_airport><arrival_coordinates_lon>51.558067</arrival_coordinates_lon><arrival_coordinates_lat>25.267569</arrival_coordinates_lat><arrival_country_code>QA</arrival_country_code><arrival_country_name>Qatar</arrival_country_name><arrival_city_code>DOH</arrival_city_code><arrival_city_name>Doha</arrival_city_name><planes>100</planes><plane_name>Fokker 100</plane_name></routes><routes><airline_iata>EY</airline_iata><departure_airport_iata>AUH</departure_airport_iata><departure_name_airport>Abu Dhabi International</departure_name_airport><departure_coordinates_lon>54.645973</departure_coordinates_lon><departure_coordinates_lat>24.426912</departure_coordinates_lat><departure_country_code>AE</departure_country_code><departure_country_name>United Arab Emirates</departure_country_name><departure_city_code>AUH</departure_city_code><departure_city_name>Abu Dhabi</departure_city_name><arrival_airport_iata>DOH</arrival_airport_iata><arrival_name_airport>Doha International</arrival_name_airport><arrival_coordinates_lon>51.558067</arrival_coordinates_lon><arrival_coordinates_lat>25.267569</arrival_coordinates_lat><arrival_country_code>QA</arrival_country_code><arrival_country_name>Qatar</arrival_country_name><arrival_city_code>DOH</arrival_city_code><arrival_city_name>Doha</arrival_city_name><planes>320</planes><plane_name>Airbus Industrie A320</plane_name></routes><routes><airline_iata>FZ</airline_iata><departure_airport_iata>DXB</departure_airport_iata><departure_name_airport>Dubai</departure_name_airport><departure_coordinates_lon>55.352917</departure_coordinates_lon><departure_coordinates_lat>25.248665</departure_coordinates_lat><departure_country_code>AE</departure_country_code><departure_country_name>United Arab Emirates</departure_country_name><departure_city_code>DXB</departure_city_code><departure_city_name>Dubai</departure_city_name><arrival_airport_iata>DOH</arrival_airport_iata><arrival_name_airport>Doha International</arrival_name_airport><arrival_coordinates_lon>51.558067</arrival_coordinates_lon><arrival_coordinates_lat>25.267569</arrival_coordinates_lat><arrival_country_code>QA</arrival_country_code><arrival_country_name>Qatar</arrival_country_name><arrival_city_code>DOH</arrival_city_code><arrival_city_name>Doha</arrival_city_name><planes>73H</planes><plane_name>Boeing 737-800 With Winglets</plane_name></routes><routes><airline_iata>G9</airline_iata><departure_airport_iata>SHJ</departure_airport_iata><departure_name_airport>Sharjah</departure_name_airport><departure_coordinates_lon>55.52029</departure_coordinates_lon><departure_coordinates_lat>25.320873</departure_coordinates_lat><departure_country_code>AE</departure_country_code><departure_country_name>United Arab Emirates</departure_country_name><departure_city_code>SHJ</departure_city_code><departure_city_name>Sharjah</departure_city_name><arrival_airport_iata>DOH</arrival_airport_iata><arrival_name_airport>Doha International</arrival_name_airport><arrival_coordinates_lon>51.558067</arrival_coordinates_lon><arrival_coordinates_lat>25.267569</arrival_coordinates_lat><arrival_country_code>QA</arrival_country_code><arrival_country_name>Qatar</arrival_country_name><arrival_city_code>DOH</arrival_city_code><arrival_city_name>Doha</arrival_city_name><planes>320</planes><plane_name>Airbus Industrie A320</plane_name></routes><routes><airline_iata>GF</airline_iata><departure_airport_iata>BAH</departure_airport_iata><departure_name_airport>Bahrain International</departure_name_airport><departure_coordinates_lon>50.62605</departure_coordinates_lon><departure_coordinates_lat>26.26918</departure_coordinates_lat><departure_country_code>BH</departure_country_code><departure_country_name>Bahrain</departure_country_name><departure_city_code>BAH</departure_city_code><departure_city_name>Manama</departure_city_name><arrival_airport_iata>DOH</arrival_airport_iata><arrival_name_airport>Doha International</arrival_name_airport><arrival_coordinates_lon>51.558067</arrival_coordinates_lon><arrival_coordinates_lat>25.267569</arrival_coordinates_lat><arrival_country_code>QA</arrival_country_code><arrival_country_name>Qatar</arrival_country_name><arrival_city_code>DOH</arrival_city_code><arrival_city_name>Doha</arrival_city_name><planes>319</planes><plane_name>Airbus Industrie A319</plane_name></routes><routes><airline_iata>IB</airline_iata><departure_airport_iata>BAH</departure_airport_iata><departure_name_airport>Bahrain International</departure_name_airport><departure_coordinates_lon>50.62605</departure_coordinates_lon><departure_coordinates_lat>26.26918</departure_coordinates_lat><departure_country_code>BH</departure_country_code><departure_country_name>Bahrain</departure_country_name><departure_city_code>BAH</departure_city_code><departure_city_name>Manama</departure_city_name><arrival_airport_iata>DOH</arrival_airport_iata><arrival_name_airport>Doha International</arrival_name_airport><arrival_coordinates_lon>51.558067</arrival_coordinates_lon><arrival_coordinates_lat>25.267569</arrival_coordinates_lat><arrival_country_code>QA</arrival_country_code><arrival_country_name>Qatar</arrival_country_name><arrival_city_code>DOH</arrival_city_code><arrival_city_name>Doha</arrival_city_name><planes>777</planes><plane_name>Boeing 777</plane_name></routes><routes><airline_iata>IR</airline_iata><departure_airport_iata>LRR</departure_airport_iata><departure_name_airport>Lar Airport</departure_name_airport><departure_coordinates_lon>54.38276</departure_coordinates_lon><departure_coordinates_lat>27.66969</departure_coordinates_lat><departure_country_code>IR</departure_country_code><departure_country_name>Iran</departure_country_name><departure_city_code>LRR</departure_city_code><departure_city_name>Lar</departure_city_name><arrival_airport_iata>DOH</arrival_airport_iata><arrival_name_airport>Doha International</arrival_name_airport><arrival_coordinates_lon>51.558067</arrival_coordinates_lon><arrival_coordinates_lat>25.267569</arrival_coordinates_lat><arrival_country_code>QA</arrival_country_code><arrival_country_name>Qatar</arrival_country_name><arrival_city_code>DOH</arrival_city_code><arrival_city_name>Doha</arrival_city_name><planes>100</planes><plane_name>Fokker 100</plane_name></routes><routes><airline_iata>IR</airline_iata><departure_airport_iata>SYZ</departure_airport_iata><departure_name_airport>Shahid Dastghaib International</departure_name_airport><departure_coordinates_lon>52.58997</departure_coordinates_lon><departure_coordinates_lat>29.54613</departure_coordinates_lat><departure_country_code>IR</departure_country_code><departure_country_name>Iran</departure_country_name><departure_city_code>SYZ</departure_city_code><departure_city_name>Shiraz</departure_city_name><arrival_airport_iata>DOH</arrival_airport_iata><arrival_name_airport>Doha International</arrival_name_airport><arrival_coordinates_lon>51.558067</arrival_coordinates_lon><arrival_coordinates_lat>25.267569</arrival_coordinates_lat><arrival_country_code>QA</arrival_country_code><arrival_country_name>Qatar</arrival_country_name><arrival_city_code>DOH</arrival_city_code><arrival_city_name>Doha</arrival_city_name><planes>722</planes><plane_name>Boeing 727-200</plane_name></routes><routes><airline_iata>IX</airline_iata><departure_airport_iata>BAH</departure_airport_iata><departure_name_airport>Bahrain International</departure_name_airport><departure_coordinates_lon>50.62605</departure_coordinates_lon><departure_coordinates_lat>26.26918</departure_coordinates_lat><departure_country_code>BH</departure_country_code><departure_country_name>Bahrain</departure_country_name><departure_city_code>BAH</departure_city_code><departure_city_name>Manama</departure_city_name><arrival_airport_iata>DOH</arrival_airport_iata><arrival_name_airport>Doha International</arrival_name_airport><arrival_coordinates_lon>51.558067</arrival_coordinates_lon><arrival_coordinates_lat>25.267569</arrival_coordinates_lat><arrival_country_code>QA</arrival_country_code><arrival_country_name>Qatar</arrival_country_name><arrival_city_code>DOH</arrival_city_code><arrival_city_name>Doha</arrival_city_name><planes>738</planes><plane_name>Boeing 737-800</plane_name></routes><routes><airline_iata>IX</airline_iata><departure_airport_iata>IXE</departure_airport_iata><departure_name_airport>Bajpe</departure_name_airport><departure_coordinates_lon>74.890144</departure_coordinates_lon><departure_coordinates_lat>12.963543</departure_coordinates_lat><departure_country_code>IN</departure_country_code><departure_country_name>India</departure_country_name><departure_city_code>IXE</departure_city_code><departure_city_name>Mangalore</departure_city_name><arrival_airport_iata>DOH</arrival_airport_iata><arrival_name_airport>Doha International</arrival_name_airport><arrival_coordinates_lon>51.558067</arrival_coordinates_lon><arrival_coordinates_lat>25.267569</arrival_coordinates_lat><arrival_country_code>QA</arrival_country_code><arrival_country_name>Qatar</arrival_country_name><arrival_city_code>DOH</arrival_city_code><arrival_city_name>Doha</arrival_city_name><planes>738</planes><plane_name>Boeing 737-800</plane_name></routes><routes><airline_iata>IY</airline_iata><departure_airport_iata>KWI</departure_airport_iata><departure_name_airport>Kuwait International</departure_name_airport><departure_coordinates_lon>47.971252</departure_coordinates_lon><departure_coordinates_lat>29.240116</departure_coordinates_lat><departure_country_code>KW</departure_country_code><departure_country_name>Kuwait</departure_country_name><departure_city_code>KWI</departure_city_code><departure_city_name>Kuwait City</departure_city_name><arrival_airport_iata>DOH</arrival_airport_iata><arrival_name_airport>Doha International</arrival_name_airport><arrival_coordinates_lon>51.558067</arrival_coordinates_lon><arrival_coordinates_lat>25.267569</arrival_coordinates_lat><arrival_country_code>QA</arrival_country_code><arrival_country_name>Qatar</arrival_country_name><arrival_city_code>DOH</arrival_city_code><arrival_city_name>Doha</arrival_city_name><planes>310</planes><plane_name>Airbus Industrie A310</plane_name></routes><routes><airline_iata>IY</airline_iata><departure_airport_iata>SAH</departure_airport_iata><departure_name_airport>El Rahaba Airport (Sanaa Intenational)</departure_name_airport><departure_coordinates_lon>44.22511</departure_coordinates_lon><departure_coordinates_lat>15.473598</departure_coordinates_lat><departure_country_code>YE</departure_country_code><departure_country_name>Yemen</departure_country_name><departure_city_code>SAH</departure_city_code><departure_city_name>Sanaa</departure_city_name><arrival_airport_iata>DOH</arrival_airport_iata><arrival_name_airport>Doha International</arrival_name_airport><arrival_coordinates_lon>51.558067</arrival_coordinates_lon><arrival_coordinates_lat>25.267569</arrival_coordinates_lat><arrival_country_code>QA</arrival_country_code><arrival_country_name>Qatar</arrival_country_name><arrival_city_code>DOH</arrival_city_code><arrival_city_name>Doha</arrival_city_name><planes>320</planes><plane_name>Airbus Industrie A320</plane_name></routes><routes><airline_iata>J2</airline_iata><departure_airport_iata>GYD</departure_airport_iata><departure_name_airport>Heydar Aliyev International (Bina International)</departure_name_airport><departure_coordinates_lon>50.05039</departure_coordinates_lon><departure_coordinates_lat>40.462486</departure_coordinates_lat><departure_country_code>AZ</departure_country_code><departure_country_name>Azerbaijan</departure_country_name><departure_city_code>BAK</departure_city_code><departure_city_name>Baku</departure_city_name><arrival_airport_iata>DOH</arrival_airport_iata><arrival_name_airport>Doha International</arrival_name_airport><arrival_coordinates_lon>51.558067</arrival_coordinates_lon><arrival_coordinates_lat>25.267569</arrival_coordinates_lat><arrival_country_code>QA</arrival_country_code><arrival_country_name>Qatar</arrival_country_name><arrival_city_code>DOH</arrival_city_code><arrival_city_name>Doha</arrival_city_name><planes>320</planes><plane_name>Airbus Industrie A320</plane_name></routes><routes><airline_iata>KL</airline_iata><departure_airport_iata>AMS</departure_airport_iata><departure_name_airport>Schiphol</departure_name_airport><departure_coordinates_lon>4.763385</departure_coordinates_lon><departure_coordinates_lat>52.30907</departure_coordinates_lat><departure_country_code>NL</departure_country_code><departure_country_name>Netherlands</departure_country_name><departure_city_code>AMS</departure_city_code><departure_city_name>Amsterdam</departure_city_name><arrival_airport_iata>DOH</arrival_airport_iata><arrival_name_airport>Doha International</arrival_name_airport><arrival_coordinates_lon>51.558067</arrival_coordinates_lon><arrival_coordinates_lat>25.267569</arrival_coordinates_lat><arrival_country_code>QA</arrival_country_code><arrival_country_name>Qatar</arrival_country_name><arrival_city_code>DOH</arrival_city_code><arrival_city_name>Doha</arrival_city_name><planes>330</planes><plane_name>Airbus Industrie A330</plane_name></routes><routes><airline_iata>KL</airline_iata><departure_airport_iata>MCT</departure_airport_iata><departure_name_airport>Seeb</departure_name_airport><departure_coordinates_lon>58.29022</departure_coordinates_lon><departure_coordinates_lat>23.588078</departure_coordinates_lat><departure_country_code>OM</departure_country_code><departure_country_name>Oman</departure_country_name><departure_city_code>MCT</departure_city_code><departure_city_name>Muscat</departure_city_name><arrival_airport_iata>DOH</arrival_airport_iata><arrival_name_airport>Doha International</arrival_name_airport><arrival_coordinates_lon>51.558067</arrival_coordinates_lon><arrival_coordinates_lat>25.267569</arrival_coordinates_lat><arrival_country_code>QA</arrival_country_code><arrival_country_name>Qatar</arrival_country_name><arrival_city_code>DOH</arrival_city_code><arrival_city_name>Doha</arrival_city_name><planes>330</planes><plane_name>Airbus Industrie A330</plane_name></routes><routes><airline_iata>KU</airline_iata><departure_airport_iata>KWI</departure_airport_iata><departure_name_airport>Kuwait International</departure_name_airport><departure_coordinates_lon>47.971252</departure_coordinates_lon><departure_coordinates_lat>29.240116</departure_coordinates_lat><departure_country_code>KW</departure_country_code><departure_country_name>Kuwait</departure_country_name><departure_city_code>KWI</departure_city_code><departure_city_name>Kuwait City</departure_city_name><arrival_airport_iata>DOH</arrival_airport_iata><arrival_name_airport>Doha International</arrival_name_airport><arrival_coordinates_lon>51.558067</arrival_coordinates_lon><arrival_coordinates_lat>25.267569</arrival_coordinates_lat><arrival_country_code>QA</arrival_country_code><arrival_country_name>Qatar</arrival_country_name><arrival_city_code>DOH</arrival_city_code><arrival_city_name>Doha</arrival_city_name><planes>320</planes><plane_name>Airbus Industrie A320</plane_name></routes><routes><airline_iata>LH</airline_iata><departure_airport_iata>BAH</departure_airport_iata><departure_name_airport>Bahrain International</departure_name_airport><departure_coordinates_lon>50.62605</departure_coordinates_lon><departure_coordinates_lat>26.26918</departure_coordinates_lat><departure_country_code>BH</departure_country_code><departure_country_name>Bahrain</departure_country_name><departure_city_code>BAH</departure_city_code><departure_city_name>Manama</departure_city_name><arrival_airport_iata>DOH</arrival_airport_iata><arrival_name_airport>Doha International</arrival_name_airport><arrival_coordinates_lon>51.558067</arrival_coordinates_lon><arrival_coordinates_lat>25.267569</arrival_coordinates_lat><arrival_country_code>QA</arrival_country_code><arrival_country_name>Qatar</arrival_country_name><arrival_city_code>DOH</arrival_city_code><arrival_city_name>Doha</arrival_city_name><planes>333</planes><plane_name>Airbus Industrie A330-300</plane_name></routes><routes><airline_iata>LH</airline_iata><departure_airport_iata>FRA</departure_airport_iata><departure_name_airport>Frankfurt International Airport</departure_name_airport><departure_coordinates_lon>8.570773</departure_coordinates_lon><departure_coordinates_lat>50.050735</departure_coordinates_lat><departure_country_code>DE</departure_country_code><departure_country_name>Germany</departure_country_name><departure_city_code>FRA</departure_city_code><departure_city_name>Frankfurt</departure_city_name><arrival_airport_iata>DOH</arrival_airport_iata><arrival_name_airport>Doha International</arrival_name_airport><arrival_coordinates_lon>51.558067</arrival_coordinates_lon><arrival_coordinates_lat>25.267569</arrival_coordinates_lat><arrival_country_code>QA</arrival_country_code><arrival_country_name>Qatar</arrival_country_name><arrival_city_code>DOH</arrival_city_code><arrival_city_name>Doha</arrival_city_name><planes>333</planes><plane_name>Airbus Industrie A330-300</plane_name></routes><routes><airline_iata>LX</airline_iata><departure_airport_iata>BAH</departure_airport_iata><departure_name_airport>Bahrain International</departure_name_airport><departure_coordinates_lon>50.62605</departure_coordinates_lon><departure_coordinates_lat>26.26918</departure_coordinates_lat><departure_country_code>BH</departure_country_code><departure_country_name>Bahrain</departure_country_name><departure_city_code>BAH</departure_city_code><departure_city_name>Manama</departure_city_name><arrival_airport_iata>DOH</arrival_airport_iata><arrival_name_airport>Doha International</arrival_name_airport><arrival_coordinates_lon>51.558067</arrival_coordinates_lon><arrival_coordinates_lat>25.267569</arrival_coordinates_lat><arrival_country_code>QA</arrival_country_code><arrival_country_name>Qatar</arrival_country_name><arrival_city_code>DOH</arrival_city_code><arrival_city_name>Doha</arrival_city_name><planes>333</planes><plane_name>Airbus Industrie A330-300</plane_name></routes><routes><airline_iata>LX</airline_iata><departure_airport_iata>FRA</departure_airport_iata><departure_name_airport>Frankfurt International Airport</departure_name_airport><departure_coordinates_lon>8.570773</departure_coordinates_lon><departure_coordinates_lat>50.050735</departure_coordinates_lat><departure_country_code>DE</departure_country_code><departure_country_name>Germany</departure_country_name><departure_city_code>FRA</departure_city_code><departure_city_name>Frankfurt</departure_city_name><arrival_airport_iata>DOH</arrival_airport_iata><arrival_name_airport>Doha International</arrival_name_airport><arrival_coordinates_lon>51.558067</arrival_coordinates_lon><arrival_coordinates_lat>25.267569</arrival_coordinates_lat><arrival_country_code>QA</arrival_country_code><arrival_country_name>Qatar</arrival_country_name><arrival_city_code>DOH</arrival_city_code><arrival_city_name>Doha</arrival_city_name><planes>333</planes><plane_name>Airbus Industrie A330-300</plane_name></routes><routes><airline_iata>ME</airline_iata><departure_airport_iata>BEY</departure_airport_iata><departure_name_airport>Beirut Rafic Hariri Airport</departure_name_airport><departure_coordinates_lon>35.49308</departure_coordinates_lon><departure_coordinates_lat>33.826073</departure_coordinates_lat><departure_country_code>LB</departure_country_code><departure_country_name>Lebanon</departure_country_name><departure_city_code>BEY</departure_city_code><departure_city_name>Beirut</departure_city_name><arrival_airport_iata>DOH</arrival_airport_iata><arrival_name_airport>Doha International</arrival_name_airport><arrival_coordinates_lon>51.558067</arrival_coordinates_lon><arrival_coordinates_lat>25.267569</arrival_coordinates_lat><arrival_country_code>QA</arrival_country_code><arrival_country_name>Qatar</arrival_country_name><arrival_city_code>DOH</arrival_city_code><arrival_city_name>Doha</arrival_city_name><planes>320</planes><plane_name>Airbus Industrie A320</plane_name></routes><routes><airline_iata>ME</airline_iata><departure_airport_iata>BEY</departure_airport_iata><departure_name_airport>Beirut Rafic Hariri Airport</departure_name_airport><departure_coordinates_lon>35.49308</departure_coordinates_lon><departure_coordinates_lat>33.826073</departure_coordinates_lat><departure_country_code>LB</departure_country_code><departure_country_name>Lebanon</departure_country_name><departure_city_code>BEY</departure_city_code><departure_city_name>Beirut</departure_city_name><arrival_airport_iata>DOH</arrival_airport_iata><arrival_name_airport>Doha International</arrival_name_airport><arrival_coordinates_lon>51.558067</arrival_coordinates_lon><arrival_coordinates_lat>25.267569</arrival_coordinates_lat><arrival_country_code>QA</arrival_country_code><arrival_country_name>Qatar</arrival_country_name><arrival_city_code>DOH</arrival_city_code><arrival_city_name>Doha</arrival_city_name><planes>320</planes><plane_name>Airbus Industrie A320</plane_name></routes><routes><airline_iata>MH</airline_iata><departure_airport_iata>KUL</departure_airport_iata><departure_name_airport>Kuala Lumpur International Airport (klia)</departure_name_airport><departure_coordinates_lon>101.70539</departure_coordinates_lon><departure_coordinates_lat>2.755672</departure_coordinates_lat><departure_country_code>MY</departure_country_code><departure_country_name>Malaysia</departure_country_name><departure_city_code>KUL</departure_city_code><departure_city_name>Kuala Lumpur</departure_city_name><arrival_airport_iata>DOH</arrival_airport_iata><arrival_name_airport>Doha International</arrival_name_airport><arrival_coordinates_lon>51.558067</arrival_coordinates_lon><arrival_coordinates_lat>25.267569</arrival_coordinates_lat><arrival_country_code>QA</arrival_country_code><arrival_country_name>Qatar</arrival_country_name><arrival_city_code>DOH</arrival_city_code><arrival_city_name>Doha</arrival_city_name><planes>332</planes><plane_name>Airbus Industrie A330-200</plane_name></routes><routes><airline_iata>MH</airline_iata><departure_airport_iata>RUH</departure_airport_iata><departure_name_airport>King Khaled International</departure_name_airport><departure_coordinates_lon>46.702877</departure_coordinates_lon><departure_coordinates_lat>24.95929</departure_coordinates_lat><departure_country_code>SA</departure_country_code><departure_country_name>Saudi Arabia</departure_country_name><departure_city_code>RUH</departure_city_code><departure_city_name>Riyadh</departure_city_name><arrival_airport_iata>DOH</arrival_airport_iata><arrival_name_airport>Doha International</arrival_name_airport><arrival_coordinates_lon>51.558067</arrival_coordinates_lon><arrival_coordinates_lat>25.267569</arrival_coordinates_lat><arrival_country_code>QA</arrival_country_code><arrival_country_name>Qatar</arrival_country_name><arrival_city_code>DOH</arrival_city_code><arrival_city_name>Doha</arrival_city_name><planes>320</planes><plane_name>Airbus Industrie A320</plane_name></routes><routes><airline_iata>MS</airline_iata><departure_airport_iata>CAI</departure_airport_iata><departure_name_airport>Cairo International Airport</departure_name_airport><departure_coordinates_lon>31.40647</departure_coordinates_lon><departure_coordinates_lat>30.120106</departure_coordinates_lat><departure_country_code>EG</departure_country_code><departure_country_name>Egypt</departure_country_name><departure_city_code>CAI</departure_city_code><departure_city_name>Cairo</departure_city_name><arrival_airport_iata>DOH</arrival_airport_iata><arrival_name_airport>Doha International</arrival_name_airport><arrival_coordinates_lon>51.558067</arrival_coordinates_lon><arrival_coordinates_lat>25.267569</arrival_coordinates_lat><arrival_country_code>QA</arrival_country_code><arrival_country_name>Qatar</arrival_country_name><arrival_city_code>DOH</arrival_city_code><arrival_city_name>Doha</arrival_city_name><planes>320</planes><plane_name>Airbus Industrie A320</plane_name></routes><routes><airline_iata>NH</airline_iata><departure_airport_iata>KIX</departure_airport_iata><departure_name_airport>Kansai International</departure_name_airport><departure_coordinates_lon>135.24397</departure_coordinates_lon><departure_coordinates_lat>34.43533</departure_coordinates_lat><departure_country_code>JP</departure_country_code><departure_country_name>Japan</departure_country_name><departure_city_code>OSA</departure_city_code><departure_city_name>Osaka</departure_city_name><arrival_airport_iata>DOH</arrival_airport_iata><arrival_name_airport>Doha International</arrival_name_airport><arrival_coordinates_lon>51.558067</arrival_coordinates_lon><arrival_coordinates_lat>25.267569</arrival_coordinates_lat><arrival_country_code>QA</arrival_country_code><arrival_country_name>Qatar</arrival_country_name><arrival_city_code>DOH</arrival_city_code><arrival_city_name>Doha</arrival_city_name><planes>77W</planes><plane_name>Boeing 777-300ER</plane_name></routes><routes><airline_iata>NL</airline_iata><departure_airport_iata>PEW</departure_airport_iata><departure_name_airport>Peshawar</departure_name_airport><departure_coordinates_lon>71.51925</departure_coordinates_lon><departure_coordinates_lat>33.989082</departure_coordinates_lat><departure_country_code>PK</departure_country_code><departure_country_name>Pakistan</departure_country_name><departure_city_code>PEW</departure_city_code><departure_city_name>Peshawar</departure_city_name><arrival_airport_iata>DOH</arrival_airport_iata><arrival_name_airport>Doha International</arrival_name_airport><arrival_coordinates_lon>51.558067</arrival_coordinates_lon><arrival_coordinates_lat>25.267569</arrival_coordinates_lat><arrival_country_code>QA</arrival_country_code><arrival_country_name>Qatar</arrival_country_name><arrival_city_code>DOH</arrival_city_code><arrival_city_name>Doha</arrival_city_name><planes>734</planes><plane_name>Boeing 737-400</plane_name></routes><routes><airline_iata>OZ</airline_iata><departure_airport_iata>ICN</departure_airport_iata><departure_name_airport>Seoul (Incheon)</departure_name_airport><departure_coordinates_lon>126.45123</departure_coordinates_lon><departure_coordinates_lat>37.448524</departure_coordinates_lat><departure_country_code>KR</departure_country_code><departure_country_name>South Korea</departure_country_name><departure_city_code>SEL</departure_city_code><departure_city_name>Seoul</departure_city_name><arrival_airport_iata>DOH</arrival_airport_iata><arrival_name_airport>Doha International</arrival_name_airport><arrival_coordinates_lon>51.558067</arrival_coordinates_lon><arrival_coordinates_lat>25.267569</arrival_coordinates_lat><arrival_country_code>QA</arrival_country_code><arrival_country_name>Qatar</arrival_country_name><arrival_city_code>DOH</arrival_city_code><arrival_city_name>Doha</arrival_city_name><planes>332</planes><plane_name>Airbus Industrie A330-200</plane_name></routes><routes><airline_iata>PK</airline_iata><departure_airport_iata>BAH</departure_airport_iata><departure_name_airport>Bahrain International</departure_name_airport><departure_coordinates_lon>50.62605</departure_coordinates_lon><departure_coordinates_lat>26.26918</departure_coordinates_lat><departure_country_code>BH</departure_country_code><departure_country_name>Bahrain</departure_country_name><departure_city_code>BAH</departure_city_code><departure_city_name>Manama</departure_city_name><arrival_airport_iata>DOH</arrival_airport_iata><arrival_name_airport>Doha International</arrival_name_airport><arrival_coordinates_lon>51.558067</arrival_coordinates_lon><arrival_coordinates_lat>25.267569</arrival_coordinates_lat><arrival_country_code>QA</arrival_country_code><arrival_country_name>Qatar</arrival_country_name><arrival_city_code>DOH</arrival_city_code><arrival_city_name>Doha</arrival_city_name><planes>733</planes><plane_name>Boeing 737-300</plane_name></routes><routes><airline_iata>PK</airline_iata><departure_airport_iata>PEW</departure_airport_iata><departure_name_airport>Peshawar</departure_name_airport><departure_coordinates_lon>71.51925</departure_coordinates_lon><departure_coordinates_lat>33.989082</departure_coordinates_lat><departure_country_code>PK</departure_country_code><departure_country_name>Pakistan</departure_country_name><departure_city_code>PEW</departure_city_code><departure_city_name>Peshawar</departure_city_name><arrival_airport_iata>DOH</arrival_airport_iata><arrival_name_airport>Doha International</arrival_name_airport><arrival_coordinates_lon>51.558067</arrival_coordinates_lon><arrival_coordinates_lat>25.267569</arrival_coordinates_lat><arrival_country_code>QA</arrival_country_code><arrival_country_name>Qatar</arrival_country_name><arrival_city_code>DOH</arrival_city_code><arrival_city_name>Doha</arrival_city_name><planes>733</planes><plane_name>Boeing 737-300</plane_name></routes><routes><airline_iata>PR</airline_iata><departure_airport_iata>MNL</departure_airport_iata><departure_name_airport>Ninoy Aquino International</departure_name_airport><departure_coordinates_lon>121.01251</departure_coordinates_lon><departure_coordinates_lat>14.509602</departure_coordinates_lat><departure_country_code>PH</departure_country_code><departure_country_name>Philippines</departure_country_name><departure_city_code>MNL</departure_city_code><departure_city_name>Manila</departure_city_name><arrival_airport_iata>DOH</arrival_airport_iata><arrival_name_airport>Doha International</arrival_name_airport><arrival_coordinates_lon>51.558067</arrival_coordinates_lon><arrival_coordinates_lat>25.267569</arrival_coordinates_lat><arrival_country_code>QA</arrival_country_code><arrival_country_name>Qatar</arrival_country_name><arrival_city_code>DOH</arrival_city_code><arrival_city_name>Doha</arrival_city_name><planes>332</planes><plane_name>Airbus Industrie A330-200</plane_name></routes><routes><airline_iata>QR</airline_iata><departure_airport_iata>ALG</departure_airport_iata><departure_name_airport>Houari Boumediene</departure_name_airport><departure_coordinates_lon>3.21167</departure_coordinates_lon><departure_coordinates_lat>36.70058</departure_coordinates_lat><departure_country_code>DZ</departure_country_code><departure_country_name>Algeria</departure_country_name><departure_city_code>ALG</departure_city_code><departure_city_name>Algiers</departure_city_name><arrival_airport_iata>DOH</arrival_airport_iata><arrival_name_airport>Doha International</arrival_name_airport><arrival_coordinates_lon>51.558067</arrival_coordinates_lon><arrival_coordinates_lat>25.267569</arrival_coordinates_lat><arrival_country_code>QA</arrival_country_code><arrival_country_name>Qatar</arrival_country_name><arrival_city_code>DOH</arrival_city_code><arrival_city_name>Doha</arrival_city_name><planes>333</planes><plane_name>Airbus Industrie A330-300</plane_name></routes><routes><airline_iata>QR</airline_iata><departure_airport_iata>AMD</departure_airport_iata><departure_name_airport>Ahmedabad</departure_name_airport><departure_coordinates_lon>72.62417</departure_coordinates_lon><departure_coordinates_lat>23.06639</departure_coordinates_lat><departure_country_code>IN</departure_country_code><departure_country_name>India</departure_country_name><departure_city_code>AMD</departure_city_code><departure_city_name>Ahmedabad</departure_city_name><arrival_airport_iata>DOH</arrival_airport_iata><arrival_name_airport>Doha International</arrival_name_airport><arrival_coordinates_lon>51.558067</arrival_coordinates_lon><arrival_coordinates_lat>25.267569</arrival_coordinates_lat><arrival_country_code>QA</arrival_country_code><arrival_country_name>Qatar</arrival_country_name><arrival_city_code>DOH</arrival_city_code><arrival_city_name>Doha</arrival_city_name><planes>321</planes><plane_name>Airbus Industrie A321</plane_name></routes><routes><airline_iata>QR</airline_iata><departure_airport_iata>AMM</departure_airport_iata><departure_name_airport>Queen Alia International</departure_name_airport><departure_coordinates_lon>35.98932</departure_coordinates_lon><departure_coordinates_lat>31.722534</departure_coordinates_lat><departure_country_code>JO</departure_country_code><departure_country_name>Jordan</departure_country_name><departure_city_code>AMM</departure_city_code><departure_city_name>Amman</departure_city_name><arrival_airport_iata>DOH</arrival_airport_iata><arrival_name_airport>Doha International</arrival_name_airport><arrival_coordinates_lon>51.558067</arrival_coordinates_lon><arrival_coordinates_lat>25.267569</arrival_coordinates_lat><arrival_country_code>QA</arrival_country_code><arrival_country_name>Qatar</arrival_country_name><arrival_city_code>DOH</arrival_city_code><arrival_city_name>Doha</arrival_city_name><planes>321</planes><plane_name>Airbus Industrie A321</plane_name></routes><routes><airline_iata>QR</airline_iata><departure_airport_iata>ARN</departure_airport_iata><departure_name_airport>Arlanda</departure_name_airport><departure_coordinates_lon>17.930365</departure_coordinates_lon><departure_coordinates_lat>59.64982</departure_coordinates_lat><departure_country_code>SE</departure_country_code><departure_country_name>Sweden</departure_country_name><departure_city_code>STO</departure_city_code><departure_city_name>Stockholm</departure_city_name><arrival_airport_iata>DOH</arrival_airport_iata><arrival_name_airport>Doha International</arrival_name_airport><arrival_coordinates_lon>51.558067</arrival_coordinates_lon><arrival_coordinates_lat>25.267569</arrival_coordinates_lat><arrival_country_code>QA</arrival_country_code><arrival_country_name>Qatar</arrival_country_name><arrival_city_code>DOH</arrival_city_code><arrival_city_name>Doha</arrival_city_name><planes>332</planes><plane_name>Airbus Industrie A330-200</plane_name></routes><routes><airline_iata>QR</airline_iata><departure_airport_iata>ATH</departure_airport_iata><departure_name_airport>Athens International Airport "Eleftherios Venizelos"</departure_name_airport><departure_coordinates_lon>23.946486</departure_coordinates_lon><departure_coordinates_lat>37.93635</departure_coordinates_lat><departure_country_code>GR</departure_country_code><departure_country_name>Greece</departure_country_name><departure_city_code>ATH</departure_city_code><departure_city_name>Athens</departure_city_name><arrival_airport_iata>DOH</arrival_airport_iata><arrival_name_airport>Doha International</arrival_name_airport><arrival_coordinates_lon>51.558067</arrival_coordinates_lon><arrival_coordinates_lat>25.267569</arrival_coordinates_lat><arrival_country_code>QA</arrival_country_code><arrival_country_name>Qatar</arrival_country_name><arrival_city_code>DOH</arrival_city_code><arrival_city_name>Doha</arrival_city_name><planes>321</planes><plane_name>Airbus Industrie A321</plane_name></routes><routes><airline_iata>QR</airline_iata><departure_airport_iata>ATQ</departure_airport_iata><departure_name_airport>Raja Sansi International Airport</departure_name_airport><departure_coordinates_lon>74.8073</departure_coordinates_lon><departure_coordinates_lat>31.706741</departure_coordinates_lat><departure_country_code>IN</departure_country_code><departure_country_name>India</departure_country_name><departure_city_code>ATQ</departure_city_code><departure_city_name>Amritsar</departure_city_name><arrival_airport_iata>DOH</arrival_airport_iata><arrival_name_airport>Doha International</arrival_name_airport><arrival_coordinates_lon>51.558067</arrival_coordinates_lon><arrival_coordinates_lat>25.267569</arrival_coordinates_lat><arrival_country_code>QA</arrival_country_code><arrival_country_name>Qatar</arrival_country_name><arrival_city_code>DOH</arrival_city_code><arrival_city_name>Doha</arrival_city_name><planes>320</planes><plane_name>Airbus Industrie A320</plane_name></routes><routes><airline_iata>QR</airline_iata><departure_airport_iata>AUH</departure_airport_iata><departure_name_airport>Abu Dhabi International</departure_name_airport><departure_coordinates_lon>54.645973</departure_coordinates_lon><departure_coordinates_lat>24.426912</departure_coordinates_lat><departure_country_code>AE</departure_country_code><departure_country_name>United Arab Emirates</departure_country_name><departure_city_code>AUH</departure_city_code><departure_city_name>Abu Dhabi</departure_city_name><arrival_airport_iata>DOH</arrival_airport_iata><arrival_name_airport>Doha International</arrival_name_airport><arrival_coordinates_lon>51.558067</arrival_coordinates_lon><arrival_coordinates_lat>25.267569</arrival_coordinates_lat><arrival_country_code>QA</arrival_country_code><arrival_country_name>Qatar</arrival_country_name><arrival_city_code>DOH</arrival_city_code><arrival_city_name>Doha</arrival_city_name><planes>320</planes><plane_name>Airbus Industrie A320</plane_name></routes><routes><airline_iata>QR</airline_iata><departure_airport_iata>BAH</departure_airport_iata><departure_name_airport>Bahrain International</departure_name_airport><departure_coordinates_lon>50.62605</departure_coordinates_lon><departure_coordinates_lat>26.26918</departure_coordinates_lat><departure_country_code>BH</departure_country_code><departure_country_name>Bahrain</departure_country_name><departure_city_code>BAH</departure_city_code><departure_city_name>Manama</departure_city_name><arrival_airport_iata>DOH</arrival_airport_iata><arrival_name_airport>Doha International</arrival_name_airport><arrival_coordinates_lon>51.558067</arrival_coordinates_lon><arrival_coordinates_lat>25.267569</arrival_coordinates_lat><arrival_country_code>QA</arrival_country_code><arrival_country_name>Qatar</arrival_country_name><arrival_city_code>DOH</arrival_city_code><arrival_city_name>Doha</arrival_city_name><planes>320</planes><plane_name>Airbus Industrie A320</plane_name></routes><routes><airline_iata>QR</airline_iata><departure_airport_iata>BCN</departure_airport_iata><departure_name_airport>El Prat De Llobregat</departure_name_airport><departure_coordinates_lon>2.07593</departure_coordinates_lon><departure_coordinates_lat>41.30303</departure_coordinates_lat><departure_country_code>ES</departure_country_code><departure_country_name>Spain</departure_country_name><departure_city_code>BCN</departure_city_code><departure_city_name>Barcelona</departure_city_name><arrival_airport_iata>DOH</arrival_airport_iata><arrival_name_airport>Doha International</arrival_name_airport><arrival_coordinates_lon>51.558067</arrival_coordinates_lon><arrival_coordinates_lat>25.267569</arrival_coordinates_lat><arrival_country_code>QA</arrival_country_code><arrival_country_name>Qatar</arrival_country_name><arrival_city_code>DOH</arrival_city_code><arrival_city_name>Doha</arrival_city_name><planes>333</planes><plane_name>Airbus Industrie A330-300</plane_name></routes><routes><airline_iata>QR</airline_iata><departure_airport_iata>BEN</departure_airport_iata><departure_name_airport>Benina International</departure_name_airport><departure_coordinates_lon>20.26489</departure_coordinates_lon><departure_coordinates_lat>32.085423</departure_coordinates_lat><departure_country_code>LY</departure_country_code><departure_country_name>Libya</departure_country_name><departure_city_code>BEN</departure_city_code><departure_city_name>Benghazi</departure_city_name><arrival_airport_iata>DOH</arrival_airport_iata><arrival_name_airport>Doha International</arrival_name_airport><arrival_coordinates_lon>51.558067</arrival_coordinates_lon><arrival_coordinates_lat>25.267569</arrival_coordinates_lat><arrival_country_code>QA</arrival_country_code><arrival_country_name>Qatar</arrival_country_name><arrival_city_code>DOH</arrival_city_code><arrival_city_name>Doha</arrival_city_name><planes>320</planes><plane_name>Airbus Industrie A320</plane_name></routes><routes><airline_iata>QR</airline_iata><departure_airport_iata>BEY</departure_airport_iata><departure_name_airport>Beirut Rafic Hariri Airport</departure_name_airport><departure_coordinates_lon>35.49308</departure_coordinates_lon><departure_coordinates_lat>33.826073</departure_coordinates_lat><departure_country_code>LB</departure_country_code><departure_country_name>Lebanon</departure_country_name><departure_city_code>BEY</departure_city_code><departure_city_name>Beirut</departure_city_name><arrival_airport_iata>DOH</arrival_airport_iata><arrival_name_airport>Doha International</arrival_name_airport><arrival_coordinates_lon>51.558067</arrival_coordinates_lon><arrival_coordinates_lat>25.267569</arrival_coordinates_lat><arrival_country_code>QA</arrival_country_code><arrival_country_name>Qatar</arrival_country_name><arrival_city_code>DOH</arrival_city_code><arrival_city_name>Doha</arrival_city_name><planes>320</planes><plane_name>Airbus Industrie A320</plane_name></routes><routes><airline_iata>QR</airline_iata><departure_airport_iata>BEY</departure_airport_iata><departure_name_airport>Beirut Rafic Hariri Airport</departure_name_airport><departure_coordinates_lon>35.49308</departure_coordinates_lon><departure_coordinates_lat>33.826073</departure_coordinates_lat><departure_country_code>LB</departure_country_code><departure_country_name>Lebanon</departure_country_name><departure_city_code>BEY</departure_city_code><departure_city_name>Beirut</departure_city_name><arrival_airport_iata>DOH</arrival_airport_iata><arrival_name_airport>Doha International</arrival_name_airport><arrival_coordinates_lon>51.558067</arrival_coordinates_lon><arrival_coordinates_lat>25.267569</arrival_coordinates_lat><arrival_country_code>QA</arrival_country_code><arrival_country_name>Qatar</arrival_country_name><arrival_city_code>DOH</arrival_city_code><arrival_city_name>Doha</arrival_city_name><planes>320</planes><plane_name>Airbus Industrie A320</plane_name></routes><routes><airline_iata>QR</airline_iata><departure_airport_iata>BGW</departure_airport_iata><departure_name_airport>Baghdad International</departure_name_airport><departure_coordinates_lon>44.225</departure_coordinates_lon><departure_coordinates_lat>33.255554</departure_coordinates_lat><departure_country_code>IQ</departure_country_code><departure_country_name>Iraq</departure_country_name><departure_city_code>BGW</departure_city_code><departure_city_name>Baghdad</departure_city_name><arrival_airport_iata>DOH</arrival_airport_iata><arrival_name_airport>Doha International</arrival_name_airport><arrival_coordinates_lon>51.558067</arrival_coordinates_lon><arrival_coordinates_lat>25.267569</arrival_coordinates_lat><arrival_country_code>QA</arrival_country_code><arrival_country_name>Qatar</arrival_country_name><arrival_city_code>DOH</arrival_city_code><arrival_city_name>Doha</arrival_city_name><planes>319</planes><plane_name>Airbus Industrie A319</plane_name></routes><routes><airline_iata>QR</airline_iata><departure_airport_iata>BKK</departure_airport_iata><departure_name_airport>Suvarnabhumi International</departure_name_airport><departure_coordinates_lon>100.752045</departure_coordinates_lon><departure_coordinates_lat>13.693062</departure_coordinates_lat><departure_country_code>TH</departure_country_code><departure_country_name>Thailand</departure_country_name><departure_city_code>BKK</departure_city_code><departure_city_name>Bangkok</departure_city_name><arrival_airport_iata>DOH</arrival_airport_iata><arrival_name_airport>Doha International</arrival_name_airport><arrival_coordinates_lon>51.558067</arrival_coordinates_lon><arrival_coordinates_lat>25.267569</arrival_coordinates_lat><arrival_country_code>QA</arrival_country_code><arrival_country_name>Qatar</arrival_country_name><arrival_city_code>DOH</arrival_city_code><arrival_city_name>Doha</arrival_city_name><planes>77W</planes><plane_name>Boeing 777-300ER</plane_name></routes><routes><airline_iata>QR</airline_iata><departure_airport_iata>BLR</departure_airport_iata><departure_name_airport>Bangalore International Airport</departure_name_airport><departure_coordinates_lon>77.70556</departure_coordinates_lon><departure_coordinates_lat>13.198889</departure_coordinates_lat><departure_country_code>IN</departure_country_code><departure_country_name>India</departure_country_name><departure_city_code>BLR</departure_city_code><departure_city_name>Bangalore</departure_city_name><arrival_airport_iata>DOH</arrival_airport_iata><arrival_name_airport>Doha International</arrival_name_airport><arrival_coordinates_lon>51.558067</arrival_coordinates_lon><arrival_coordinates_lat>25.267569</arrival_coordinates_lat><arrival_country_code>QA</arrival_country_code><arrival_country_name>Qatar</arrival_country_name><arrival_city_code>DOH</arrival_city_code><arrival_city_name>Doha</arrival_city_name><planes>333</planes><plane_name>Airbus Industrie A330-300</plane_name></routes><routes><airline_iata>QR</airline_iata><departure_airport_iata>BOM</departure_airport_iata><departure_name_airport>Chhatrapati Shivaji International (Sahar International)</departure_name_airport><departure_coordinates_lon>72.87497</departure_coordinates_lon><departure_coordinates_lat>19.095509</departure_coordinates_lat><departure_country_code>IN</departure_country_code><departure_country_name>India</departure_country_name><departure_city_code>BOM</departure_city_code><departure_city_name>Mumbai</departure_city_name><arrival_airport_iata>DOH</arrival_airport_iata><arrival_name_airport>Doha International</arrival_name_airport><arrival_coordinates_lon>51.558067</arrival_coordinates_lon><arrival_coordinates_lat>25.267569</arrival_coordinates_lat><arrival_country_code>QA</arrival_country_code><arrival_country_name>Qatar</arrival_country_name><arrival_city_code>DOH</arrival_city_code><arrival_city_name>Doha</arrival_city_name><planes>77W</planes><plane_name>Boeing 777-300ER</plane_name></routes><routes><airline_iata>QR</airline_iata><departure_airport_iata>BRU</departure_airport_iata><departure_name_airport>Brussels Airport</departure_name_airport><departure_coordinates_lon>4.483602</departure_coordinates_lon><departure_coordinates_lat>50.89717</departure_coordinates_lat><departure_country_code>BE</departure_country_code><departure_country_name>Belgium</departure_country_name><departure_city_code>BRU</departure_city_code><departure_city_name>Brussels</departure_city_name><arrival_airport_iata>DOH</arrival_airport_iata><arrival_name_airport>Doha International</arrival_name_airport><arrival_coordinates_lon>51.558067</arrival_coordinates_lon><arrival_coordinates_lat>25.267569</arrival_coordinates_lat><arrival_country_code>QA</arrival_country_code><arrival_country_name>Qatar</arrival_country_name><arrival_city_code>DOH</arrival_city_code><arrival_city_name>Doha</arrival_city_name><planes>332</planes><plane_name>Airbus Industrie A330-200</plane_name></routes><routes><airline_iata>QR</airline_iata><departure_airport_iata>BUD</departure_airport_iata><departure_name_airport>Liszt Ferenc International</departure_name_airport><departure_coordinates_lon>19.261621</departure_coordinates_lon><departure_coordinates_lat>47.433037</departure_coordinates_lat><departure_country_code>HU</departure_country_code><departure_country_name>Hungary</departure_country_name><departure_city_code>BUD</departure_city_code><departure_city_name>Budapest</departure_city_name><arrival_airport_iata>DOH</arrival_airport_iata><arrival_name_airport>Doha International</arrival_name_airport><arrival_coordinates_lon>51.558067</arrival_coordinates_lon><arrival_coordinates_lat>25.267569</arrival_coordinates_lat><arrival_country_code>QA</arrival_country_code><arrival_country_name>Qatar</arrival_country_name><arrival_city_code>DOH</arrival_city_code><arrival_city_name>Doha</arrival_city_name><planes>320</planes><plane_name>Airbus Industrie A320</plane_name></routes><routes><airline_iata>QR</airline_iata><departure_airport_iata>CAI</departure_airport_iata><departure_name_airport>Cairo International Airport</departure_name_airport><departure_coordinates_lon>31.40647</departure_coordinates_lon><departure_coordinates_lat>30.120106</departure_coordinates_lat><departure_country_code>EG</departure_country_code><departure_country_name>Egypt</departure_country_name><departure_city_code>CAI</departure_city_code><departure_city_name>Cairo</departure_city_name><arrival_airport_iata>DOH</arrival_airport_iata><arrival_name_airport>Doha International</arrival_name_airport><arrival_coordinates_lon>51.558067</arrival_coordinates_lon><arrival_coordinates_lat>25.267569</arrival_coordinates_lat><arrival_country_code>QA</arrival_country_code><arrival_country_name>Qatar</arrival_country_name><arrival_city_code>DOH</arrival_city_code><arrival_city_name>Doha</arrival_city_name><planes>77L</planes><plane_name>Boeing 777-200LR</plane_name></routes><routes><airline_iata>QR</airline_iata><departure_airport_iata>CAN</departure_airport_iata><departure_name_airport>Guangzhou Baiyun International</departure_name_airport><departure_coordinates_lon>113.29734</departure_coordinates_lon><departure_coordinates_lat>23.387861</departure_coordinates_lat><departure_country_code>CN</departure_country_code><departure_country_name>China</departure_country_name><departure_city_code>CAN</departure_city_code><departure_city_name>Guangzhou</departure_city_name><arrival_airport_iata>DOH</arrival_airport_iata><arrival_name_airport>Doha International</arrival_name_airport><arrival_coordinates_lon>51.558067</arrival_coordinates_lon><arrival_coordinates_lat>25.267569</arrival_coordinates_lat><arrival_country_code>QA</arrival_country_code><arrival_country_name>Qatar</arrival_country_name><arrival_city_code>DOH</arrival_city_code><arrival_city_name>Doha</arrival_city_name><planes>77W</planes><plane_name>Boeing 777-300ER</plane_name></routes><routes><airline_iata>QR</airline_iata><departure_airport_iata>CCJ</departure_airport_iata><departure_name_airport>Kozhikode Airport</departure_name_airport><departure_coordinates_lon>75.950584</departure_coordinates_lon><departure_coordinates_lat>11.14025</departure_coordinates_lat><departure_country_code>IN</departure_country_code><departure_country_name>India</departure_country_name><departure_city_code>CCJ</departure_city_code><departure_city_name>Kozhikode</departure_city_name><arrival_airport_iata>DOH</arrival_airport_iata><arrival_name_airport>Doha International</arrival_name_airport><arrival_coordinates_lon>51.558067</arrival_coordinates_lon><arrival_coordinates_lat>25.267569</arrival_coordinates_lat><arrival_country_code>QA</arrival_country_code><arrival_country_name>Qatar</arrival_country_name><arrival_city_code>DOH</arrival_city_code><arrival_city_name>Doha</arrival_city_name><planes>321</planes><plane_name>Airbus Industrie A321</plane_name></routes><routes><airline_iata>QR</airline_iata><departure_airport_iata>CCU</departure_airport_iata><departure_name_airport>Netaji Subhas Chandra</departure_name_airport><departure_coordinates_lon>88.43931</departure_coordinates_lon><departure_coordinates_lat>22.64531</departure_coordinates_lat><departure_country_code>IN</departure_country_code><departure_country_name>India</departure_country_name><departure_city_code>CCU</departure_city_code><departure_city_name>Kolkata</departure_city_name><arrival_airport_iata>DOH</arrival_airport_iata><arrival_name_airport>Doha International</arrival_name_airport><arrival_coordinates_lon>51.558067</arrival_coordinates_lon><arrival_coordinates_lat>25.267569</arrival_coordinates_lat><arrival_country_code>QA</arrival_country_code><arrival_country_name>Qatar</arrival_country_name><arrival_city_code>DOH</arrival_city_code><arrival_city_name>Doha</arrival_city_name><planes>320</planes><plane_name>Airbus Industrie A320</plane_name></routes><routes><airline_iata>QR</airline_iata><departure_airport_iata>CDG</departure_airport_iata><departure_name_airport>Charles De Gaulle</departure_name_airport><departure_coordinates_lon>2.567023</departure_coordinates_lon><departure_coordinates_lat>49.003197</departure_coordinates_lat><departure_country_code>FR</departure_country_code><departure_country_name>France</departure_country_name><departure_city_code>PAR</departure_city_code><departure_city_name>Paris</departure_city_name><arrival_airport_iata>DOH</arrival_airport_iata><arrival_name_airport>Doha International</arrival_name_airport><arrival_coordinates_lon>51.558067</arrival_coordinates_lon><arrival_coordinates_lat>25.267569</arrival_coordinates_lat><arrival_country_code>QA</arrival_country_code><arrival_country_name>Qatar</arrival_country_name><arrival_city_code>DOH</arrival_city_code><arrival_city_name>Doha</arrival_city_name><planes>346</planes><plane_name>Airbus Industrie A340-600</plane_name></routes><routes><airline_iata>QR</airline_iata><departure_airport_iata>CGK</departure_airport_iata><departure_name_airport>Soekarno-Hatta International</departure_name_airport><departure_coordinates_lon>106.655525</departure_coordinates_lon><departure_coordinates_lat>-6.130643</departure_coordinates_lat><departure_country_code>ID</departure_country_code><departure_country_name>Indonesia</departure_country_name><departure_city_code>JKT</departure_city_code><departure_city_name>Jakarta</departure_city_name><arrival_airport_iata>DOH</arrival_airport_iata><arrival_name_airport>Doha International</arrival_name_airport><arrival_coordinates_lon>51.558067</arrival_coordinates_lon><arrival_coordinates_lat>25.267569</arrival_coordinates_lat><arrival_country_code>QA</arrival_country_code><arrival_country_name>Qatar</arrival_country_name><arrival_city_code>DOH</arrival_city_code><arrival_city_name>Doha</arrival_city_name><planes>333</planes><plane_name>Airbus Industrie A330-300</plane_name></routes><routes><airline_iata>QR</airline_iata><departure_airport_iata>CKG</departure_airport_iata><departure_name_airport>Chongqing Jiangbei International</departure_name_airport><departure_coordinates_lon>106.63408</departure_coordinates_lon><departure_coordinates_lat>29.72034</departure_coordinates_lat><departure_country_code>CN</departure_country_code><departure_country_name>China</departure_country_name><departure_city_code>CKG</departure_city_code><departure_city_name>Chongqing</departure_city_name><arrival_airport_iata>DOH</arrival_airport_iata><arrival_name_airport>Doha International</arrival_name_airport><arrival_coordinates_lon>51.558067</arrival_coordinates_lon><arrival_coordinates_lat>25.267569</arrival_coordinates_lat><arrival_country_code>QA</arrival_country_code><arrival_country_name>Qatar</arrival_country_name><arrival_city_code>DOH</arrival_city_code><arrival_city_name>Doha</arrival_city_name><planes>332</planes><plane_name>Airbus Industrie A330-200</plane_name></routes><routes><airline_iata>QR</airline_iata><departure_airport_iata>CMB</departure_airport_iata><departure_name_airport>Bandaranaike International</departure_name_airport><departure_coordinates_lon>79.8865</departure_coordinates_lon><departure_coordinates_lat>7.174112</departure_coordinates_lat><departure_country_code>LK</departure_country_code><departure_country_name>Sri Lanka</departure_country_name><departure_city_code>CMB</departure_city_code><departure_city_name>Colombo</departure_city_name><arrival_airport_iata>DOH</arrival_airport_iata><arrival_name_airport>Doha International</arrival_name_airport><arrival_coordinates_lon>51.558067</arrival_coordinates_lon><arrival_coordinates_lat>25.267569</arrival_coordinates_lat><arrival_country_code>QA</arrival_country_code><arrival_country_name>Qatar</arrival_country_name><arrival_city_code>DOH</arrival_city_code><arrival_city_name>Doha</arrival_city_name><planes>320</planes><plane_name>Airbus Industrie A320</plane_name></routes><routes><airline_iata>QR</airline_iata><departure_airport_iata>COK</departure_airport_iata><departure_name_airport>Cochin International</departure_name_airport><departure_coordinates_lon>76.39053</departure_coordinates_lon><departure_coordinates_lat>10.155644</departure_coordinates_lat><departure_country_code>IN</departure_country_code><departure_country_name>India</departure_country_name><departure_city_code>COK</departure_city_code><departure_city_name>Kochi</departure_city_name><arrival_airport_iata>DOH</arrival_airport_iata><arrival_name_airport>Doha International</arrival_name_airport><arrival_coordinates_lon>51.558067</arrival_coordinates_lon><arrival_coordinates_lat>25.267569</arrival_coordinates_lat><arrival_country_code>QA</arrival_country_code><arrival_country_name>Qatar</arrival_country_name><arrival_city_code>DOH</arrival_city_code><arrival_city_name>Doha</arrival_city_name><planes>320</planes><plane_name>Airbus Industrie A320</plane_name></routes><routes><airline_iata>QR</airline_iata><departure_airport_iata>CPH</departure_airport_iata><departure_name_airport>Kastrup</departure_name_airport><departure_coordinates_lon>12.647601</departure_coordinates_lon><departure_coordinates_lat>55.62905</departure_coordinates_lat><departure_country_code>DK</departure_country_code><departure_country_name>Denmark</departure_country_name><departure_city_code>CPH</departure_city_code><departure_city_name>Copenhagen</departure_city_name><arrival_airport_iata>DOH</arrival_airport_iata><arrival_name_airport>Doha International</arrival_name_airport><arrival_coordinates_lon>51.558067</arrival_coordinates_lon><arrival_coordinates_lat>25.267569</arrival_coordinates_lat><arrival_country_code>QA</arrival_country_code><arrival_country_name>Qatar</arrival_country_name><arrival_city_code>DOH</arrival_city_code><arrival_city_name>Doha</arrival_city_name><planes>332</planes><plane_name>Airbus Industrie A330-200</plane_name></routes><routes><airline_iata>QR</airline_iata><departure_airport_iata>DAC</departure_airport_iata><departure_name_airport>Zia International</departure_name_airport><departure_coordinates_lon>90.405876</departure_coordinates_lon><departure_coordinates_lat>23.848648</departure_coordinates_lat><departure_country_code>BD</departure_country_code><departure_country_name>Bangladesh</departure_country_name><departure_city_code>DAC</departure_city_code><departure_city_name>Dhaka</departure_city_name><arrival_airport_iata>DOH</arrival_airport_iata><arrival_name_airport>Doha International</arrival_name_airport><arrival_coordinates_lon>51.558067</arrival_coordinates_lon><arrival_coordinates_lat>25.267569</arrival_coordinates_lat><arrival_country_code>QA</arrival_country_code><arrival_country_name>Qatar</arrival_country_name><arrival_city_code>DOH</arrival_city_code><arrival_city_name>Doha</arrival_city_name><planes>332</planes><plane_name>Airbus Industrie A330-200</plane_name></routes><routes><airline_iata>QR</airline_iata><departure_airport_iata>DAR</departure_airport_iata><departure_name_airport>Dar Es Salam International Airport</departure_name_airport><departure_coordinates_lon>39.20211</departure_coordinates_lon><departure_coordinates_lat>-6.873533</departure_coordinates_lat><departure_country_code>TZ</departure_country_code><departure_country_name>Tanzania</departure_country_name><departure_city_code>DAR</departure_city_code><departure_city_name>Dar Es Salaam</departure_city_name><arrival_airport_iata>DOH</arrival_airport_iata><arrival_name_airport>Doha International</arrival_name_airport><arrival_coordinates_lon>51.558067</arrival_coordinates_lon><arrival_coordinates_lat>25.267569</arrival_coordinates_lat><arrival_country_code>QA</arrival_country_code><arrival_country_name>Qatar</arrival_country_name><arrival_city_code>DOH</arrival_city_code><arrival_city_name>Doha</arrival_city_name><planes>320</planes><plane_name>Airbus Industrie A320</plane_name></routes><routes><airline_iata>QR</airline_iata><departure_airport_iata>DEL</departure_airport_iata><departure_name_airport>Indira Gandhi International</departure_name_airport><departure_coordinates_lon>77.10079</departure_coordinates_lon><departure_coordinates_lat>28.556555</departure_coordinates_lat><departure_country_code>IN</departure_country_code><departure_country_name>India</departure_country_name><departure_city_code>DEL</departure_city_code><departure_city_name>New Delhi</departure_city_name><arrival_airport_iata>DOH</arrival_airport_iata><arrival_name_airport>Doha International</arrival_name_airport><arrival_coordinates_lon>51.558067</arrival_coordinates_lon><arrival_coordinates_lat>25.267569</arrival_coordinates_lat><arrival_country_code>QA</arrival_country_code><arrival_country_name>Qatar</arrival_country_name><arrival_city_code>DOH</arrival_city_code><arrival_city_name>Doha</arrival_city_name><planes>332</planes><plane_name>Airbus Industrie A330-200</plane_name></routes><routes><airline_iata>QR</airline_iata><departure_airport_iata>DME</departure_airport_iata><departure_name_airport>Domodedovo</departure_name_airport><departure_coordinates_lon>37.899494</departure_coordinates_lon><departure_coordinates_lat>55.414566</departure_coordinates_lat><departure_country_code>RU</departure_country_code><departure_country_name>Russia</departure_country_name><departure_city_code>MOW</departure_city_code><departure_city_name>Moscow</departure_city_name><arrival_airport_iata>DOH</arrival_airport_iata><arrival_name_airport>Doha International</arrival_name_airport><arrival_coordinates_lon>51.558067</arrival_coordinates_lon><arrival_coordinates_lat>25.267569</arrival_coordinates_lat><arrival_country_code>QA</arrival_country_code><arrival_country_name>Qatar</arrival_country_name><arrival_city_code>DOH</arrival_city_code><arrival_city_name>Doha</arrival_city_name><planes>321</planes><plane_name>Airbus Industrie A321</plane_name></routes><routes><airline_iata>QR</airline_iata><departure_airport_iata>DMM</departure_airport_iata><departure_name_airport>King Fahd International Airport</departure_name_airport><departure_coordinates_lon>49.79778</departure_coordinates_lon><departure_coordinates_lat>26.471111</departure_coordinates_lat><departure_country_code>SA</departure_country_code><departure_country_name>Saudi Arabia</departure_country_name><departure_city_code>DMM</departure_city_code><departure_city_name>Dammam</departure_city_name><arrival_airport_iata>DOH</arrival_airport_iata><arrival_name_airport>Doha International</arrival_name_airport><arrival_coordinates_lon>51.558067</arrival_coordinates_lon><arrival_coordinates_lat>25.267569</arrival_coordinates_lat><arrival_country_code>QA</arrival_country_code><arrival_country_name>Qatar</arrival_country_name><arrival_city_code>DOH</arrival_city_code><arrival_city_name>Doha</arrival_city_name><planes>320</planes><plane_name>Airbus Industrie A320</plane_name></routes><routes><airline_iata>QR</airline_iata><departure_airport_iata>DXB</departure_airport_iata><departure_name_airport>Dubai</departure_name_airport><departure_coordinates_lon>55.352917</departure_coordinates_lon><departure_coordinates_lat>25.248665</departure_coordinates_lat><departure_country_code>AE</departure_country_code><departure_country_name>United Arab Emirates</departure_country_name><departure_city_code>DXB</departure_city_code><departure_city_name>Dubai</departure_city_name><arrival_airport_iata>DOH</arrival_airport_iata><arrival_name_airport>Doha International</arrival_name_airport><arrival_coordinates_lon>51.558067</arrival_coordinates_lon><arrival_coordinates_lat>25.267569</arrival_coordinates_lat><arrival_country_code>QA</arrival_country_code><arrival_country_name>Qatar</arrival_country_name><arrival_city_code>DOH</arrival_city_code><arrival_city_name>Doha</arrival_city_name><planes>77W</planes><plane_name>Boeing 777-300ER</plane_name></routes><routes><airline_iata>QR</airline_iata><departure_airport_iata>EBB</departure_airport_iata><departure_name_airport>Entebbe</departure_name_airport><departure_coordinates_lon>32.443184</departure_coordinates_lon><departure_coordinates_lat>0.045111</departure_coordinates_lat><departure_country_code>UG</departure_country_code><departure_country_name>Uganda</departure_country_name><departure_city_code>EBB</departure_city_code><departure_city_name>Entebbe</departure_city_name><arrival_airport_iata>DOH</arrival_airport_iata><arrival_name_airport>Doha International</arrival_name_airport><arrival_coordinates_lon>51.558067</arrival_coordinates_lon><arrival_coordinates_lat>25.267569</arrival_coordinates_lat><arrival_country_code>QA</arrival_country_code><arrival_country_name>Qatar</arrival_country_name><arrival_city_code>DOH</arrival_city_code><arrival_city_name>Doha</arrival_city_name><planes>320</planes><plane_name>Airbus Industrie A320</plane_name></routes><routes><airline_iata>QR</airline_iata><departure_airport_iata>EBL</departure_airport_iata><departure_name_airport>Erbil International (irbil Northwest)</departure_name_airport><departure_coordinates_lon>43.963055</departure_coordinates_lon><departure_coordinates_lat>36.2375</departure_coordinates_lat><departure_country_code>IQ</departure_country_code><departure_country_name>Iraq</departure_country_name><departure_city_code>EBL</departure_city_code><departure_city_name>Erbil</departure_city_name><arrival_airport_iata>DOH</arrival_airport_iata><arrival_name_airport>Doha International</arrival_name_airport><arrival_coordinates_lon>51.558067</arrival_coordinates_lon><arrival_coordinates_lat>25.267569</arrival_coordinates_lat><arrival_country_code>QA</arrival_country_code><arrival_country_name>Qatar</arrival_country_name><arrival_city_code>DOH</arrival_city_code><arrival_city_name>Doha</arrival_city_name><planes>320</planes><plane_name>Airbus Industrie A320</plane_name></routes><routes><airline_iata>QR</airline_iata><departure_airport_iata>ESB</departure_airport_iata><departure_name_airport>Esenboga International</departure_name_airport><departure_coordinates_lon>32.993145</departure_coordinates_lon><departure_coordinates_lat>40.11494</departure_coordinates_lat><departure_country_code>TR</departure_country_code><departure_country_name>Turkey</departure_country_name><departure_city_code>ANK</departure_city_code><departure_city_name>Ankara</departure_city_name><arrival_airport_iata>DOH</arrival_airport_iata><arrival_name_airport>Doha International</arrival_name_airport><arrival_coordinates_lon>51.558067</arrival_coordinates_lon><arrival_coordinates_lat>25.267569</arrival_coordinates_lat><arrival_country_code>QA</arrival_country_code><arrival_country_name>Qatar</arrival_country_name><arrival_city_code>DOH</arrival_city_code><arrival_city_name>Doha</arrival_city_name><planes>320</planes><plane_name>Airbus Industrie A320</plane_name></routes><routes><airline_iata>QR</airline_iata><departure_airport_iata>FCO</departure_airport_iata><departure_name_airport>Leonardo Da Vinci (Fiumicino)</departure_name_airport><departure_coordinates_lon>12.250346</departure_coordinates_lon><departure_coordinates_lat>41.794594</departure_coordinates_lat><departure_country_code>IT</departure_country_code><departure_country_name>Italy</departure_country_name><departure_city_code>ROM</departure_city_code><departure_city_name>Rome</departure_city_name><arrival_airport_iata>DOH</arrival_airport_iata><arrival_name_airport>Doha International</arrival_name_airport><arrival_coordinates_lon>51.558067</arrival_coordinates_lon><arrival_coordinates_lat>25.267569</arrival_coordinates_lat><arrival_country_code>QA</arrival_country_code><arrival_country_name>Qatar</arrival_country_name><arrival_city_code>DOH</arrival_city_code><arrival_city_name>Doha</arrival_city_name><planes>333</planes><plane_name>Airbus Industrie A330-300</plane_name></routes><routes><airline_iata>QR</airline_iata><departure_airport_iata>FRA</departure_airport_iata><departure_name_airport>Frankfurt International Airport</departure_name_airport><departure_coordinates_lon>8.570773</departure_coordinates_lon><departure_coordinates_lat>50.050735</departure_coordinates_lat><departure_country_code>DE</departure_country_code><departure_country_name>Germany</departure_country_name><departure_city_code>FRA</departure_city_code><departure_city_name>Frankfurt</departure_city_name><arrival_airport_iata>DOH</arrival_airport_iata><arrival_name_airport>Doha International</arrival_name_airport><arrival_coordinates_lon>51.558067</arrival_coordinates_lon><arrival_coordinates_lat>25.267569</arrival_coordinates_lat><arrival_country_code>QA</arrival_country_code><arrival_country_name>Qatar</arrival_country_name><arrival_city_code>DOH</arrival_city_code><arrival_city_name>Doha</arrival_city_name><planes>332</planes><plane_name>Airbus Industrie A330-200</plane_name></routes><routes><airline_iata>QR</airline_iata><departure_airport_iata>GOI</departure_airport_iata><departure_name_airport>Goa International</departure_name_airport><departure_coordinates_lon>73.83983</departure_coordinates_lon><departure_coordinates_lat>15.384534</departure_coordinates_lat><departure_country_code>IN</departure_country_code><departure_country_name>India</departure_country_name><departure_city_code>GOI</departure_city_code><departure_city_name>Goa</departure_city_name><arrival_airport_iata>DOH</arrival_airport_iata><arrival_name_airport>Doha International</arrival_name_airport><arrival_coordinates_lon>51.558067</arrival_coordinates_lon><arrival_coordinates_lat>25.267569</arrival_coordinates_lat><arrival_country_code>QA</arrival_country_code><arrival_country_name>Qatar</arrival_country_name><arrival_city_code>DOH</arrival_city_code><arrival_city_name>Doha</arrival_city_name><planes>320</planes><plane_name>Airbus Industrie A320</plane_name></routes><routes><airline_iata>QR</airline_iata><departure_airport_iata>GRU</departure_airport_iata><departure_name_airport>Aeroporto Internacional Guarulhos</departure_name_airport><departure_coordinates_lon>-46.481926</departure_coordinates_lon><departure_coordinates_lat>-23.425669</departure_coordinates_lat><departure_country_code>BR</departure_country_code><departure_country_name>Brazil</departure_country_name><departure_city_code>SAO</departure_city_code><departure_city_name>Sao Paulo</departure_city_name><arrival_airport_iata>DOH</arrival_airport_iata><arrival_name_airport>Doha International</arrival_name_airport><arrival_coordinates_lon>51.558067</arrival_coordinates_lon><arrival_coordinates_lat>25.267569</arrival_coordinates_lat><arrival_country_code>QA</arrival_country_code><arrival_country_name>Qatar</arrival_country_name><arrival_city_code>DOH</arrival_city_code><arrival_city_name>Doha</arrival_city_name><planes>77L</planes><plane_name>Boeing 777-200LR</plane_name></routes><routes><airline_iata>QR</airline_iata><departure_airport_iata>GVA</departure_airport_iata><departure_name_airport>Geneve-cointrin</departure_name_airport><departure_coordinates_lon>6.105774</departure_coordinates_lon><departure_coordinates_lat>46.229633</departure_coordinates_lat><departure_country_code>CH</departure_country_code><departure_country_name>Switzerland</departure_country_name><departure_city_code>GVA</departure_city_code><departure_city_name>Geneva</departure_city_name><arrival_airport_iata>DOH</arrival_airport_iata><arrival_name_airport>Doha International</arrival_name_airport><arrival_coordinates_lon>51.558067</arrival_coordinates_lon><arrival_coordinates_lat>25.267569</arrival_coordinates_lat><arrival_country_code>QA</arrival_country_code><arrival_country_name>Qatar</arrival_country_name><arrival_city_code>DOH</arrival_city_code><arrival_city_name>Doha</arrival_city_name><planes>320</planes><plane_name>Airbus Industrie A320</plane_name></routes><routes><airline_iata>QR</airline_iata><departure_airport_iata>GYD</departure_airport_iata><departure_name_airport>Heydar Aliyev International (Bina International)</departure_name_airport><departure_coordinates_lon>50.05039</departure_coordinates_lon><departure_coordinates_lat>40.462486</departure_coordinates_lat><departure_country_code>AZ</departure_country_code><departure_country_name>Azerbaijan</departure_country_name><departure_city_code>BAK</departure_city_code><departure_city_name>Baku</departure_city_name><arrival_airport_iata>DOH</arrival_airport_iata><arrival_name_airport>Doha International</arrival_name_airport><arrival_coordinates_lon>51.558067</arrival_coordinates_lon><arrival_coordinates_lat>25.267569</arrival_coordinates_lat><arrival_country_code>QA</arrival_country_code><arrival_country_name>Qatar</arrival_country_name><arrival_city_code>DOH</arrival_city_code><arrival_city_name>Doha</arrival_city_name><planes>320</planes><plane_name>Airbus Industrie A320</plane_name></routes><routes><airline_iata>QR</airline_iata><departure_airport_iata>HBE</departure_airport_iata><departure_name_airport>Borg el Arab</departure_name_airport><departure_coordinates_lon>29.686504</departure_coordinates_lon><departure_coordinates_lat>30.922234</departure_coordinates_lat><departure_country_code>EG</departure_country_code><departure_country_name>Egypt</departure_country_name><departure_city_code>ALY</departure_city_code><departure_city_name>Alexandria</departure_city_name><arrival_airport_iata>DOH</arrival_airport_iata><arrival_name_airport>Doha International</arrival_name_airport><arrival_coordinates_lon>51.558067</arrival_coordinates_lon><arrival_coordinates_lat>25.267569</arrival_coordinates_lat><arrival_country_code>QA</arrival_country_code><arrival_country_name>Qatar</arrival_country_name><arrival_city_code>DOH</arrival_city_code><arrival_city_name>Doha</arrival_city_name><planes>320</planes><plane_name>Airbus Industrie A320</plane_name></routes><routes><airline_iata>QR</airline_iata><departure_airport_iata>HKG</departure_airport_iata><departure_name_airport>Hong Kong International</departure_name_airport><departure_coordinates_lon>113.93649</departure_coordinates_lon><departure_coordinates_lat>22.315248</departure_coordinates_lat><departure_country_code>HK</departure_country_code><departure_country_name>Hong Kong</departure_country_name><departure_city_code>HKG</departure_city_code><departure_city_name>Hong Kong</departure_city_name><arrival_airport_iata>DOH</arrival_airport_iata><arrival_name_airport>Doha International</arrival_name_airport><arrival_coordinates_lon>51.558067</arrival_coordinates_lon><arrival_coordinates_lat>25.267569</arrival_coordinates_lat><arrival_country_code>QA</arrival_country_code><arrival_country_name>Qatar</arrival_country_name><arrival_city_code>DOH</arrival_city_code><arrival_city_name>Doha</arrival_city_name><planes>332</planes><plane_name>Airbus Industrie A330-200</plane_name></routes><routes><airline_iata>QR</airline_iata><departure_airport_iata>HYD</departure_airport_iata><departure_name_airport>Hyderabad Airport</departure_name_airport><departure_coordinates_lon>78.428055</departure_coordinates_lon><departure_coordinates_lat>17.24</departure_coordinates_lat><departure_country_code>IN</departure_country_code><departure_country_name>India</departure_country_name><departure_city_code>HYD</departure_city_code><departure_city_name>Hyderabad</departure_city_name><arrival_airport_iata>DOH</arrival_airport_iata><arrival_name_airport>Doha International</arrival_name_airport><arrival_coordinates_lon>51.558067</arrival_coordinates_lon><arrival_coordinates_lat>25.267569</arrival_coordinates_lat><arrival_country_code>QA</arrival_country_code><arrival_country_name>Qatar</arrival_country_name><arrival_city_code>DOH</arrival_city_code><arrival_city_name>Doha</arrival_city_name><planes>321</planes><plane_name>Airbus Industrie A321</plane_name></routes><routes><airline_iata>QR</airline_iata><departure_airport_iata>IAD</departure_airport_iata><departure_name_airport>Washington Dulles International</departure_name_airport><departure_coordinates_lon>-77.44774</departure_coordinates_lon><departure_coordinates_lat>38.95315</departure_coordinates_lat><departure_country_code>US</departure_country_code><departure_country_name>United States</departure_country_name><departure_city_code>WAS</departure_city_code><departure_city_name>Washington</departure_city_name><arrival_airport_iata>DOH</arrival_airport_iata><arrival_name_airport>Doha International</arrival_name_airport><arrival_coordinates_lon>51.558067</arrival_coordinates_lon><arrival_coordinates_lat>25.267569</arrival_coordinates_lat><arrival_country_code>QA</arrival_country_code><arrival_country_name>Qatar</arrival_country_name><arrival_city_code>DOH</arrival_city_code><arrival_city_name>Doha</arrival_city_name><planes>77W</planes><plane_name>Boeing 777-300ER</plane_name></routes><routes><airline_iata>QR</airline_iata><departure_airport_iata>IAH</departure_airport_iata><departure_name_airport>George Bush Intercontinental</departure_name_airport><departure_coordinates_lon>-95.34</departure_coordinates_lon><departure_coordinates_lat>29.983334</departure_coordinates_lat><departure_country_code>US</departure_country_code><departure_country_name>United States</departure_country_name><departure_city_code>HOU</departure_city_code><departure_city_name>Houston</departure_city_name><arrival_airport_iata>DOH</arrival_airport_iata><arrival_name_airport>Doha International</arrival_name_airport><arrival_coordinates_lon>51.558067</arrival_coordinates_lon><arrival_coordinates_lat>25.267569</arrival_coordinates_lat><arrival_country_code>QA</arrival_country_code><arrival_country_name>Qatar</arrival_country_name><arrival_city_code>DOH</arrival_city_code><arrival_city_name>Doha</arrival_city_name><planes>77L</planes><plane_name>Boeing 777-200LR</plane_name></routes><routes><airline_iata>QR</airline_iata><departure_airport_iata>ICN</departure_airport_iata><departure_name_airport>Seoul (Incheon)</departure_name_airport><departure_coordinates_lon>126.45123</departure_coordinates_lon><departure_coordinates_lat>37.448524</departure_coordinates_lat><departure_country_code>KR</departure_country_code><departure_country_name>South Korea</departure_country_name><departure_city_code>SEL</departure_city_code><departure_city_name>Seoul</departure_city_name><arrival_airport_iata>DOH</arrival_airport_iata><arrival_name_airport>Doha International</arrival_name_airport><arrival_coordinates_lon>51.558067</arrival_coordinates_lon><arrival_coordinates_lat>25.267569</arrival_coordinates_lat><arrival_country_code>QA</arrival_country_code><arrival_country_name>Qatar</arrival_country_name><arrival_city_code>DOH</arrival_city_code><arrival_city_name>Doha</arrival_city_name><planes>77W</planes><plane_name>Boeing 777-300ER</plane_name></routes><routes><airline_iata>QR</airline_iata><departure_airport_iata>IKA</departure_airport_iata><departure_name_airport>Imam Khomeini Airport</departure_name_airport><departure_coordinates_lon>51.1548</departure_coordinates_lon><departure_coordinates_lat>35.40863</departure_coordinates_lat><departure_country_code>IR</departure_country_code><departure_country_name>Iran</departure_country_name><departure_city_code>THR</departure_city_code><departure_city_name>Tehran</departure_city_name><arrival_airport_iata>DOH</arrival_airport_iata><arrival_name_airport>Doha International</arrival_name_airport><arrival_coordinates_lon>51.558067</arrival_coordinates_lon><arrival_coordinates_lat>25.267569</arrival_coordinates_lat><arrival_country_code>QA</arrival_country_code><arrival_country_name>Qatar</arrival_country_name><arrival_city_code>DOH</arrival_city_code><arrival_city_name>Doha</arrival_city_name><planes>321</planes><plane_name>Airbus Industrie A321</plane_name></routes><routes><airline_iata>QR</airline_iata><departure_airport_iata>ISB</departure_airport_iata><departure_name_airport>Islamabad International</departure_name_airport><departure_coordinates_lon>73.1051</departure_coordinates_lon><departure_coordinates_lat>33.609707</departure_coordinates_lat><departure_country_code>PK</departure_country_code><departure_country_name>Pakistan</departure_country_name><departure_city_code>ISB</departure_city_code><departure_city_name>Islamabad</departure_city_name><arrival_airport_iata>DOH</arrival_airport_iata><arrival_name_airport>Doha International</arrival_name_airport><arrival_coordinates_lon>51.558067</arrival_coordinates_lon><arrival_coordinates_lat>25.267569</arrival_coordinates_lat><arrival_country_code>QA</arrival_country_code><arrival_country_name>Qatar</arrival_country_name><arrival_city_code>DOH</arrival_city_code><arrival_city_name>Doha</arrival_city_name><planes>333</planes><plane_name>Airbus Industrie A330-300</plane_name></routes><routes><airline_iata>QR</airline_iata><departure_airport_iata>IST</departure_airport_iata><departure_name_airport>Ataturk</departure_name_airport><departure_coordinates_lon>28.815277</departure_coordinates_lon><departure_coordinates_lat>40.976665</departure_coordinates_lat><departure_country_code>TR</departure_country_code><departure_country_name>Turkey</departure_country_name><departure_city_code>IST</departure_city_code><departure_city_name>Istanbul</departure_city_name><arrival_airport_iata>DOH</arrival_airport_iata><arrival_name_airport>Doha International</arrival_name_airport><arrival_coordinates_lon>51.558067</arrival_coordinates_lon><arrival_coordinates_lat>25.267569</arrival_coordinates_lat><arrival_country_code>QA</arrival_country_code><arrival_country_name>Qatar</arrival_country_name><arrival_city_code>DOH</arrival_city_code><arrival_city_name>Doha</arrival_city_name><planes>320</planes><plane_name>Airbus Industrie A320</plane_name></routes><routes><airline_iata>QR</airline_iata><departure_airport_iata>JED</departure_airport_iata><departure_name_airport>King Abdulaziz International</departure_name_airport><departure_coordinates_lon>39.150578</departure_coordinates_lon><departure_coordinates_lat>21.670233</departure_coordinates_lat><departure_country_code>SA</departure_country_code><departure_country_name>Saudi Arabia</departure_country_name><departure_city_code>JED</departure_city_code><departure_city_name>Jeddah</departure_city_name><arrival_airport_iata>DOH</arrival_airport_iata><arrival_name_airport>Doha International</arrival_name_airport><arrival_coordinates_lon>51.558067</arrival_coordinates_lon><arrival_coordinates_lat>25.267569</arrival_coordinates_lat><arrival_country_code>QA</arrival_country_code><arrival_country_name>Qatar</arrival_country_name><arrival_city_code>DOH</arrival_city_code><arrival_city_name>Doha</arrival_city_name><planes>321</planes><plane_name>Airbus Industrie A321</plane_name></routes><routes><airline_iata>QR</airline_iata><departure_airport_iata>JFK</departure_airport_iata><departure_name_airport>John F Kennedy International</departure_name_airport><departure_coordinates_lon>-73.78817</departure_coordinates_lon><departure_coordinates_lat>40.642334</departure_coordinates_lat><departure_country_code>US</departure_country_code><departure_country_name>United States</departure_country_name><departure_city_code>NYC</departure_city_code><departure_city_name>New York</departure_city_name><arrival_airport_iata>DOH</arrival_airport_iata><arrival_name_airport>Doha International</arrival_name_airport><arrival_coordinates_lon>51.558067</arrival_coordinates_lon><arrival_coordinates_lat>25.267569</arrival_coordinates_lat><arrival_country_code>QA</arrival_country_code><arrival_country_name>Qatar</arrival_country_name><arrival_city_code>DOH</arrival_city_code><arrival_city_name>Doha</arrival_city_name><planes>77W</planes><plane_name>Boeing 777-300ER</plane_name></routes><routes><airline_iata>QR</airline_iata><departure_airport_iata>JNB</departure_airport_iata><departure_name_airport>Oliver Reginald Tambo International (Jan Smuts International)</departure_name_airport><departure_coordinates_lon>28.231314</departure_coordinates_lon><departure_coordinates_lat>-26.132664</departure_coordinates_lat><departure_country_code>ZA</departure_country_code><departure_country_name>South Africa</departure_country_name><departure_city_code>JNB</departure_city_code><departure_city_name>Johannesburg</departure_city_name><arrival_airport_iata>DOH</arrival_airport_iata><arrival_name_airport>Doha International</arrival_name_airport><arrival_coordinates_lon>51.558067</arrival_coordinates_lon><arrival_coordinates_lat>25.267569</arrival_coordinates_lat><arrival_country_code>QA</arrival_country_code><arrival_country_name>Qatar</arrival_country_name><arrival_city_code>DOH</arrival_city_code><arrival_city_name>Doha</arrival_city_name><planes>77W</planes><plane_name>Boeing 777-300ER</plane_name></routes><routes><airline_iata>QR</airline_iata><departure_airport_iata>KHI</departure_airport_iata><departure_name_airport>Quaid-e-azam International</departure_name_airport><departure_coordinates_lon>67.16828</departure_coordinates_lon><departure_coordinates_lat>24.899986</departure_coordinates_lat><departure_country_code>PK</departure_country_code><departure_country_name>Pakistan</departure_country_name><departure_city_code>KHI</departure_city_code><departure_city_name>Karachi</departure_city_name><arrival_airport_iata>DOH</arrival_airport_iata><arrival_name_airport>Doha International</arrival_name_airport><arrival_coordinates_lon>51.558067</arrival_coordinates_lon><arrival_coordinates_lat>25.267569</arrival_coordinates_lat><arrival_country_code>QA</arrival_country_code><arrival_country_name>Qatar</arrival_country_name><arrival_city_code>DOH</arrival_city_code><arrival_city_na