<?xml version="1.0" encoding="utf-8"?>
<route><routes><airline_iata>9W</airline_iata><departure_airport_iata>BOM</departure_airport_iata><departure_name_airport>Chhatrapati Shivaji International (Sahar International)</departure_name_airport><departure_coordinates_lon>72.87497</departure_coordinates_lon><departure_coordinates_lat>19.095509</departure_coordinates_lat><departure_country_code>IN</departure_country_code><departure_country_name>India</departure_country_name><departure_city_code>BOM</departure_city_code><departure_city_name>Mumbai</departure_city_name><arrival_airport_iata>DMM</arrival_airport_iata><arrival_name_airport>King Fahd International Airport</arrival_name_airport><arrival_coordinates_lon>49.79778</arrival_coordinates_lon><arrival_coordinates_lat>26.471111</arrival_coordinates_lat><arrival_country_code>SA</arrival_country_code><arrival_country_name>Saudi Arabia</arrival_country_name><arrival_city_code>DMM</arrival_city_code><arrival_city_name>Dammam</arrival_city_name><planes>73H</planes><plane_name>Boeing 737-800 With Winglets</plane_name></routes><routes><airline_iata>9W</airline_iata><departure_airport_iata>BOM</departure_airport_iata><departure_name_airport>Chhatrapati Shivaji International (Sahar International)</departure_name_airport><departure_coordinates_lon>72.87497</departure_coordinates_lon><departure_coordinates_lat>19.095509</departure_coordinates_lat><departure_country_code>IN</departure_country_code><departure_country_name>India</departure_country_name><departure_city_code>BOM</departure_city_code><departure_city_name>Mumbai</departure_city_name><arrival_airport_iata>JED</arrival_airport_iata><arrival_name_airport>King Abdulaziz International</arrival_name_airport><arrival_coordinates_lon>39.150578</arrival_coordinates_lon><arrival_coordinates_lat>21.670233</arrival_coordinates_lat><arrival_country_code>SA</arrival_country_code><arrival_country_name>Saudi Arabia</arrival_country_name><arrival_city_code>JED</arrival_city_code><arrival_city_name>Jeddah</arrival_city_name><planes>739</planes><plane_name>Boeing 737-900</plane_name></routes><routes><airline_iata>9W</airline_iata><departure_airport_iata>BOM</departure_airport_iata><departure_name_airport>Chhatrapati Shivaji International (Sahar International)</departure_name_airport><departure_coordinates_lon>72.87497</departure_coordinates_lon><departure_coordinates_lat>19.095509</departure_coordinates_lat><departure_country_code>IN</departure_country_code><departure_country_name>India</departure_country_name><departure_city_code>BOM</departure_city_code><departure_city_name>Mumbai</departure_city_name><arrival_airport_iata>RUH</arrival_airport_iata><arrival_name_airport>King Khaled International</arrival_name_airport><arrival_coordinates_lon>46.702877</arrival_coordinates_lon><arrival_coordinates_lat>24.95929</arrival_coordinates_lat><arrival_country_code>SA</arrival_country_code><arrival_country_name>Saudi Arabia</arrival_country_name><arrival_city_code>RUH</arrival_city_code><arrival_city_name>Riyadh</arrival_city_name><planes>739</planes><plane_name>Boeing 737-900</plane_name></routes><routes><airline_iata>9W</airline_iata><departure_airport_iata>DEL</departure_airport_iata><departure_name_airport>Indira Gandhi International</departure_name_airport><departure_coordinates_lon>77.10079</departure_coordinates_lon><departure_coordinates_lat>28.556555</departure_coordinates_lat><departure_country_code>IN</departure_country_code><departure_country_name>India</departure_country_name><departure_city_code>DEL</departure_city_code><departure_city_name>New Delhi</departure_city_name><arrival_airport_iata>DMM</arrival_airport_iata><arrival_name_airport>King Fahd International Airport</arrival_name_airport><arrival_coordinates_lon>49.79778</arrival_coordinates_lon><arrival_coordinates_lat>26.471111</arrival_coordinates_lat><arrival_country_code>SA</arrival_country_code><arrival_country_name>Saudi Arabia</arrival_country_name><arrival_city_code>DMM</arrival_city_code><arrival_city_name>Dammam</arrival_city_name><planes>73H</planes><plane_name>Boeing 737-800 With Winglets</plane_name></routes><routes><airline_iata>9W</airline_iata><departure_airport_iata>TRV</departure_airport_iata><departure_name_airport>Thiruvananthapuram International</departure_name_airport><departure_coordinates_lon>76.91907</departure_coordinates_lon><departure_coordinates_lat>8.476126</departure_coordinates_lat><departure_country_code>IN</departure_country_code><departure_country_name>India</departure_country_name><departure_city_code>TRV</departure_city_code><departure_city_name>Thiruvananthapuram</departure_city_name><arrival_airport_iata>DMM</arrival_airport_iata><arrival_name_airport>King Fahd International Airport</arrival_name_airport><arrival_coordinates_lon>49.79778</arrival_coordinates_lon><arrival_coordinates_lat>26.471111</arrival_coordinates_lat><arrival_country_code>SA</arrival_country_code><arrival_country_name>Saudi Arabia</arrival_country_name><arrival_city_code>DMM</arrival_city_code><arrival_city_name>Dammam</arrival_city_name><planes>73H</planes><plane_name>Boeing 737-800 With Winglets</plane_name></routes><routes><airline_iata>AF</airline_iata><departure_airport_iata>AMS</departure_airport_iata><departure_name_airport>Schiphol</departure_name_airport><departure_coordinates_lon>4.763385</departure_coordinates_lon><departure_coordinates_lat>52.30907</departure_coordinates_lat><departure_country_code>NL</departure_country_code><departure_country_name>Netherlands</departure_country_name><departure_city_code>AMS</departure_city_code><departure_city_name>Amsterdam</departure_city_name><arrival_airport_iata>DMM</arrival_airport_iata><arrival_name_airport>King Fahd International Airport</arrival_name_airport><arrival_coordinates_lon>49.79778</arrival_coordinates_lon><arrival_coordinates_lat>26.471111</arrival_coordinates_lat><arrival_country_code>SA</arrival_country_code><arrival_country_name>Saudi Arabia</arrival_country_name><arrival_city_code>DMM</arrival_city_code><arrival_city_name>Dammam</arrival_city_name><planes>332</planes><plane_name>Airbus Industrie A330-200</plane_name></routes><routes><airline_iata>AF</airline_iata><departure_airport_iata>CDG</departure_airport_iata><departure_name_airport>Charles De Gaulle</departure_name_airport><departure_coordinates_lon>2.567023</departure_coordinates_lon><departure_coordinates_lat>49.003197</departure_coordinates_lat><departure_country_code>FR</departure_country_code><departure_country_name>France</departure_country_name><departure_city_code>PAR</departure_city_code><departure_city_name>Paris</departure_city_name><arrival_airport_iata>JED</arrival_airport_iata><arrival_name_airport>King Abdulaziz International</arrival_name_airport><arrival_coordinates_lon>39.150578</arrival_coordinates_lon><arrival_coordinates_lat>21.670233</arrival_coordinates_lat><arrival_country_code>SA</arrival_country_code><arrival_country_name>Saudi Arabia</arrival_country_name><arrival_city_code>JED</arrival_city_code><arrival_city_name>Jeddah</arrival_city_name><planes>320</planes><plane_name>Airbus Industrie A320</plane_name></routes><routes><airline_iata>AF</airline_iata><departure_airport_iata>CDG</departure_airport_iata><departure_name_airport>Charles De Gaulle</departure_name_airport><departure_coordinates_lon>2.567023</departure_coordinates_lon><departure_coordinates_lat>49.003197</departure_coordinates_lat><departure_country_code>FR</departure_country_code><departure_country_name>France</departure_country_name><departure_city_code>PAR</departure_city_code><departure_city_name>Paris</departure_city_name><arrival_airport_iata>RUH</arrival_airport_iata><arrival_name_airport>King Khaled International</arrival_name_airport><arrival_coordinates_lon>46.702877</arrival_coordinates_lon><arrival_coordinates_lat>24.95929</arrival_coordinates_lat><arrival_country_code>SA</arrival_country_code><arrival_country_name>Saudi Arabia</arrival_country_name><arrival_city_code>RUH</arrival_city_code><arrival_city_name>Riyadh</arrival_city_name><planes>332</planes><plane_name>Airbus Industrie A330-200</plane_name></routes><routes><airline_iata>AF</airline_iata><departure_airport_iata>CDG</departure_airport_iata><departure_name_airport>Charles De Gaulle</departure_name_airport><departure_coordinates_lon>2.567023</departure_coordinates_lon><departure_coordinates_lat>49.003197</departure_coordinates_lat><departure_country_code>FR</departure_country_code><departure_country_name>France</departure_country_name><departure_city_code>PAR</departure_city_code><departure_city_name>Paris</departure_city_name><arrival_airport_iata>RUH</arrival_airport_iata><arrival_name_airport>King Khaled International</arrival_name_airport><arrival_coordinates_lon>46.702877</arrival_coordinates_lon><arrival_coordinates_lat>24.95929</arrival_coordinates_lat><arrival_country_code>SA</arrival_country_code><arrival_country_name>Saudi Arabia</arrival_country_name><arrival_city_code>RUH</arrival_city_code><arrival_city_name>Riyadh</arrival_city_name><planes>320</planes><plane_name>Airbus Industrie A320</plane_name></routes><routes><airline_iata>AF</airline_iata><departure_airport_iata>JIB</departure_airport_iata><departure_name_airport>Ambouli</departure_name_airport><departure_coordinates_lon>43.149677</departure_coordinates_lon><departure_coordinates_lat>11.552361</departure_coordinates_lat><departure_country_code>DJ</departure_country_code><departure_country_name>Djibouti</departure_country_name><departure_city_code>JIB</departure_city_code><departure_city_name>Djibouti</departure_city_name><arrival_airport_iata>RUH</arrival_airport_iata><arrival_name_airport>King Khaled International</arrival_name_airport><arrival_coordinates_lon>46.702877</arrival_coordinates_lon><arrival_coordinates_lat>24.95929</arrival_coordinates_lat><arrival_country_code>SA</arrival_country_code><arrival_country_name>Saudi Arabia</arrival_country_name><arrival_city_code>RUH</arrival_city_code><arrival_city_name>Riyadh</arrival_city_name><planes>332</planes><plane_name>Airbus Industrie A330-200</plane_name></routes><routes><airline_iata>AF</airline_iata><departure_airport_iata>KWI</departure_airport_iata><departure_name_airport>Kuwait International</departure_name_airport><departure_coordinates_lon>47.971252</departure_coordinates_lon><departure_coordinates_lat>29.240116</departure_coordinates_lat><departure_country_code>KW</departure_country_code><departure_country_name>Kuwait</departure_country_name><departure_city_code>KWI</departure_city_code><departure_city_name>Kuwait City</departure_city_name><arrival_airport_iata>DMM</arrival_airport_iata><arrival_name_airport>King Fahd International Airport</arrival_name_airport><arrival_coordinates_lon>49.79778</arrival_coordinates_lon><arrival_coordinates_lat>26.471111</arrival_coordinates_lat><arrival_country_code>SA</arrival_country_code><arrival_country_name>Saudi Arabia</arrival_country_name><arrival_city_code>DMM</arrival_city_code><arrival_city_name>Dammam</arrival_city_name><planes>332</planes><plane_name>Airbus Industrie A330-200</plane_name></routes><routes><airline_iata>AI</airline_iata><departure_airport_iata>BOM</departure_airport_iata><departure_name_airport>Chhatrapati Shivaji International (Sahar International)</departure_name_airport><departure_coordinates_lon>72.87497</departure_coordinates_lon><departure_coordinates_lat>19.095509</departure_coordinates_lat><departure_country_code>IN</departure_country_code><departure_country_name>India</departure_country_name><departure_city_code>BOM</departure_city_code><departure_city_name>Mumbai</departure_city_name><arrival_airport_iata>JED</arrival_airport_iata><arrival_name_airport>King Abdulaziz International</arrival_name_airport><arrival_coordinates_lon>39.150578</arrival_coordinates_lon><arrival_coordinates_lat>21.670233</arrival_coordinates_lat><arrival_country_code>SA</arrival_country_code><arrival_country_name>Saudi Arabia</arrival_country_name><arrival_city_code>JED</arrival_city_code><arrival_city_name>Jeddah</arrival_city_name><planes>77W</planes><plane_name>Boeing 777-300ER</plane_name></routes><routes><airline_iata>AI</airline_iata><departure_airport_iata>BOM</departure_airport_iata><departure_name_airport>Chhatrapati Shivaji International (Sahar International)</departure_name_airport><departure_coordinates_lon>72.87497</departure_coordinates_lon><departure_coordinates_lat>19.095509</departure_coordinates_lat><departure_country_code>IN</departure_country_code><departure_country_name>India</departure_country_name><departure_city_code>BOM</departure_city_code><departure_city_name>Mumbai</departure_city_name><arrival_airport_iata>RUH</arrival_airport_iata><arrival_name_airport>King Khaled International</arrival_name_airport><arrival_coordinates_lon>46.702877</arrival_coordinates_lon><arrival_coordinates_lat>24.95929</arrival_coordinates_lat><arrival_country_code>SA</arrival_country_code><arrival_country_name>Saudi Arabia</arrival_country_name><arrival_city_code>RUH</arrival_city_code><arrival_city_name>Riyadh</arrival_city_name><planes>77W</planes><plane_name>Boeing 777-300ER</plane_name></routes><routes><airline_iata>AI</airline_iata><departure_airport_iata>CCJ</departure_airport_iata><departure_name_airport>Kozhikode Airport</departure_name_airport><departure_coordinates_lon>75.950584</departure_coordinates_lon><departure_coordinates_lat>11.14025</departure_coordinates_lat><departure_country_code>IN</departure_country_code><departure_country_name>India</departure_country_name><departure_city_code>CCJ</departure_city_code><departure_city_name>Kozhikode</departure_city_name><arrival_airport_iata>JED</arrival_airport_iata><arrival_name_airport>King Abdulaziz International</arrival_name_airport><arrival_coordinates_lon>39.150578</arrival_coordinates_lon><arrival_coordinates_lat>21.670233</arrival_coordinates_lat><arrival_country_code>SA</arrival_country_code><arrival_country_name>Saudi Arabia</arrival_country_name><arrival_city_code>JED</arrival_city_code><arrival_city_name>Jeddah</arrival_city_name><planes>744</planes><plane_name>Boeing 747-400</plane_name></routes><routes><airline_iata>AI</airline_iata><departure_airport_iata>CCJ</departure_airport_iata><departure_name_airport>Kozhikode Airport</departure_name_airport><departure_coordinates_lon>75.950584</departure_coordinates_lon><departure_coordinates_lat>11.14025</departure_coordinates_lat><departure_country_code>IN</departure_country_code><departure_country_name>India</departure_country_name><departure_city_code>CCJ</departure_city_code><departure_city_name>Kozhikode</departure_city_name><arrival_airport_iata>RUH</arrival_airport_iata><arrival_name_airport>King Khaled International</arrival_name_airport><arrival_coordinates_lon>46.702877</arrival_coordinates_lon><arrival_coordinates_lat>24.95929</arrival_coordinates_lat><arrival_country_code>SA</arrival_country_code><arrival_country_name>Saudi Arabia</arrival_country_name><arrival_city_code>RUH</arrival_city_code><arrival_city_name>Riyadh</arrival_city_name><planes>77W</planes><plane_name>Boeing 777-300ER</plane_name></routes><routes><airline_iata>AI</airline_iata><departure_airport_iata>DEL</departure_airport_iata><departure_name_airport>Indira Gandhi International</departure_name_airport><departure_coordinates_lon>77.10079</departure_coordinates_lon><departure_coordinates_lat>28.556555</departure_coordinates_lat><departure_country_code>IN</departure_country_code><departure_country_name>India</departure_country_name><departure_city_code>DEL</departure_city_code><departure_city_name>New Delhi</departure_city_name><arrival_airport_iata>DMM</arrival_airport_iata><arrival_name_airport>King Fahd International Airport</arrival_name_airport><arrival_coordinates_lon>49.79778</arrival_coordinates_lon><arrival_coordinates_lat>26.471111</arrival_coordinates_lat><arrival_country_code>SA</arrival_country_code><arrival_country_name>Saudi Arabia</arrival_country_name><arrival_city_code>DMM</arrival_city_code><arrival_city_name>Dammam</arrival_city_name><planes>319</planes><plane_name>Airbus Industrie A319</plane_name></routes><routes><airline_iata>AI</airline_iata><departure_airport_iata>DEL</departure_airport_iata><departure_name_airport>Indira Gandhi International</departure_name_airport><departure_coordinates_lon>77.10079</departure_coordinates_lon><departure_coordinates_lat>28.556555</departure_coordinates_lat><departure_country_code>IN</departure_country_code><departure_country_name>India</departure_country_name><departure_city_code>DEL</departure_city_code><departure_city_name>New Delhi</departure_city_name><arrival_airport_iata>JED</arrival_airport_iata><arrival_name_airport>King Abdulaziz International</arrival_name_airport><arrival_coordinates_lon>39.150578</arrival_coordinates_lon><arrival_coordinates_lat>21.670233</arrival_coordinates_lat><arrival_country_code>SA</arrival_country_code><arrival_country_name>Saudi Arabia</arrival_country_name><arrival_city_code>JED</arrival_city_code><arrival_city_name>Jeddah</arrival_city_name><planes>77W</planes><plane_name>Boeing 777-300ER</plane_name></routes><routes><airline_iata>AI</airline_iata><departure_airport_iata>DEL</departure_airport_iata><departure_name_airport>Indira Gandhi International</departure_name_airport><departure_coordinates_lon>77.10079</departure_coordinates_lon><departure_coordinates_lat>28.556555</departure_coordinates_lat><departure_country_code>IN</departure_country_code><departure_country_name>India</departure_country_name><departure_city_code>DEL</departure_city_code><departure_city_name>New Delhi</departure_city_name><arrival_airport_iata>RUH</arrival_airport_iata><arrival_name_airport>King Khaled International</arrival_name_airport><arrival_coordinates_lon>46.702877</arrival_coordinates_lon><arrival_coordinates_lat>24.95929</arrival_coordinates_lat><arrival_country_code>SA</arrival_country_code><arrival_country_name>Saudi Arabia</arrival_country_name><arrival_city_code>RUH</arrival_city_code><arrival_city_name>Riyadh</arrival_city_name><planes>77W</planes><plane_name>Boeing 777-300ER</plane_name></routes><routes><airline_iata>AI</airline_iata><departure_airport_iata>HYD</departure_airport_iata><departure_name_airport>Hyderabad Airport</departure_name_airport><departure_coordinates_lon>78.428055</departure_coordinates_lon><departure_coordinates_lat>17.24</departure_coordinates_lat><departure_country_code>IN</departure_country_code><departure_country_name>India</departure_country_name><departure_city_code>HYD</departure_city_code><departure_city_name>Hyderabad</departure_city_name><arrival_airport_iata>JED</arrival_airport_iata><arrival_name_airport>King Abdulaziz International</arrival_name_airport><arrival_coordinates_lon>39.150578</arrival_coordinates_lon><arrival_coordinates_lat>21.670233</arrival_coordinates_lat><arrival_country_code>SA</arrival_country_code><arrival_country_name>Saudi Arabia</arrival_country_name><arrival_city_code>JED</arrival_city_code><arrival_city_name>Jeddah</arrival_city_name><planes>744</planes><plane_name>Boeing 747-400</plane_name></routes><routes><airline_iata>AT</airline_iata><departure_airport_iata>CAI</departure_airport_iata><departure_name_airport>Cairo International Airport</departure_name_airport><departure_coordinates_lon>31.40647</departure_coordinates_lon><departure_coordinates_lat>30.120106</departure_coordinates_lat><departure_country_code>EG</departure_country_code><departure_country_name>Egypt</departure_country_name><departure_city_code>CAI</departure_city_code><departure_city_name>Cairo</departure_city_name><arrival_airport_iata>RUH</arrival_airport_iata><arrival_name_airport>King Khaled International</arrival_name_airport><arrival_coordinates_lon>46.702877</arrival_coordinates_lon><arrival_coordinates_lat>24.95929</arrival_coordinates_lat><arrival_country_code>SA</arrival_country_code><arrival_country_name>Saudi Arabia</arrival_country_name><arrival_city_code>RUH</arrival_city_code><arrival_city_name>Riyadh</arrival_city_name><planes>738</planes><plane_name>Boeing 737-800</plane_name></routes><routes><airline_iata>AT</airline_iata><departure_airport_iata>CMN</departure_airport_iata><departure_name_airport>Mohamed V</departure_name_airport><departure_coordinates_lon>-7.586667</departure_coordinates_lon><departure_coordinates_lat>33.36667</departure_coordinates_lat><departure_country_code>MA</departure_country_code><departure_country_name>Morocco</departure_country_name><departure_city_code>CAS</departure_city_code><departure_city_name>Casablanca</departure_city_name><arrival_airport_iata>JED</arrival_airport_iata><arrival_name_airport>King Abdulaziz International</arrival_name_airport><arrival_coordinates_lon>39.150578</arrival_coordinates_lon><arrival_coordinates_lat>21.670233</arrival_coordinates_lat><arrival_country_code>SA</arrival_country_code><arrival_country_name>Saudi Arabia</arrival_country_name><arrival_city_code>JED</arrival_city_code><arrival_city_name>Jeddah</arrival_city_name><planes>763</planes><plane_name>Boeing 767-300</plane_name></routes><routes><airline_iata>AT</airline_iata><departure_airport_iata>OUD</departure_airport_iata><departure_name_airport>Les Anglades</departure_name_airport><departure_coordinates_lon>-1.933333</departure_coordinates_lon><departure_coordinates_lat>34.783333</departure_coordinates_lat><departure_country_code>MA</departure_country_code><departure_country_name>Morocco</departure_country_name><departure_city_code>OUD</departure_city_code><departure_city_name>Oujda</departure_city_name><arrival_airport_iata>JED</arrival_airport_iata><arrival_name_airport>King Abdulaziz International</arrival_name_airport><arrival_coordinates_lon>39.150578</arrival_coordinates_lon><arrival_coordinates_lat>21.670233</arrival_coordinates_lat><arrival_country_code>SA</arrival_country_code><arrival_country_name>Saudi Arabia</arrival_country_name><arrival_city_code>JED</arrival_city_code><arrival_city_name>Jeddah</arrival_city_name><planes>763</planes><plane_name>Boeing 767-300</plane_name></routes><routes><airline_iata>AT</airline_iata><departure_airport_iata>RBA</departure_airport_iata><departure_name_airport>Sale</departure_name_airport><departure_coordinates_lon>-6.748619</departure_coordinates_lon><departure_coordinates_lat>34.036137</departure_coordinates_lat><departure_country_code>MA</departure_country_code><departure_country_name>Morocco</departure_country_name><departure_city_code>RBA</departure_city_code><departure_city_name>Rabat</departure_city_name><arrival_airport_iata>JED</arrival_airport_iata><arrival_name_airport>King Abdulaziz International</arrival_name_airport><arrival_coordinates_lon>39.150578</arrival_coordinates_lon><arrival_coordinates_lat>21.670233</arrival_coordinates_lat><arrival_country_code>SA</arrival_country_code><arrival_country_name>Saudi Arabia</arrival_country_name><arrival_city_code>JED</arrival_city_code><arrival_city_name>Jeddah</arrival_city_name><planes>744</planes><plane_name>Boeing 747-400</plane_name></routes><routes><airline_iata>AT</airline_iata><departure_airport_iata>RBA</departure_airport_iata><departure_name_airport>Sale</departure_name_airport><departure_coordinates_lon>-6.748619</departure_coordinates_lon><departure_coordinates_lat>34.036137</departure_coordinates_lat><departure_country_code>MA</departure_country_code><departure_country_name>Morocco</departure_country_name><departure_city_code>RBA</departure_city_code><departure_city_name>Rabat</departure_city_name><arrival_airport_iata>MED</arrival_airport_iata><arrival_name_airport>Mohammad Bin Abdulaziz</arrival_name_airport><arrival_coordinates_lon>39.698967</arrival_coordinates_lon><arrival_coordinates_lat>24.544369</arrival_coordinates_lat><arrival_country_code>SA</arrival_country_code><arrival_country_name>Saudi Arabia</arrival_country_name><arrival_city_code>MED</arrival_city_code><arrival_city_name>Madinah</arrival_city_name><planes>738</planes><plane_name>Boeing 737-800</plane_name></routes><routes><airline_iata>AZ</airline_iata><departure_airport_iata>FCO</departure_airport_iata><departure_name_airport>Leonardo Da Vinci (Fiumicino)</departure_name_airport><departure_coordinates_lon>12.250346</departure_coordinates_lon><departure_coordinates_lat>41.794594</departure_coordinates_lat><departure_country_code>IT</departure_country_code><departure_country_name>Italy</departure_country_name><departure_city_code>ROM</departure_city_code><departure_city_name>Rome</departure_city_name><arrival_airport_iata>JED</arrival_airport_iata><arrival_name_airport>King Abdulaziz International</arrival_name_airport><arrival_coordinates_lon>39.150578</arrival_coordinates_lon><arrival_coordinates_lat>21.670233</arrival_coordinates_lat><arrival_country_code>SA</arrival_country_code><arrival_country_name>Saudi Arabia</arrival_country_name><arrival_city_code>JED</arrival_city_code><arrival_city_name>Jeddah</arrival_city_name><planes>320</planes><plane_name>Airbus Industrie A320</plane_name></routes><routes><airline_iata>AZ</airline_iata><departure_airport_iata>FCO</departure_airport_iata><departure_name_airport>Leonardo Da Vinci (Fiumicino)</departure_name_airport><departure_coordinates_lon>12.250346</departure_coordinates_lon><departure_coordinates_lat>41.794594</departure_coordinates_lat><departure_country_code>IT</departure_country_code><departure_country_name>Italy</departure_country_name><departure_city_code>ROM</departure_city_code><departure_city_name>Rome</departure_city_name><arrival_airport_iata>RUH</arrival_airport_iata><arrival_name_airport>King Khaled International</arrival_name_airport><arrival_coordinates_lon>46.702877</arrival_coordinates_lon><arrival_coordinates_lat>24.95929</arrival_coordinates_lat><arrival_country_code>SA</arrival_country_code><arrival_country_name>Saudi Arabia</arrival_country_name><arrival_city_code>RUH</arrival_city_code><arrival_city_name>Riyadh</arrival_city_name><planes>320</planes><plane_name>Airbus Industrie A320</plane_name></routes><routes><airline_iata>AZ</airline_iata><departure_airport_iata>MXP</departure_airport_iata><departure_name_airport>Milano Malpensa</departure_name_airport><departure_coordinates_lon>8.71237</departure_coordinates_lon><departure_coordinates_lat>45.627403</departure_coordinates_lat><departure_country_code>IT</departure_country_code><departure_country_name>Italy</departure_country_name><departure_city_code>MIL</departure_city_code><departure_city_name>Milan</departure_city_name><arrival_airport_iata>JED</arrival_airport_iata><arrival_name_airport>King Abdulaziz International</arrival_name_airport><arrival_coordinates_lon>39.150578</arrival_coordinates_lon><arrival_coordinates_lat>21.670233</arrival_coordinates_lat><arrival_country_code>SA</arrival_country_code><arrival_country_name>Saudi Arabia</arrival_country_name><arrival_city_code>JED</arrival_city_code><arrival_city_name>Jeddah</arrival_city_name><planes>320</planes><plane_name>Airbus Industrie A320</plane_name></routes><routes><airline_iata>AZ</airline_iata><departure_airport_iata>MXP</departure_airport_iata><departure_name_airport>Milano Malpensa</departure_name_airport><departure_coordinates_lon>8.71237</departure_coordinates_lon><departure_coordinates_lat>45.627403</departure_coordinates_lat><departure_country_code>IT</departure_country_code><departure_country_name>Italy</departure_country_name><departure_city_code>MIL</departure_city_code><departure_city_name>Milan</departure_city_name><arrival_airport_iata>RUH</arrival_airport_iata><arrival_name_airport>King Khaled International</arrival_name_airport><arrival_coordinates_lon>46.702877</arrival_coordinates_lon><arrival_coordinates_lat>24.95929</arrival_coordinates_lat><arrival_country_code>SA</arrival_country_code><arrival_country_name>Saudi Arabia</arrival_country_name><arrival_city_code>RUH</arrival_city_code><arrival_city_name>Riyadh</arrival_city_name><planes>320</planes><plane_name>Airbus Industrie A320</plane_name></routes><routes><airline_iata>BA</airline_iata><departure_airport_iata>LHR</departure_airport_iata><departure_name_airport>Heathrow</departure_name_airport><departure_coordinates_lon>-0.453566</departure_coordinates_lon><departure_coordinates_lat>51.469604</departure_coordinates_lat><departure_country_code>GB</departure_country_code><departure_country_name>United Kingdom</departure_country_name><departure_city_code>LON</departure_city_code><departure_city_name>London</departure_city_name><arrival_airport_iata>JED</arrival_airport_iata><arrival_name_airport>King Abdulaziz International</arrival_name_airport><arrival_coordinates_lon>39.150578</arrival_coordinates_lon><arrival_coordinates_lat>21.670233</arrival_coordinates_lat><arrival_country_code>SA</arrival_country_code><arrival_country_name>Saudi Arabia</arrival_country_name><arrival_city_code>JED</arrival_city_code><arrival_city_name>Jeddah</arrival_city_name><planes>767</planes><plane_name>Boeing 767</plane_name></routes><routes><airline_iata>BA</airline_iata><departure_airport_iata>LHR</departure_airport_iata><departure_name_airport>Heathrow</departure_name_airport><departure_coordinates_lon>-0.453566</departure_coordinates_lon><departure_coordinates_lat>51.469604</departure_coordinates_lat><departure_country_code>GB</departure_country_code><departure_country_name>United Kingdom</departure_country_name><departure_city_code>LON</departure_city_code><departure_city_name>London</departure_city_name><arrival_airport_iata>RUH</arrival_airport_iata><arrival_name_airport>King Khaled International</arrival_name_airport><arrival_coordinates_lon>46.702877</arrival_coordinates_lon><arrival_coordinates_lat>24.95929</arrival_coordinates_lat><arrival_country_code>SA</arrival_country_code><arrival_country_name>Saudi Arabia</arrival_country_name><arrival_city_code>RUH</arrival_city_code><arrival_city_name>Riyadh</arrival_city_name><planes>777</planes><plane_name>Boeing 777</plane_name></routes><routes><airline_iata>BG</airline_iata><departure_airport_iata>CGP</departure_airport_iata><departure_name_airport>Patenga</departure_name_airport><departure_coordinates_lon>91.81516</departure_coordinates_lon><departure_coordinates_lat>22.245201</departure_coordinates_lat><departure_country_code>BD</departure_country_code><departure_country_name>Bangladesh</departure_country_name><departure_city_code>CGP</departure_city_code><departure_city_name>Chittagong</departure_city_name><arrival_airport_iata>JED</arrival_airport_iata><arrival_name_airport>King Abdulaziz International</arrival_name_airport><arrival_coordinates_lon>39.150578</arrival_coordinates_lon><arrival_coordinates_lat>21.670233</arrival_coordinates_lat><arrival_country_code>SA</arrival_country_code><arrival_country_name>Saudi Arabia</arrival_country_name><arrival_city_code>JED</arrival_city_code><arrival_city_name>Jeddah</arrival_city_name><planes>D1C</planes><plane_name>Boeing/McDonnell Douglas DC-10-30/40</plane_name></routes><routes><airline_iata>BG</airline_iata><departure_airport_iata>DAC</departure_airport_iata><departure_name_airport>Zia International</departure_name_airport><departure_coordinates_lon>90.405876</departure_coordinates_lon><departure_coordinates_lat>23.848648</departure_coordinates_lat><departure_country_code>BD</departure_country_code><departure_country_name>Bangladesh</departure_country_name><departure_city_code>DAC</departure_city_code><departure_city_name>Dhaka</departure_city_name><arrival_airport_iata>DMM</arrival_airport_iata><arrival_name_airport>King Fahd International Airport</arrival_name_airport><arrival_coordinates_lon>49.79778</arrival_coordinates_lon><arrival_coordinates_lat>26.471111</arrival_coordinates_lat><arrival_country_code>SA</arrival_country_code><arrival_country_name>Saudi Arabia</arrival_country_name><arrival_city_code>DMM</arrival_city_code><arrival_city_name>Dammam</arrival_city_name><planes>77W</planes><plane_name>Boeing 777-300ER</plane_name></routes><routes><airline_iata>BG</airline_iata><departure_airport_iata>DAC</departure_airport_iata><departure_name_airport>Zia International</departure_name_airport><departure_coordinates_lon>90.405876</departure_coordinates_lon><departure_coordinates_lat>23.848648</departure_coordinates_lat><departure_country_code>BD</departure_country_code><departure_country_name>Bangladesh</departure_country_name><departure_city_code>DAC</departure_city_code><departure_city_name>Dhaka</departure_city_name><arrival_airport_iata>JED</arrival_airport_iata><arrival_name_airport>King Abdulaziz International</arrival_name_airport><arrival_coordinates_lon>39.150578</arrival_coordinates_lon><arrival_coordinates_lat>21.670233</arrival_coordinates_lat><arrival_country_code>SA</arrival_country_code><arrival_country_name>Saudi Arabia</arrival_country_name><arrival_city_code>JED</arrival_city_code><arrival_city_name>Jeddah</arrival_city_name><planes>743</planes><plane_name>Boeing 747-300 (including -100SUD and -200SUD)</plane_name></routes><routes><airline_iata>BG</airline_iata><departure_airport_iata>DAC</departure_airport_iata><departure_name_airport>Zia International</departure_name_airport><departure_coordinates_lon>90.405876</departure_coordinates_lon><departure_coordinates_lat>23.848648</departure_coordinates_lat><departure_country_code>BD</departure_country_code><departure_country_name>Bangladesh</departure_country_name><departure_city_code>DAC</departure_city_code><departure_city_name>Dhaka</departure_city_name><arrival_airport_iata>RUH</arrival_airport_iata><arrival_name_airport>King Khaled International</arrival_name_airport><arrival_coordinates_lon>46.702877</arrival_coordinates_lon><arrival_coordinates_lat>24.95929</arrival_coordinates_lat><arrival_country_code>SA</arrival_country_code><arrival_country_name>Saudi Arabia</arrival_country_name><arrival_city_code>RUH</arrival_city_code><arrival_city_name>Riyadh</arrival_city_name><planes>77W</planes><plane_name>Boeing 777-300ER</plane_name></routes><routes><airline_iata>BG</airline_iata><departure_airport_iata>DMM</departure_airport_iata><departure_name_airport>King Fahd International Airport</departure_name_airport><departure_coordinates_lon>49.79778</departure_coordinates_lon><departure_coordinates_lat>26.471111</departure_coordinates_lat><departure_country_code>SA</departure_country_code><departure_country_name>Saudi Arabia</departure_country_name><departure_city_code>DMM</departure_city_code><departure_city_name>Dammam</departure_city_name><arrival_airport_iata>RUH</arrival_airport_iata><arrival_name_airport>King Khaled International</arrival_name_airport><arrival_coordinates_lon>46.702877</arrival_coordinates_lon><arrival_coordinates_lat>24.95929</arrival_coordinates_lat><arrival_country_code>SA</arrival_country_code><arrival_country_name>Saudi Arabia</arrival_country_name><arrival_city_code>RUH</arrival_city_code><arrival_city_name>Riyadh</arrival_city_name><planes>77W</planes><plane_name>Boeing 777-300ER</plane_name></routes><routes><airline_iata>BN</airline_iata><departure_airport_iata>BAH</departure_airport_iata><departure_name_airport>Bahrain International</departure_name_airport><departure_coordinates_lon>50.62605</departure_coordinates_lon><departure_coordinates_lat>26.26918</departure_coordinates_lat><departure_country_code>BH</departure_country_code><departure_country_name>Bahrain</departure_country_name><departure_city_code>BAH</departure_city_code><departure_city_name>Manama</departure_city_name><arrival_airport_iata>DMM</arrival_airport_iata><arrival_name_airport>King Fahd International Airport</arrival_name_airport><arrival_coordinates_lon>49.79778</arrival_coordinates_lon><arrival_coordinates_lat>26.471111</arrival_coordinates_lat><arrival_country_code>SA</arrival_country_code><arrival_country_name>Saudi Arabia</arrival_country_name><arrival_city_code>DMM</arrival_city_code><arrival_city_name>Dammam</arrival_city_name><planes>320</planes><plane_name>Airbus Industrie A320</plane_name></routes><routes><airline_iata>BN</airline_iata><departure_airport_iata>BAH</departure_airport_iata><departure_name_airport>Bahrain International</departure_name_airport><departure_coordinates_lon>50.62605</departure_coordinates_lon><departure_coordinates_lat>26.26918</departure_coordinates_lat><departure_country_code>BH</departure_country_code><departure_country_name>Bahrain</departure_country_name><departure_city_code>BAH</departure_city_code><departure_city_name>Manama</departure_city_name><arrival_airport_iata>JED</arrival_airport_iata><arrival_name_airport>King Abdulaziz International</arrival_name_airport><arrival_coordinates_lon>39.150578</arrival_coordinates_lon><arrival_coordinates_lat>21.670233</arrival_coordinates_lat><arrival_country_code>SA</arrival_country_code><arrival_country_name>Saudi Arabia</arrival_country_name><arrival_city_code>JED</arrival_city_code><arrival_city_name>Jeddah</arrival_city_name><planes>320</planes><plane_name>Airbus Industrie A320</plane_name></routes><routes><airline_iata>BN</airline_iata><departure_airport_iata>BAH</departure_airport_iata><departure_name_airport>Bahrain International</departure_name_airport><departure_coordinates_lon>50.62605</departure_coordinates_lon><departure_coordinates_lat>26.26918</departure_coordinates_lat><departure_country_code>BH</departure_country_code><departure_country_name>Bahrain</departure_country_name><departure_city_code>BAH</departure_city_code><departure_city_name>Manama</departure_city_name><arrival_airport_iata>RUH</arrival_airport_iata><arrival_name_airport>King Khaled International</arrival_name_airport><arrival_coordinates_lon>46.702877</arrival_coordinates_lon><arrival_coordinates_lat>24.95929</arrival_coordinates_lat><arrival_country_code>SA</arrival_country_code><arrival_country_name>Saudi Arabia</arrival_country_name><arrival_city_code>RUH</arrival_city_code><arrival_city_name>Riyadh</arrival_city_name><planes>319</planes><plane_name>Airbus Industrie A319</plane_name></routes><routes><airline_iata>BN</airline_iata><departure_airport_iata>BEY</departure_airport_iata><departure_name_airport>Beirut Rafic Hariri Airport</departure_name_airport><departure_coordinates_lon>35.49308</departure_coordinates_lon><departure_coordinates_lat>33.826073</departure_coordinates_lat><departure_country_code>LB</departure_country_code><departure_country_name>Lebanon</departure_country_name><departure_city_code>BEY</departure_city_code><departure_city_name>Beirut</departure_city_name><arrival_airport_iata>DMM</arrival_airport_iata><arrival_name_airport>King Fahd International Airport</arrival_name_airport><arrival_coordinates_lon>49.79778</arrival_coordinates_lon><arrival_coordinates_lat>26.471111</arrival_coordinates_lat><arrival_country_code>SA</arrival_country_code><arrival_country_name>Saudi Arabia</arrival_country_name><arrival_city_code>DMM</arrival_city_code><arrival_city_name>Dammam</arrival_city_name><planes>320</planes><plane_name>Airbus Industrie A320</plane_name></routes><routes><airline_iata>BN</airline_iata><departure_airport_iata>KRT</departure_airport_iata><departure_name_airport>Civil</departure_name_airport><departure_coordinates_lon>32.549698</departure_coordinates_lon><departure_coordinates_lat>15.592217</departure_coordinates_lat><departure_country_code>SD</departure_country_code><departure_country_name>Sudan</departure_country_name><departure_city_code>KRT</departure_city_code><departure_city_name>Khartoum</departure_city_name><arrival_airport_iata>DMM</arrival_airport_iata><arrival_name_airport>King Fahd International Airport</arrival_name_airport><arrival_coordinates_lon>49.79778</arrival_coordinates_lon><arrival_coordinates_lat>26.471111</arrival_coordinates_lat><arrival_country_code>SA</arrival_country_code><arrival_country_name>Saudi Arabia</arrival_country_name><arrival_city_code>DMM</arrival_city_code><arrival_city_name>Dammam</arrival_city_name><planes>319</planes><plane_name>Airbus Industrie A319</plane_name></routes><routes><airline_iata>CX</airline_iata><departure_airport_iata>AUH</departure_airport_iata><departure_name_airport>Abu Dhabi International</departure_name_airport><departure_coordinates_lon>54.645973</departure_coordinates_lon><departure_coordinates_lat>24.426912</departure_coordinates_lat><departure_country_code>AE</departure_country_code><departure_country_name>United Arab Emirates</departure_country_name><departure_city_code>AUH</departure_city_code><departure_city_name>Abu Dhabi</departure_city_name><arrival_airport_iata>RUH</arrival_airport_iata><arrival_name_airport>King Khaled International</arrival_name_airport><arrival_coordinates_lon>46.702877</arrival_coordinates_lon><arrival_coordinates_lat>24.95929</arrival_coordinates_lat><arrival_country_code>SA</arrival_country_code><arrival_country_name>Saudi Arabia</arrival_country_name><arrival_city_code>RUH</arrival_city_code><arrival_city_name>Riyadh</arrival_city_name><planes>333</planes><plane_name>Airbus Industrie A330-300</plane_name></routes><routes><airline_iata>CX</airline_iata><departure_airport_iata>BAH</departure_airport_iata><departure_name_airport>Bahrain International</departure_name_airport><departure_coordinates_lon>50.62605</departure_coordinates_lon><departure_coordinates_lat>26.26918</departure_coordinates_lat><departure_country_code>BH</departure_country_code><departure_country_name>Bahrain</departure_country_name><departure_city_code>BAH</departure_city_code><departure_city_name>Manama</departure_city_name><arrival_airport_iata>RUH</arrival_airport_iata><arrival_name_airport>King Khaled International</arrival_name_airport><arrival_coordinates_lon>46.702877</arrival_coordinates_lon><arrival_coordinates_lat>24.95929</arrival_coordinates_lat><arrival_country_code>SA</arrival_country_code><arrival_country_name>Saudi Arabia</arrival_country_name><arrival_city_code>RUH</arrival_city_code><arrival_city_name>Riyadh</arrival_city_name><planes>333</planes><plane_name>Airbus Industrie A330-300</plane_name></routes><routes><airline_iata>CX</airline_iata><departure_airport_iata>DXB</departure_airport_iata><departure_name_airport>Dubai</departure_name_airport><departure_coordinates_lon>55.352917</departure_coordinates_lon><departure_coordinates_lat>25.248665</departure_coordinates_lat><departure_country_code>AE</departure_country_code><departure_country_name>United Arab Emirates</departure_country_name><departure_city_code>DXB</departure_city_code><departure_city_name>Dubai</departure_city_name><arrival_airport_iata>JED</arrival_airport_iata><arrival_name_airport>King Abdulaziz International</arrival_name_airport><arrival_coordinates_lon>39.150578</arrival_coordinates_lon><arrival_coordinates_lat>21.670233</arrival_coordinates_lat><arrival_country_code>SA</arrival_country_code><arrival_country_name>Saudi Arabia</arrival_country_name><arrival_city_code>JED</arrival_city_code><arrival_city_name>Jeddah</arrival_city_name><planes>744</planes><plane_name>Boeing 747-400</plane_name></routes><routes><airline_iata>CX</airline_iata><departure_airport_iata>HKG</departure_airport_iata><departure_name_airport>Hong Kong International</departure_name_airport><departure_coordinates_lon>113.93649</departure_coordinates_lon><departure_coordinates_lat>22.315248</departure_coordinates_lat><departure_country_code>HK</departure_country_code><departure_country_name>Hong Kong</departure_country_name><departure_city_code>HKG</departure_city_code><departure_city_name>Hong Kong</departure_city_name><arrival_airport_iata>RUH</arrival_airport_iata><arrival_name_airport>King Khaled International</arrival_name_airport><arrival_coordinates_lon>46.702877</arrival_coordinates_lon><arrival_coordinates_lat>24.95929</arrival_coordinates_lat><arrival_country_code>SA</arrival_country_code><arrival_country_name>Saudi Arabia</arrival_country_name><arrival_city_code>RUH</arrival_city_code><arrival_city_name>Riyadh</arrival_city_name><planes>333</planes><plane_name>Airbus Industrie A330-300</plane_name></routes><routes><airline_iata>CZ</airline_iata><departure_airport_iata>DXB</departure_airport_iata><departure_name_airport>Dubai</departure_name_airport><departure_coordinates_lon>55.352917</departure_coordinates_lon><departure_coordinates_lat>25.248665</departure_coordinates_lat><departure_country_code>AE</departure_country_code><departure_country_name>United Arab Emirates</departure_country_name><departure_city_code>DXB</departure_city_code><departure_city_name>Dubai</departure_city_name><arrival_airport_iata>JED</arrival_airport_iata><arrival_name_airport>King Abdulaziz International</arrival_name_airport><arrival_coordinates_lon>39.150578</arrival_coordinates_lon><arrival_coordinates_lat>21.670233</arrival_coordinates_lat><arrival_country_code>SA</arrival_country_code><arrival_country_name>Saudi Arabia</arrival_country_name><arrival_city_code>JED</arrival_city_code><arrival_city_name>Jeddah</arrival_city_name><planes>330</planes><plane_name>Airbus Industrie A330</plane_name></routes><routes><airline_iata>DL</airline_iata><departure_airport_iata>AMS</departure_airport_iata><departure_name_airport>Schiphol</departure_name_airport><departure_coordinates_lon>4.763385</departure_coordinates_lon><departure_coordinates_lat>52.30907</departure_coordinates_lat><departure_country_code>NL</departure_country_code><departure_country_name>Netherlands</departure_country_name><departure_city_code>AMS</departure_city_code><departure_city_name>Amsterdam</departure_city_name><arrival_airport_iata>DMM</arrival_airport_iata><arrival_name_airport>King Fahd International Airport</arrival_name_airport><arrival_coordinates_lon>49.79778</arrival_coordinates_lon><arrival_coordinates_lat>26.471111</arrival_coordinates_lat><arrival_country_code>SA</arrival_country_code><arrival_country_name>Saudi Arabia</arrival_country_name><arrival_city_code>DMM</arrival_city_code><arrival_city_name>Dammam</arrival_city_name><planes>332</planes><plane_name>Airbus Industrie A330-200</plane_name></routes><routes><airline_iata>DL</airline_iata><departure_airport_iata>KWI</departure_airport_iata><departure_name_airport>Kuwait International</departure_name_airport><departure_coordinates_lon>47.971252</departure_coordinates_lon><departure_coordinates_lat>29.240116</departure_coordinates_lat><departure_country_code>KW</departure_country_code><departure_country_name>Kuwait</departure_country_name><departure_city_code>KWI</departure_city_code><departure_city_name>Kuwait City</departure_city_name><arrival_airport_iata>DMM</arrival_airport_iata><arrival_name_airport>King Fahd International Airport</arrival_name_airport><arrival_coordinates_lon>49.79778</arrival_coordinates_lon><arrival_coordinates_lat>26.471111</arrival_coordinates_lat><arrival_country_code>SA</arrival_country_code><arrival_country_name>Saudi Arabia</arrival_country_name><arrival_city_code>DMM</arrival_city_code><arrival_city_name>Dammam</arrival_city_name><planes>332</planes><plane_name>Airbus Industrie A330-200</plane_name></routes><routes><airline_iata>E5</airline_iata><departure_airport_iata>HBE</departure_airport_iata><departure_name_airport>Borg el Arab</departure_name_airport><departure_coordinates_lon>29.686504</departure_coordinates_lon><departure_coordinates_lat>30.922234</departure_coordinates_lat><departure_country_code>EG</departure_country_code><departure_country_name>Egypt</departure_country_name><departure_city_code>ALY</departure_city_code><departure_city_name>Alexandria</departure_city_name><arrival_airport_iata>DMM</arrival_airport_iata><arrival_name_airport>King Fahd International Airport</arrival_name_airport><arrival_coordinates_lon>49.79778</arrival_coordinates_lon><arrival_coordinates_lat>26.471111</arrival_coordinates_lat><arrival_country_code>SA</arrival_country_code><arrival_country_name>Saudi Arabia</arrival_country_name><arrival_city_code>DMM</arrival_city_code><arrival_city_name>Dammam</arrival_city_name><planes>320</planes><plane_name>Airbus Industrie A320</plane_name></routes><routes><airline_iata>E5</airline_iata><departure_airport_iata>HBE</departure_airport_iata><departure_name_airport>Borg el Arab</departure_name_airport><departure_coordinates_lon>29.686504</departure_coordinates_lon><departure_coordinates_lat>30.922234</departure_coordinates_lat><departure_country_code>EG</departure_country_code><departure_country_name>Egypt</departure_country_name><departure_city_code>ALY</departure_city_code><departure_city_name>Alexandria</departure_city_name><arrival_airport_iata>JED</arrival_airport_iata><arrival_name_airport>King Abdulaziz International</arrival_name_airport><arrival_coordinates_lon>39.150578</arrival_coordinates_lon><arrival_coordinates_lat>21.670233</arrival_coordinates_lat><arrival_country_code>SA</arrival_country_code><arrival_country_name>Saudi Arabia</arrival_country_name><arrival_city_code>JED</arrival_city_code><arrival_city_name>Jeddah</arrival_city_name><planes>320</planes><plane_name>Airbus Industrie A320</plane_name></routes><routes><airline_iata>E5</airline_iata><departure_airport_iata>HBE</departure_airport_iata><departure_name_airport>Borg el Arab</departure_name_airport><departure_coordinates_lon>29.686504</departure_coordinates_lon><departure_coordinates_lat>30.922234</departure_coordinates_lat><departure_country_code>EG</departure_country_code><departure_country_name>Egypt</departure_country_name><departure_city_code>ALY</departure_city_code><departure_city_name>Alexandria</departure_city_name><arrival_airport_iata>RUH</arrival_airport_iata><arrival_name_airport>King Khaled International</arrival_name_airport><arrival_coordinates_lon>46.702877</arrival_coordinates_lon><arrival_coordinates_lat>24.95929</arrival_coordinates_lat><arrival_country_code>SA</arrival_country_code><arrival_country_name>Saudi Arabia</arrival_country_name><arrival_city_code>RUH</arrival_city_code><arrival_city_name>Riyadh</arrival_city_name><planes>320</planes><plane_name>Airbus Industrie A320</plane_name></routes><routes><airline_iata>EK</airline_iata><departure_airport_iata>DXB</departure_airport_iata><departure_name_airport>Dubai</departure_name_airport><departure_coordinates_lon>55.352917</departure_coordinates_lon><departure_coordinates_lat>25.248665</departure_coordinates_lat><departure_country_code>AE</departure_country_code><departure_country_name>United Arab Emirates</departure_country_name><departure_city_code>DXB</departure_city_code><departure_city_name>Dubai</departure_city_name><arrival_airport_iata>DMM</arrival_airport_iata><arrival_name_airport>King Fahd International Airport</arrival_name_airport><arrival_coordinates_lon>49.79778</arrival_coordinates_lon><arrival_coordinates_lat>26.471111</arrival_coordinates_lat><arrival_country_code>SA</arrival_country_code><arrival_country_name>Saudi Arabia</arrival_country_name><arrival_city_code>DMM</arrival_city_code><arrival_city_name>Dammam</arrival_city_name><planes>77W</planes><plane_name>Boeing 777-300ER</plane_name></routes><routes><airline_iata>EK</airline_iata><departure_airport_iata>DXB</departure_airport_iata><departure_name_airport>Dubai</departure_name_airport><departure_coordinates_lon>55.352917</departure_coordinates_lon><departure_coordinates_lat>25.248665</departure_coordinates_lat><departure_country_code>AE</departure_country_code><departure_country_name>United Arab Emirates</departure_country_name><departure_city_code>DXB</departure_city_code><departure_city_name>Dubai</departure_city_name><arrival_airport_iata>JED</arrival_airport_iata><arrival_name_airport>King Abdulaziz International</arrival_name_airport><arrival_coordinates_lon>39.150578</arrival_coordinates_lon><arrival_coordinates_lat>21.670233</arrival_coordinates_lat><arrival_country_code>SA</arrival_country_code><arrival_country_name>Saudi Arabia</arrival_country_name><arrival_city_code>JED</arrival_city_code><arrival_city_name>Jeddah</arrival_city_name><planes>332</planes><plane_name>Airbus Industrie A330-200</plane_name></routes><routes><airline_iata>EK</airline_iata><departure_airport_iata>DXB</departure_airport_iata><departure_name_airport>Dubai</departure_name_airport><departure_coordinates_lon>55.352917</departure_coordinates_lon><departure_coordinates_lat>25.248665</departure_coordinates_lat><departure_country_code>AE</departure_country_code><departure_country_name>United Arab Emirates</departure_country_name><departure_city_code>DXB</departure_city_code><departure_city_name>Dubai</departure_city_name><arrival_airport_iata>MED</arrival_airport_iata><arrival_name_airport>Mohammad Bin Abdulaziz</arrival_name_airport><arrival_coordinates_lon>39.698967</arrival_coordinates_lon><arrival_coordinates_lat>24.544369</arrival_coordinates_lat><arrival_country_code>SA</arrival_country_code><arrival_country_name>Saudi Arabia</arrival_country_name><arrival_city_code>MED</arrival_city_code><arrival_city_name>Madinah</arrival_city_name><planes>332</planes><plane_name>Airbus Industrie A330-200</plane_name></routes><routes><airline_iata>EK</airline_iata><departure_airport_iata>DXB</departure_airport_iata><departure_name_airport>Dubai</departure_name_airport><departure_coordinates_lon>55.352917</departure_coordinates_lon><departure_coordinates_lat>25.248665</departure_coordinates_lat><departure_country_code>AE</departure_country_code><departure_country_name>United Arab Emirates</departure_country_name><departure_city_code>DXB</departure_city_code><departure_city_name>Dubai</departure_city_name><arrival_airport_iata>RUH</arrival_airport_iata><arrival_name_airport>King Khaled International</arrival_name_airport><arrival_coordinates_lon>46.702877</arrival_coordinates_lon><arrival_coordinates_lat>24.95929</arrival_coordinates_lat><arrival_country_code>SA</arrival_country_code><arrival_country_name>Saudi Arabia</arrival_country_name><arrival_city_code>RUH</arrival_city_code><arrival_city_name>Riyadh</arrival_city_name><planes>77W</planes><plane_name>Boeing 777-300ER</plane_name></routes><routes><airline_iata>ET</airline_iata><departure_airport_iata>ADD</departure_airport_iata><departure_name_airport>Bole International</departure_name_airport><departure_coordinates_lon>38.7959</departure_coordinates_lon><departure_coordinates_lat>8.983759</departure_coordinates_lat><departure_country_code>ET</departure_country_code><departure_country_name>Ethiopia</departure_country_name><departure_city_code>ADD</departure_city_code><departure_city_name>Addis Ababa</departure_city_name><arrival_airport_iata>DMM</arrival_airport_iata><arrival_name_airport>King Fahd International Airport</arrival_name_airport><arrival_coordinates_lon>49.79778</arrival_coordinates_lon><arrival_coordinates_lat>26.471111</arrival_coordinates_lat><arrival_country_code>SA</arrival_country_code><arrival_country_name>Saudi Arabia</arrival_country_name><arrival_city_code>DMM</arrival_city_code><arrival_city_name>Dammam</arrival_city_name><planes>73W</planes><plane_name>Boeing 737-700 With Winglets</plane_name></routes><routes><airline_iata>ET</airline_iata><departure_airport_iata>ADD</departure_airport_iata><departure_name_airport>Bole International</departure_name_airport><departure_coordinates_lon>38.7959</departure_coordinates_lon><departure_coordinates_lat>8.983759</departure_coordinates_lat><departure_country_code>ET</departure_country_code><departure_country_name>Ethiopia</departure_country_name><departure_city_code>ADD</departure_city_code><departure_city_name>Addis Ababa</departure_city_name><arrival_airport_iata>JED</arrival_airport_iata><arrival_name_airport>King Abdulaziz International</arrival_name_airport><arrival_coordinates_lon>39.150578</arrival_coordinates_lon><arrival_coordinates_lat>21.670233</arrival_coordinates_lat><arrival_country_code>SA</arrival_country_code><arrival_country_name>Saudi Arabia</arrival_country_name><arrival_city_code>JED</arrival_city_code><arrival_city_name>Jeddah</arrival_city_name><planes>738</planes><plane_name>Boeing 737-800</plane_name></routes><routes><airline_iata>ET</airline_iata><departure_airport_iata>ADD</departure_airport_iata><departure_name_airport>Bole International</departure_name_airport><departure_coordinates_lon>38.7959</departure_coordinates_lon><departure_coordinates_lat>8.983759</departure_coordinates_lat><departure_country_code>ET</departure_country_code><departure_country_name>Ethiopia</departure_country_name><departure_city_code>ADD</departure_city_code><departure_city_name>Addis Ababa</departure_city_name><arrival_airport_iata>RUH</arrival_airport_iata><arrival_name_airport>King Khaled International</arrival_name_airport><arrival_coordinates_lon>46.702877</arrival_coordinates_lon><arrival_coordinates_lat>24.95929</arrival_coordinates_lat><arrival_country_code>SA</arrival_country_code><arrival_country_name>Saudi Arabia</arrival_country_name><arrival_city_code>RUH</arrival_city_code><arrival_city_name>Riyadh</arrival_city_name><planes>738</planes><plane_name>Boeing 737-800</plane_name></routes><routes><airline_iata>EY</airline_iata><departure_airport_iata>AUH</departure_airport_iata><departure_name_airport>Abu Dhabi International</departure_name_airport><departure_coordinates_lon>54.645973</departure_coordinates_lon><departure_coordinates_lat>24.426912</departure_coordinates_lat><departure_country_code>AE</departure_country_code><departure_country_name>United Arab Emirates</departure_country_name><departure_city_code>AUH</departure_city_code><departure_city_name>Abu Dhabi</departure_city_name><arrival_airport_iata>DMM</arrival_airport_iata><arrival_name_airport>King Fahd International Airport</arrival_name_airport><arrival_coordinates_lon>49.79778</arrival_coordinates_lon><arrival_coordinates_lat>26.471111</arrival_coordinates_lat><arrival_country_code>SA</arrival_country_code><arrival_country_name>Saudi Arabia</arrival_country_name><arrival_city_code>DMM</arrival_city_code><arrival_city_name>Dammam</arrival_city_name><planes>320</planes><plane_name>Airbus Industrie A320</plane_name></routes><routes><airline_iata>EY</airline_iata><departure_airport_iata>AUH</departure_airport_iata><departure_name_airport>Abu Dhabi International</departure_name_airport><departure_coordinates_lon>54.645973</departure_coordinates_lon><departure_coordinates_lat>24.426912</departure_coordinates_lat><departure_country_code>AE</departure_country_code><departure_country_name>United Arab Emirates</departure_country_name><departure_city_code>AUH</departure_city_code><departure_city_name>Abu Dhabi</departure_city_name><arrival_airport_iata>JED</arrival_airport_iata><arrival_name_airport>King Abdulaziz International</arrival_name_airport><arrival_coordinates_lon>39.150578</arrival_coordinates_lon><arrival_coordinates_lat>21.670233</arrival_coordinates_lat><arrival_country_code>SA</arrival_country_code><arrival_country_name>Saudi Arabia</arrival_country_name><arrival_city_code>JED</arrival_city_code><arrival_city_name>Jeddah</arrival_city_name><planes>77W</planes><plane_name>Boeing 777-300ER</plane_name></routes><routes><airline_iata>EY</airline_iata><departure_airport_iata>AUH</departure_airport_iata><departure_name_airport>Abu Dhabi International</departure_name_airport><departure_coordinates_lon>54.645973</departure_coordinates_lon><departure_coordinates_lat>24.426912</departure_coordinates_lat><departure_country_code>AE</departure_country_code><departure_country_name>United Arab Emirates</departure_country_name><departure_city_code>AUH</departure_city_code><departure_city_name>Abu Dhabi</departure_city_name><arrival_airport_iata>RUH</arrival_airport_iata><arrival_name_airport>King Khaled International</arrival_name_airport><arrival_coordinates_lon>46.702877</arrival_coordinates_lon><arrival_coordinates_lat>24.95929</arrival_coordinates_lat><arrival_country_code>SA</arrival_country_code><arrival_country_name>Saudi Arabia</arrival_country_name><arrival_city_code>RUH</arrival_city_code><arrival_city_name>Riyadh</arrival_city_name><planes>332</planes><plane_name>Airbus Industrie A330-200</plane_name></routes><routes><airline_iata>FO</airline_iata><departure_airport_iata>ADE</departure_airport_iata><departure_name_airport>International</departure_name_airport><departure_coordinates_lon>45.037537</departure_coordinates_lon><departure_coordinates_lat>12.826116</departure_coordinates_lat><departure_country_code>YE</departure_country_code><departure_country_name>Yemen</departure_country_name><departure_city_code>ADE</departure_city_code><departure_city_name>Aden</departure_city_name><arrival_airport_iata>AHB</arrival_airport_iata><arrival_name_airport>Abha</arrival_name_airport><arrival_coordinates_lon>42.657574</arrival_coordinates_lon><arrival_coordinates_lat>18.23429</arrival_coordinates_lat><arrival_country_code>SA</arrival_country_code><arrival_country_name>Saudi Arabia</arrival_country_name><arrival_city_code>AHB</arrival_city_code><arrival_city_name>Abha</arrival_city_name><planes>CR7</planes><plane_name>Canadair Regional Jet 700</plane_name></routes><routes><airline_iata>FO</airline_iata><departure_airport_iata>ADE</departure_airport_iata><departure_name_airport>International</departure_name_airport><departure_coordinates_lon>45.037537</departure_coordinates_lon><departure_coordinates_lat>12.826116</departure_coordinates_lat><departure_country_code>YE</departure_country_code><departure_country_name>Yemen</departure_country_name><departure_city_code>ADE</departure_city_code><departure_city_name>Aden</departure_city_name><arrival_airport_iata>DMM</arrival_airport_iata><arrival_name_airport>King Fahd International Airport</arrival_name_airport><arrival_coordinates_lon>49.79778</arrival_coordinates_lon><arrival_coordinates_lat>26.471111</arrival_coordinates_lat><arrival_country_code>SA</arrival_country_code><arrival_country_name>Saudi Arabia</arrival_country_name><arrival_city_code>DMM</arrival_city_code><arrival_city_name>Dammam</arrival_city_name><planes>CR7</planes><plane_name>Canadair Regional Jet 700</plane_name></routes><routes><airline_iata>FO</airline_iata><departure_airport_iata>ADE</departure_airport_iata><departure_name_airport>International</departure_name_airport><departure_coordinates_lon>45.037537</departure_coordinates_lon><departure_coordinates_lat>12.826116</departure_coordinates_lat><departure_country_code>YE</departure_country_code><departure_country_name>Yemen</departure_country_name><departure_city_code>ADE</departure_city_code><departure_city_name>Aden</departure_city_name><arrival_airport_iata>JED</arrival_airport_iata><arrival_name_airport>King Abdulaziz International</arrival_name_airport><arrival_coordinates_lon>39.150578</arrival_coordinates_lon><arrival_coordinates_lat>21.670233</arrival_coordinates_lat><arrival_country_code>SA</arrival_country_code><arrival_country_name>Saudi Arabia</arrival_country_name><arrival_city_code>JED</arrival_city_code><arrival_city_name>Jeddah</arrival_city_name><planes>CR7</planes><plane_name>Canadair Regional Jet 700</plane_name></routes><routes><airline_iata>FO</airline_iata><departure_airport_iata>ADE</departure_airport_iata><departure_name_airport>International</departure_name_airport><departure_coordinates_lon>45.037537</departure_coordinates_lon><departure_coordinates_lat>12.826116</departure_coordinates_lat><departure_country_code>YE</departure_country_code><departure_country_name>Yemen</departure_country_name><departure_city_code>ADE</departure_city_code><departure_city_name>Aden</departure_city_name><arrival_airport_iata>RUH</arrival_airport_iata><arrival_name_airport>King Khaled International</arrival_name_airport><arrival_coordinates_lon>46.702877</arrival_coordinates_lon><arrival_coordinates_lat>24.95929</arrival_coordinates_lat><arrival_country_code>SA</arrival_country_code><arrival_country_name>Saudi Arabia</arrival_country_name><arrival_city_code>RUH</arrival_city_code><arrival_city_name>Riyadh</arrival_city_name><planes>CR7</planes><plane_name>Canadair Regional Jet 700</plane_name></routes><routes><airline_iata>FO</airline_iata><departure_airport_iata>BAH</departure_airport_iata><departure_name_airport>Bahrain International</departure_name_airport><departure_coordinates_lon>50.62605</departure_coordinates_lon><departure_coordinates_lat>26.26918</departure_coordinates_lat><departure_country_code>BH</departure_country_code><departure_country_name>Bahrain</departure_country_name><departure_city_code>BAH</departure_city_code><departure_city_name>Manama</departure_city_name><arrival_airport_iata>DMM</arrival_airport_iata><arrival_name_airport>King Fahd International Airport</arrival_name_airport><arrival_coordinates_lon>49.79778</arrival_coordinates_lon><arrival_coordinates_lat>26.471111</arrival_coordinates_lat><arrival_country_code>SA</arrival_country_code><arrival_country_name>Saudi Arabia</arrival_country_name><arrival_city_code>DMM</arrival_city_code><arrival_city_name>Dammam</arrival_city_name><planes>CR7</planes><plane_name>Canadair Regional Jet 700</plane_name></routes><routes><airline_iata>FO</airline_iata><departure_airport_iata>HOD</departure_airport_iata><departure_name_airport>Hodeidah Airport</departure_name_airport><departure_coordinates_lon>42.970478</departure_coordinates_lon><departure_coordinates_lat>14.755638</departure_coordinates_lat><departure_country_code>YE</departure_country_code><departure_country_name>Yemen</departure_country_name><departure_city_code>HOD</departure_city_code><departure_city_name>Hodeidah</departure_city_name><arrival_airport_iata>JED</arrival_airport_iata><arrival_name_airport>King Abdulaziz International</arrival_name_airport><arrival_coordinates_lon>39.150578</arrival_coordinates_lon><arrival_coordinates_lat>21.670233</arrival_coordinates_lat><arrival_country_code>SA</arrival_country_code><arrival_country_name>Saudi Arabia</arrival_country_name><arrival_city_code>JED</arrival_city_code><arrival_city_name>Jeddah</arrival_city_name><planes>CR7</planes><plane_name>Canadair Regional Jet 700</plane_name></routes><routes><airline_iata>FO</airline_iata><departure_airport_iata>SAH</departure_airport_iata><departure_name_airport>El Rahaba Airport (Sanaa Intenational)</departure_name_airport><departure_coordinates_lon>44.22511</departure_coordinates_lon><departure_coordinates_lat>15.473598</departure_coordinates_lat><departure_country_code>YE</departure_country_code><departure_country_name>Yemen</departure_country_name><departure_city_code>SAH</departure_city_code><departure_city_name>Sanaa</departure_city_name><arrival_airport_iata>AHB</arrival_airport_iata><arrival_name_airport>Abha</arrival_name_airport><arrival_coordinates_lon>42.657574</arrival_coordinates_lon><arrival_coordinates_lat>18.23429</arrival_coordinates_lat><arrival_country_code>SA</arrival_country_code><arrival_country_name>Saudi Arabia</arrival_country_name><arrival_city_code>AHB</arrival_city_code><arrival_city_name>Abha</arrival_city_name><planes>CR7</planes><plane_name>Canadair Regional Jet 700</plane_name></routes><routes><airline_iata>FO</airline_iata><departure_airport_iata>TAI</departure_airport_iata><departure_name_airport>Al Janad</departure_name_airport><departure_coordinates_lon>44.134346</departure_coordinates_lon><departure_coordinates_lat>13.685553</departure_coordinates_lat><departure_country_code>YE</departure_country_code><departure_country_name>Yemen</departure_country_name><departure_city_code>TAI</departure_city_code><departure_city_name>Taiz</departure_city_name><arrival_airport_iata>DMM</arrival_airport_iata><arrival_name_airport>King Fahd International Airport</arrival_name_airport><arrival_coordinates_lon>49.79778</arrival_coordinates_lon><arrival_coordinates_lat>26.471111</arrival_coordinates_lat><arrival_country_code>SA</arrival_country_code><arrival_country_name>Saudi Arabia</arrival_country_name><arrival_city_code>DMM</arrival_city_code><arrival_city_name>Dammam</arrival_city_name><planes>CR7</planes><plane_name>Canadair Regional Jet 700</plane_name></routes><routes><airline_iata>FZ</airline_iata><departure_airport_iata>DXB</departure_airport_iata><departure_name_airport>Dubai</departure_name_airport><departure_coordinates_lon>55.352917</departure_coordinates_lon><departure_coordinates_lat>25.248665</departure_coordinates_lat><departure_country_code>AE</departure_country_code><departure_country_name>United Arab Emirates</departure_country_name><departure_city_code>DXB</departure_city_code><departure_city_name>Dubai</departure_city_name><arrival_airport_iata>AHB</arrival_airport_iata><arrival_name_airport>Abha</arrival_name_airport><arrival_coordinates_lon>42.657574</arrival_coordinates_lon><arrival_coordinates_lat>18.23429</arrival_coordinates_lat><arrival_country_code>SA</arrival_country_code><arrival_country_name>Saudi Arabia</arrival_country_name><arrival_city_code>AHB</arrival_city_code><arrival_city_name>Abha</arrival_city_name><planes>73H</planes><plane_name>Boeing 737-800 With Winglets</plane_name></routes><routes><airline_iata>FZ</airline_iata><departure_airport_iata>DXB</departure_airport_iata><departure_name_airport>Dubai</departure_name_airport><departure_coordinates_lon>55.352917</departure_coordinates_lon><departure_coordinates_lat>25.248665</departure_coordinates_lat><departure_country_code>AE</departure_country_code><departure_country_name>United Arab Emirates</departure_country_name><departure_city_code>DXB</departure_city_code><departure_city_name>Dubai</departure_city_name><arrival_airport_iata>DMM</arrival_airport_iata><arrival_name_airport>King Fahd International Airport</arrival_name_airport><arrival_coordinates_lon>49.79778</arrival_coordinates_lon><arrival_coordinates_lat>26.471111</arrival_coordinates_lat><arrival_country_code>SA</arrival_country_code><arrival_country_name>Saudi Arabia</arrival_country_name><arrival_city_code>DMM</arrival_city_code><arrival_city_name>Dammam</arrival_city_name><planes>73H</planes><plane_name>Boeing 737-800 With Winglets</plane_name></routes><routes><airline_iata>FZ</airline_iata><departure_airport_iata>DXB</departure_airport_iata><departure_name_airport>Dubai</departure_name_airport><departure_coordinates_lon>55.352917</departure_coordinates_lon><departure_coordinates_lat>25.248665</departure_coordinates_lat><departure_country_code>AE</departure_country_code><departure_country_name>United Arab Emirates</departure_country_name><departure_city_code>DXB</departure_city_code><departure_city_name>Dubai</departure_city_name><arrival_airport_iata>ELQ</arrival_airport_iata><arrival_name_airport>Gassim Regional Airport</arrival_name_airport><arrival_coordinates_lon>43.768177</arrival_coordinates_lon><arrival_coordinates_lat>26.305029</arrival_coordinates_lat><arrival_country_code>SA</arrival_country_code><arrival_country_name>Saudi Arabia</arrival_country_name><arrival_city_code>ELQ</arrival_city_code><arrival_city_name>Buraidah</arrival_city_name><planes>73H</planes><plane_name>Boeing 737-800 With Winglets</plane_name></routes><routes><airline_iata>FZ</airline_iata><departure_airport_iata>DXB</departure_airport_iata><departure_name_airport>Dubai</departure_name_airport><departure_coordinates_lon>55.352917</departure_coordinates_lon><departure_coordinates_lat>25.248665</departure_coordinates_lat><departure_country_code>AE</departure_country_code><departure_country_name>United Arab Emirates</departure_country_name><departure_city_code>DXB</departure_city_code><departure_city_name>Dubai</departure_city_name><arrival_airport_iata>JED</arrival_airport_iata><arrival_name_airport>King Abdulaziz International</arrival_name_airport><arrival_coordinates_lon>39.150578</arrival_coordinates_lon><arrival_coordinates_lat>21.670233</arrival_coordinates_lat><arrival_country_code>SA</arrival_country_code><arrival_country_name>Saudi Arabia</arrival_country_name><arrival_city_code>JED</arrival_city_code><arrival_city_name>Jeddah</arrival_city_name><planes>73H</planes><plane_name>Boeing 737-800 With Winglets</plane_name></routes><routes><airline_iata>FZ</airline_iata><departure_airport_iata>DXB</departure_airport_iata><departure_name_airport>Dubai</departure_name_airport><departure_coordinates_lon>55.352917</departure_coordinates_lon><departure_coordinates_lat>25.248665</departure_coordinates_lat><departure_country_code>AE</departure_country_code><departure_country_name>United Arab Emirates</departure_country_name><departure_city_code>DXB</departure_city_code><departure_city_name>Dubai</departure_city_name><arrival_airport_iata>RUH</arrival_airport_iata><arrival_name_airport>King Khaled International</arrival_name_airport><arrival_coordinates_lon>46.702877</arrival_coordinates_lon><arrival_coordinates_lat>24.95929</arrival_coordinates_lat><arrival_country_code>SA</arrival_country_code><arrival_country_name>Saudi Arabia</arrival_country_name><arrival_city_code>RUH</arrival_city_code><arrival_city_name>Riyadh</arrival_city_name><planes>73H</planes><plane_name>Boeing 737-800 With Winglets</plane_name></routes><routes><airline_iata>FZ</airline_iata><departure_airport_iata>DXB</departure_airport_iata><departure_name_airport>Dubai</departure_name_airport><departure_coordinates_lon>55.352917</departure_coordinates_lon><departure_coordinates_lat>25.248665</departure_coordinates_lat><departure_country_code>AE</departure_country_code><departure_country_name>United Arab Emirates</departure_country_name><departure_city_code>DXB</departure_city_code><departure_city_name>Dubai</departure_city_name><arrival_airport_iata>TIF</arrival_airport_iata><arrival_name_airport>Taif</arrival_name_airport><arrival_coordinates_lon>40.552685</arrival_coordinates_lon><arrival_coordinates_lat>21.480364</arrival_coordinates_lat><arrival_country_code>SA</arrival_country_code><arrival_country_name>Saudi Arabia</arrival_country_name><arrival_city_code>TIF</arrival_city_code><arrival_city_name>Taif</arrival_city_name><planes>73H</planes><plane_name>Boeing 737-800 With Winglets</plane_name></routes><routes><airline_iata>FZ</airline_iata><departure_airport_iata>DXB</departure_airport_iata><departure_name_airport>Dubai</departure_name_airport><departure_coordinates_lon>55.352917</departure_coordinates_lon><departure_coordinates_lat>25.248665</departure_coordinates_lat><departure_country_code>AE</departure_country_code><departure_country_name>United Arab Emirates</departure_country_name><departure_city_code>DXB</departure_city_code><departure_city_name>Dubai</departure_city_name><arrival_airport_iata>YNB</arrival_airport_iata><arrival_name_airport>Yanbu</arrival_name_airport><arrival_coordinates_lon>38.06302</arrival_coordinates_lon><arrival_coordinates_lat>24.140734</arrival_coordinates_lat><arrival_country_code>SA</arrival_country_code><arrival_country_name>Saudi Arabia</arrival_country_name><arrival_city_code>YNB</arrival_city_code><arrival_city_name>Yanbu</arrival_city_name><planes>73H</planes><plane_name>Boeing 737-800 With Winglets</plane_name></routes><routes><airline_iata>G9</airline_iata><departure_airport_iata>SHJ</departure_airport_iata><departure_name_airport>Sharjah</departure_name_airport><departure_coordinates_lon>55.52029</departure_coordinates_lon><departure_coordinates_lat>25.320873</departure_coordinates_lat><departure_country_code>AE</departure_country_code><departure_country_name>United Arab Emirates</departure_country_name><departure_city_code>SHJ</departure_city_code><departure_city_name>Sharjah</departure_city_name><arrival_airport_iata>DMM</arrival_airport_iata><arrival_name_airport>King Fahd International Airport</arrival_name_airport><arrival_coordinates_lon>49.79778</arrival_coordinates_lon><arrival_coordinates_lat>26.471111</arrival_coordinates_lat><arrival_country_code>SA</arrival_country_code><arrival_country_name>Saudi Arabia</arrival_country_name><arrival_city_code>DMM</arrival_city_code><arrival_city_name>Dammam</arrival_city_name><planes>320</planes><plane_name>Airbus Industrie A320</plane_name></routes><routes><airline_iata>G9</airline_iata><departure_airport_iata>SHJ</departure_airport_iata><departure_name_airport>Sharjah</departure_name_airport><departure_coordinates_lon>55.52029</departure_coordinates_lon><departure_coordinates_lat>25.320873</departure_coordinates_lat><departure_country_code>AE</departure_country_code><departure_country_name>United Arab Emirates</departure_country_name><departure_city_code>SHJ</departure_city_code><departure_city_name>Sharjah</departure_city_name><arrival_airport_iata>ELQ</arrival_airport_iata><arrival_name_airport>Gassim Regional Airport</arrival_name_airport><arrival_coordinates_lon>43.768177</arrival_coordinates_lon><arrival_coordinates_lat>26.305029</arrival_coordinates_lat><arrival_country_code>SA</arrival_country_code><arrival_country_name>Saudi Arabia</arrival_country_name><arrival_city_code>ELQ</arrival_city_code><arrival_city_name>Buraidah</arrival_city_name><planes>320</planes><plane_name>Airbus Industrie A320</plane_name></routes><routes><airline_iata>G9</airline_iata><departure_airport_iata>SHJ</departure_airport_iata><departure_name_airport>Sharjah</departure_name_airport><departure_coordinates_lon>55.52029</departure_coordinates_lon><departure_coordinates_lat>25.320873</departure_coordinates_lat><departure_country_code>AE</departure_country_code><departure_country_name>United Arab Emirates</departure_country_name><departure_city_code>SHJ</departure_city_code><departure_city_name>Sharjah</departure_city_name><arrival_airport_iata>JED</arrival_airport_iata><arrival_name_airport>King Abdulaziz International</arrival_name_airport><arrival_coordinates_lon>39.150578</arrival_coordinates_lon><arrival_coordinates_lat>21.670233</arrival_coordinates_lat><arrival_country_code>SA</arrival_country_code><arrival_country_name>Saudi Arabia</arrival_country_name><arrival_city_code>JED</arrival_city_code><arrival_city_name>Jeddah</arrival_city_name><planes>320</planes><plane_name>Airbus Industrie A320</plane_name></routes><routes><airline_iata>G9</airline_iata><departure_airport_iata>SHJ</departure_airport_iata><departure_name_airport>Sharjah</departure_name_airport><departure_coordinates_lon>55.52029</departure_coordinates_lon><departure_coordinates_lat>25.320873</departure_coordinates_lat><departure_country_code>AE</departure_country_code><departure_country_name>United Arab Emirates</departure_country_name><departure_city_code>SHJ</departure_city_code><departure_city_name>Sharjah</departure_city_name><arrival_airport_iata>MED</arrival_airport_iata><arrival_name_airport>Mohammad Bin Abdulaziz</arrival_name_airport><arrival_coordinates_lon>39.698967</arrival_coordinates_lon><arrival_coordinates_lat>24.544369</arrival_coordinates_lat><arrival_country_code>SA</arrival_country_code><arrival_country_name>Saudi Arabia</arrival_country_name><arrival_city_code>MED</arrival_city_code><arrival_city_name>Madinah</arrival_city_name><planes>320</planes><plane_name>Airbus Industrie A320</plane_name></routes><routes><airline_iata>G9</airline_iata><departure_airport_iata>SHJ</departure_airport_iata><departure_name_airport>Sharjah</departure_name_airport><departure_coordinates_lon>55.52029</departure_coordinates_lon><departure_coordinates_lat>25.320873</departure_coordinates_lat><departure_country_code>AE</departure_country_code><departure_country_name>United Arab Emirates</departure_country_name><departure_city_code>SHJ</departure_city_code><departure_city_name>Sharjah</departure_city_name><arrival_airport_iata>RUH</arrival_airport_iata><arrival_name_airport>King Khaled International</arrival_name_airport><arrival_coordinates_lon>46.702877</arrival_coordinates_lon><arrival_coordinates_lat>24.95929</arrival_coordinates_lat><arrival_country_code>SA</arrival_country_code><arrival_country_name>Saudi Arabia</arrival_country_name><arrival_city_code>RUH</arrival_city_code><arrival_city_name>Riyadh</arrival_city_name><planes>320</planes><plane_name>Airbus Industrie A320</plane_name></routes><routes><airline_iata>G9</airline_iata><departure_airport_iata>SHJ</departure_airport_iata><departure_name_airport>Sharjah</departure_name_airport><departure_coordinates_lon>55.52029</departure_coordinates_lon><departure_coordinates_lat>25.320873</departure_coordinates_lat><departure_country_code>AE</departure_country_code><departure_country_name>United Arab Emirates</departure_country_name><departure_city_code>SHJ</departure_city_code><departure_city_name>Sharjah</departure_city_name><arrival_airport_iata>TIF</arrival_airport_iata><arrival_name_airport>Taif</arrival_name_airport><arrival_coordinates_lon>40.552685</arrival_coordinates_lon><arrival_coordinates_lat>21.480364</arrival_coordinates_lat><arrival_country_code>SA</arrival_country_code><arrival_country_name>Saudi Arabia</arrival_country_name><arrival_city_code>TIF</arrival_city_code><arrival_city_name>Taif</arrival_city_name><planes>320</planes><plane_name>Airbus Industrie A320</plane_name></routes><routes><airline_iata>G9</airline_iata><departure_airport_iata>SHJ</departure_airport_iata><departure_name_airport>Sharjah</departure_name_airport><departure_coordinates_lon>55.52029</departure_coordinates_lon><departure_coordinates_lat>25.320873</departure_coordinates_lat><departure_country_code>AE</departure_country_code><departure_country_name>United Arab Emirates</departure_country_name><departure_city_code>SHJ</departure_city_code><departure_city_name>Sharjah</departure_city_name><arrival_airport_iata>YNB</arrival_airport_iata><arrival_name_airport>Yanbu</arrival_name_airport><arrival_coordinates_lon>38.06302</arrival_coordinates_lon><arrival_coordinates_lat>24.140734</arrival_coordinates_lat><arrival_country_code>SA</arrival_country_code><arrival_country_name>Saudi Arabia</arrival_country_name><arrival_city_code>YNB</arrival_city_code><arrival_city_name>Yanbu</arrival_city_name><planes>320</planes><plane_name>Airbus Industrie A320</plane_name></routes><routes><airline_iata>GA</airline_iata><departure_airport_iata>CGK</departure_airport_iata><departure_name_airport>Soekarno-Hatta International</departure_name_airport><departure_coordinates_lon>106.655525</departure_coordinates_lon><departure_coordinates_lat>-6.130643</departure_coordinates_lat><departure_country_code>ID</departure_country_code><departure_country_name>Indonesia</departure_country_name><departure_city_code>JKT</departure_city_code><departure_city_name>Jakarta</departure_city_name><arrival_airport_iata>JED</arrival_airport_iata><arrival_name_airport>King Abdulaziz International</arrival_name_airport><arrival_coordinates_lon>39.150578</arrival_coordinates_lon><arrival_coordinates_lat>21.670233</arrival_coordinates_lat><arrival_country_code>SA</arrival_country_code><arrival_country_name>Saudi Arabia</arrival_country_name><arrival_city_code>JED</arrival_city_code><arrival_city_name>Jeddah</arrival_city_name><planes>744</planes><plane_name>Boeing 747-400</plane_name></routes><routes><airline_iata>GF</airline_iata><departure_airport_iata>BAH</departure_airport_iata><departure_name_airport>Bahrain International</departure_name_airport><departure_coordinates_lon>50.62605</departure_coordinates_lon><departure_coordinates_lat>26.26918</departure_coordinates_lat><departure_country_code>BH</departure_country_code><departure_country_name>Bahrain</departure_country_name><departure_city_code>BAH</departure_city_code><departure_city_name>Manama</departure_city_name><arrival_airport_iata>DMM</arrival_airport_iata><arrival_name_airport>King Fahd International Airport</arrival_name_airport><arrival_coordinates_lon>49.79778</arrival_coordinates_lon><arrival_coordinates_lat>26.471111</arrival_coordinates_lat><arrival_country_code>SA</arrival_country_code><arrival_country_name>Saudi Arabia</arrival_country_name><arrival_city_code>DMM</arrival_city_code><arrival_city_name>Dammam</arrival_city_name><planes>320</planes><plane_name>Airbus Industrie A320</plane_name></routes><routes><airline_iata>GF</airline_iata><departure_airport_iata>BAH</departure_airport_iata><departure_name_airport>Bahrain International</departure_name_airport><departure_coordinates_lon>50.62605</departure_coordinates_lon><departure_coordinates_lat>26.26918</departure_coordinates_lat><departure_country_code>BH</departure_country_code><departure_country_name>Bahrain</departure_country_name><departure_city_code>BAH</departure_city_code><departure_city_name>Manama</departure_city_name><arrival_airport_iata>JED</arrival_airport_iata><arrival_name_airport>King Abdulaziz International</arrival_name_airport><arrival_coordinates_lon>39.150578</arrival_coordinates_lon><arrival_coordinates_lat>21.670233</arrival_coordinates_lat><arrival_country_code>SA</arrival_country_code><arrival_country_name>Saudi Arabia</arrival_country_name><arrival_city_code>JED</arrival_city_code><arrival_city_name>Jeddah</arrival_city_name><planes>321</planes><plane_name>Airbus Industrie A321</plane_name></routes><routes><airline_iata>GF</airline_iata><departure_airport_iata>BAH</departure_airport_iata><departure_name_airport>Bahrain International</departure_name_airport><departure_coordinates_lon>50.62605</departure_coordinates_lon><departure_coordinates_lat>26.26918</departure_coordinates_lat><departure_country_code>BH</departure_country_code><departure_country_name>Bahrain</departure_country_name><departure_city_code>BAH</departure_city_code><departure_city_name>Manama</departure_city_name><arrival_airport_iata>JED</arrival_airport_iata><arrival_name_airport>King Abdulaziz International</arrival_name_airport><arrival_coordinates_lon>39.150578</arrival_coordinates_lon><arrival_coordinates_lat>21.670233</arrival_coordinates_lat><arrival_country_code>SA</arrival_country_code><arrival_country_name>Saudi Arabia</arrival_country_name><arrival_city_code>JED</arrival_city_code><arrival_city_name>Jeddah</arrival_city_name><planes>E70</planes><plane_name>Embraer ERJ-170</plane_name></routes><routes><airline_iata>GF</airline_iata><departure_airport_iata>BAH</departure_airport_iata><departure_name_airport>Bahrain International</departure_name_airport><departure_coordinates_lon>50.62605</departure_coordinates_lon><departure_coordinates_lat>26.26918</departure_coordinates_lat><departure_country_code>BH</departure_country_code><departure_country_name>Bahrain</departure_country_name><departure_city_code>BAH</departure_city_code><departure_city_name>Manama</departure_city_name><arrival_airport_iata>MED</arrival_airport_iata><arrival_name_airport>Mohammad Bin Abdulaziz</arrival_name_airport><arrival_coordinates_lon>39.698967</arrival_coordinates_lon><arrival_coordinates_lat>24.544369</arrival_coordinates_lat><arrival_country_code>SA</arrival_country_code><arrival_country_name>Saudi Arabia</arrival_country_name><arrival_city_code>MED</arrival_city_code><arrival_city_name>Madinah</arrival_city_name><planes>330</planes><plane_name>Airbus Industrie A330</plane_name></routes><routes><airline_iata>GF</airline_iata><departure_airport_iata>BAH</departure_airport_iata><departure_name_airport>Bahrain International</departure_name_airport><departure_coordinates_lon>50.62605</departure_coordinates_lon><departure_coordinates_lat>26.26918</departure_coordinates_lat><departure_country_code>BH</departure_country_code><departure_country_name>Bahrain</departure_country_name><departure_city_code>BAH</departure_city_code><departure_city_name>Manama</departure_city_name><arrival_airport_iata>RUH</arrival_airport_iata><arrival_name_airport>King Khaled International</arrival_name_airport><arrival_coordinates_lon>46.702877</arrival_coordinates_lon><arrival_coordinates_lat>24.95929</arrival_coordinates_lat><arrival_country_code>SA</arrival_country_code><arrival_country_name>Saudi Arabia</arrival_country_name><arrival_city_code>RUH</arrival_city_code><arrival_city_name>Riyadh</arrival_city_name><planes>332</planes><plane_name>Airbus Industrie A330-200</plane_name></routes><routes><airline_iata>GF</airline_iata><departure_airport_iata>BAH</departure_airport_iata><departure_name_airport>Bahrain International</departure_name_airport><departure_coordinates_lon>50.62605</departure_coordinates_lon><departure_coordinates_lat>26.26918</departure_coordinates_lat><departure_country_code>BH</departure_country_code><departure_country_name>Bahrain</departure_country_name><departure_city_code>BAH</departure_city_code><departure_city_name>Manama</departure_city_name><arrival_airport_iata>RUH</arrival_airport_iata><arrival_name_airport>King Khaled International</arrival_name_airport><arrival_coordinates_lon>46.702877</arrival_coordinates_lon><arrival_coordinates_lat>24.95929</arrival_coordinates_lat><arrival_country_code>SA</arrival_country_code><arrival_country_name>Saudi Arabia</arrival_country_name><arrival_city_code>RUH</arrival_city_code><arrival_city_name>Riyadh</arrival_city_name><planes>M90</planes><plane_name>Boeing/McDonnell Douglas MD-90</plane_name></routes><routes><airline_iata>IY</airline_iata><departure_airport_iata>ADE</departure_airport_iata><departure_name_airport>International</departure_name_airport><departure_coordinates_lon>45.037537</departure_coordinates_lon><departure_coordinates_lat>12.826116</departure_coordinates_lat><departure_country_code>YE</departure_country_code><departure_country_name>Yemen</departure_country_name><departure_city_code>ADE</departure_city_code><departure_city_name>Aden</departure_city_name><arrival_airport_iata>DMM</arrival_airport_iata><arrival_name_airport>King Fahd International Airport</arrival_name_airport><arrival_coordinates_lon>49.79778</arrival_coordinates_lon><arrival_coordinates_lat>26.471111</arrival_coordinates_lat><arrival_country_code>SA</arrival_country_code><arrival_country_name>Saudi Arabia</arrival_country_name><arrival_city_code>DMM</arrival_city_code><arrival_city_name>Dammam</arrival_city_name><planes>CR7</planes><plane_name>Canadair Regional Jet 700</plane_name></routes><routes><airline_iata>IY</airline_iata><departure_airport_iata>ADE</departure_airport_iata><departure_name_airport>International</departure_name_airport><departure_coordinates_lon>45.037537</departure_coordinates_lon><departure_coordinates_lat>12.826116</departure_coordinates_lat><departure_country_code>YE</departure_country_code><departure_country_name>Yemen</departure_country_name><departure_city_code>ADE</departure_city_code><departure_city_name>Aden</departure_city_name><arrival_airport_iata>JED</arrival_airport_iata><arrival_name_airport>King Abdulaziz International</arrival_name_airport><arrival_coordinates_lon>39.150578</arrival_coordinates_lon><arrival_coordinates_lat>21.670233</arrival_coordinates_lat><arrival_country_code>SA</arrival_country_code><arrival_country_name>Saudi Arabia</arrival_country_name><arrival_city_code>JED</arrival_city_code><arrival_city_name>Jeddah</arrival_city_name><planes>310</planes><plane_name>Airbus Industrie A310</plane_name></routes><routes><airline_iata>IY</airline_iata><departure_airport_iata>ADE</departure_airport_iata><departure_name_airport>International</departure_name_airport><departure_coordinates_lon>45.037537</departure_coordinates_lon><departure_coordinates_lat>12.826116</departure_coordinates_lat><departure_country_code>YE</departure_country_code><departure_country_name>Yemen</departure_country_name><departure_city_code>ADE</departure_city_code><departure_city_name>Aden</departure_city_name><arrival_airport_iata>RUH</arrival_airport_iata><arrival_name_airport>King Khaled International</arrival_name_airport><arrival_coordinates_lon>46.702877</arrival_coordinates_lon><arrival_coordinates_lat>24.95929</arrival_coordinates_lat><arrival_country_code>SA</arrival_country_code><arrival_country_name>Saudi Arabia</arrival_country_name><arrival_city_code>RUH</arrival_city_code><arrival_city_name>Riyadh</arrival_city_name><planes>310</planes><plane_name>Airbus Industrie A310</plane_name></routes><routes><airline_iata>IY</airline_iata><departure_airport_iata>RIY</departure_airport_iata><departure_name_airport>Riyan Mukalla</departure_name_airport><departure_coordinates_lon>49.373684</departure_coordinates_lon><departure_coordinates_lat>14.666999</departure_coordinates_lat><departure_country_code>YE</departure_country_code><departure_country_name>Yemen</departure_country_name><departure_city_code>RIY</departure_city_code><departure_city_name>Riyan Mukalla</departure_city_name><arrival_airport_iata>JED</arrival_airport_iata><arrival_name_airport>King Abdulaziz International</arrival_name_airport><arrival_coordinates_lon>39.150578</arrival_coordinates_lon><arrival_coordinates_lat>21.670233</arrival_coordinates_lat><arrival_country_code>SA</arrival_country_code><arrival_country_name>Saudi Arabia</arrival_country_name><arrival_city_code>JED</arrival_city_code><arrival_city_name>Jeddah</arrival_city_name><planes>310</planes><plane_name>Airbus Industrie A310</plane_name></routes><routes><airline_iata>IY</airline_iata><departure_airport_iata>SAH</departure_airport_iata><departure_name_airport>El Rahaba Airport (Sanaa Intenational)</departure_name_airport><departure_coordinates_lon>44.22511</departure_coordinates_lon><departure_coordinates_lat>15.473598</departure_coordinates_lat><departure_country_code>YE</departure_country_code><departure_country_name>Yemen</departure_country_name><departure_city_code>SAH</departure_city_code><departure_city_name>Sanaa</departure_city_name><arrival_airport_iata>JED</arrival_airport_iata><arrival_name_airport>King Abdulaziz International</arrival_name_airport><arrival_coordinates_lon>39.150578</arrival_coordinates_lon><arrival_coordinates_lat>21.670233</arrival_coordinates_lat><arrival_country_code>SA</arrival_country_code><arrival_country_name>Saudi Arabia</arrival_country_name><arrival_city_code>JED</arrival_city_code><arrival_city_name>Jeddah</arrival_city_name><planes>310</planes><plane_name>Airbus Industrie A310</plane_name></routes><routes><airline_iata>IY</airline_iata><departure_airport_iata>SAH</departure_airport_iata><departure_name_airport>El Rahaba Airport (Sanaa Intenational)</departure_name_airport><departure_coordinates_lon>44.22511</departure_coordinates_lon><departure_coordinates_lat>15.473598</departure_coordinates_lat><departure_country_code>YE</departure_country_code><departure_country_name>Yemen</departure_country_name><departure_city_code>SAH</departure_city_code><departure_city_name>Sanaa</departure_city_name><arrival_airport_iata>JED</arrival_airport_iata><arrival_name_airport>King Abdulaziz International</arrival_name_airport><arrival_coordinates_lon>39.150578</arrival_coordinates_lon><arrival_coordinates_lat>21.670233</arrival_coordinates_lat><arrival_country_code>SA</arrival_country_code><arrival_country_name>Saudi Arabia</arrival_country_name><arrival_city_code>JED</arrival_city_code><arrival_city_name>Jeddah</arrival_city_name><planes>320</planes><plane_name>Airbus Industrie A320</plane_name></routes><routes><airline_iata>IY</airline_iata><departure_airport_iata>SAH</departure_airport_iata><departure_name_airport>El Rahaba Airport (Sanaa Intenational)</departure_name_airport><departure_coordinates_lon>44.22511</departure_coordinates_lon><departure_coordinates_lat>15.473598</departure_coordinates_lat><departure_country_code>YE</departure_country_code><departure_country_name>Yemen</departure_country_name><departure_city_code>SAH</departure_city_code><departure_city_name>Sanaa</departure_city_name><arrival_airport_iata>RUH</arrival_airport_iata><arrival_name_airport>King Khaled International</arrival_name_airport><arrival_coordinates_lon>46.702877</arrival_coordinates_lon><arrival_coordinates_lat>24.95929</arrival_coordinates_lat><arrival_country_code>SA</arrival_country_code><arrival_country_name>Saudi Arabia</arrival_country_name><arrival_city_code>RUH</arrival_city_code><arrival_city_name>Riyadh</arrival_city_name><planes>310</planes><plane_name>Airbus Industrie A310</plane_name></routes><routes><airline_iata>IY</airline_iata><departure_airport_iata>TAI</departure_airport_iata><departure_name_airport>Al Janad</departure_name_airport><departure_coordinates_lon>44.134346</departure_coordinates_lon><departure_coordinates_lat>13.685553</departure_coordinates_lat><departure_country_code>YE</departure_country_code><departure_country_name>Yemen</departure_country_name><departure_city_code>TAI</departure_city_code><departure_city_name>Taiz</departure_city_name><arrival_airport_iata>JED</arrival_airport_iata><arrival_name_airport>King Abdulaziz International</arrival_name_airport><arrival_coordinates_lon>39.150578</arrival_coordinates_lon><arrival_coordinates_lat>21.670233</arrival_coordinates_lat><arrival_country_code>SA</arrival_country_code><arrival_country_name>Saudi Arabia</arrival_country_name><arrival_city_code>JED</arrival_city_code><arrival_city_name>Jeddah</arrival_city_name><planes>320</planes><plane_name>Airbus Industrie A320</plane_name></routes><routes><airline_iata>IY</airline_iata><departure_airport_iata>TAI</departure_airport_iata><departure_name_airport>Al Janad</departure_name_airport><departure_coordinates_lon>44.134346</departure_coordinates_lon><departure_coordinates_lat>13.685553</departure_coordinates_lat><departure_country_code>YE</departure_country_code><departure_country_name>Yemen</departure_country_name><departure_city_code>TAI</departure_city_code><departure_city_name>Taiz</departure_city_name><arrival_airport_iata>RUH</arrival_airport_iata><arrival_name_airport>King Khaled International</arrival_name_airport><arrival_coordinates_lon>46.702877</arrival_coordinates_lon><arrival_coordinates_lat>24.95929</arrival_coordinates_lat><arrival_country_code>SA</arrival_country_code><arrival_country_name>Saudi Arabia</arrival_country_name><arrival_city_code>RUH</arrival_city_code><arrival_city_name>Riyadh</arrival_city_name><planes>320</planes><plane_name>Airbus Industrie A320</plane_name></routes><routes><airline_iata>J9</airline_iata><departure_airport_iata>KWI</departure_airport_iata><departure_name_airport>Kuwait International</departure_name_airport><departure_coordinates_lon>47.971252</departure_coordinates_lon><departure_coordinates_lat>29.240116</departure_coordinates_lat><departure_country_code>KW</departure_country_code><departure_country_name>Kuwait</departure_country_name><departure_city_code>KWI</departure_city_code><departure_city_name>Kuwait City</departure_city_name><arrival_airport_iata>JED</arrival_airport_iata><arrival_name_airport>King Abdulaziz International</arrival_name_airport><arrival_coordinates_lon>39.150578</arrival_coordinates_lon><arrival_coordinates_lat>21.670233</arrival_coordinates_lat><arrival_country_code>SA</arrival_country_code><arrival_country_name>Saudi Arabia</arrival_country_name><arrival_city_code>JED</arrival_city_code><arrival_city_name>Jeddah</arrival_city_name><planes>320</planes><plane_name>Airbus Industrie A320</plane_name></routes><routes><airline_iata>J9</airline_iata><departure_airport_iata>KWI</departure_airport_iata><departure_name_airport>Kuwait International</departure_name_airport><departure_coordinates_lon>47.971252</departure_coordinates_lon><departure_coordinates_lat>29.240116</departure_coordinates_lat><departure_country_code>KW</departure_country_code><departure_country_name>Kuwait</departure_country_name><departure_city_code>KWI</departure_city_code><departure_city_name>Kuwait City</departure_city_name><arrival_airport_iata>RUH</arrival_airport_iata><arrival_name_airport>King Khaled International</arrival_name_airport><arrival_coordinates_lon>46.702877</arrival_coordinates_lon><arrival_coordinates_lat>24.95929</arrival_coordinates_lat><arrival_country_code>SA</arrival_country_code><arrival_country_name>Saudi Arabia</arrival_country_name><arrival_city_code>RUH</arrival_city_code><arrival_city_name>Riyadh</arrival_city_name><planes>320</planes><plane_name>Airbus Industrie A320</plane_name></routes><routes><airline_iata>JT</airline_iata><departure_airport_iata>CGK</departure_airport_iata><departure_name_airport>Soekarno-Hatta International</departure_name_airport><departure_coordinates_lon>106.655525</departure_coordinates_lon><departure_coordinates_lat>-6.130643</departure_coordinates_lat><departure_country_code>ID</departure_country_code><departure_country_name>Indonesia</departure_country_name><departure_city_code>JKT</departure_c