<?xml version="1.0" encoding="utf-8"?>
<route><routes><airline_iata>2P</airline_iata><departure_airport_iata>MNL</departure_airport_iata><departure_name_airport>Ninoy Aquino International</departure_name_airport><departure_coordinates_lon>121.01251</departure_coordinates_lon><departure_coordinates_lat>14.509602</departure_coordinates_lat><departure_country_code>PH</departure_country_code><departure_country_name>Philippines</departure_country_name><departure_city_code>MNL</departure_city_code><departure_city_name>Manila</departure_city_name><arrival_airport_iata>SIN</arrival_airport_iata><arrival_name_airport>Singapore Changi</arrival_name_airport><arrival_coordinates_lon>103.990204</arrival_coordinates_lon><arrival_coordinates_lat>1.361173</arrival_coordinates_lat><arrival_country_code>SG</arrival_country_code><arrival_country_name>Singapore</arrival_country_name><arrival_city_code>SIN</arrival_city_code><arrival_city_name>Singapore</arrival_city_name><planes>320</planes><plane_name>Airbus Industrie A320</plane_name></routes><routes><airline_iata>3K</airline_iata><departure_airport_iata>BKK</departure_airport_iata><departure_name_airport>Suvarnabhumi International</departure_name_airport><departure_coordinates_lon>100.752045</departure_coordinates_lon><departure_coordinates_lat>13.693062</departure_coordinates_lat><departure_country_code>TH</departure_country_code><departure_country_name>Thailand</departure_country_name><departure_city_code>BKK</departure_city_code><departure_city_name>Bangkok</departure_city_name><arrival_airport_iata>SIN</arrival_airport_iata><arrival_name_airport>Singapore Changi</arrival_name_airport><arrival_coordinates_lon>103.990204</arrival_coordinates_lon><arrival_coordinates_lat>1.361173</arrival_coordinates_lat><arrival_country_code>SG</arrival_country_code><arrival_country_name>Singapore</arrival_country_name><arrival_city_code>SIN</arrival_city_code><arrival_city_name>Singapore</arrival_city_name><planes>320</planes><plane_name>Airbus Industrie A320</plane_name></routes><routes><airline_iata>3K</airline_iata><departure_airport_iata>CAN</departure_airport_iata><departure_name_airport>Guangzhou Baiyun International</departure_name_airport><departure_coordinates_lon>113.29734</departure_coordinates_lon><departure_coordinates_lat>23.387861</departure_coordinates_lat><departure_country_code>CN</departure_country_code><departure_country_name>China</departure_country_name><departure_city_code>CAN</departure_city_code><departure_city_name>Guangzhou</departure_city_name><arrival_airport_iata>SIN</arrival_airport_iata><arrival_name_airport>Singapore Changi</arrival_name_airport><arrival_coordinates_lon>103.990204</arrival_coordinates_lon><arrival_coordinates_lat>1.361173</arrival_coordinates_lat><arrival_country_code>SG</arrival_country_code><arrival_country_name>Singapore</arrival_country_name><arrival_city_code>SIN</arrival_city_code><arrival_city_name>Singapore</arrival_city_name><planes>320</planes><plane_name>Airbus Industrie A320</plane_name></routes><routes><airline_iata>3K</airline_iata><departure_airport_iata>HAK</departure_airport_iata><departure_name_airport>Haikou</departure_name_airport><departure_coordinates_lon>110.45717</departure_coordinates_lon><departure_coordinates_lat>19.941612</departure_coordinates_lat><departure_country_code>CN</departure_country_code><departure_country_name>China</departure_country_name><departure_city_code>HAK</departure_city_code><departure_city_name>Haikou</departure_city_name><arrival_airport_iata>SIN</arrival_airport_iata><arrival_name_airport>Singapore Changi</arrival_name_airport><arrival_coordinates_lon>103.990204</arrival_coordinates_lon><arrival_coordinates_lat>1.361173</arrival_coordinates_lat><arrival_country_code>SG</arrival_country_code><arrival_country_name>Singapore</arrival_country_name><arrival_city_code>SIN</arrival_city_code><arrival_city_name>Singapore</arrival_city_name><planes>320</planes><plane_name>Airbus Industrie A320</plane_name></routes><routes><airline_iata>3K</airline_iata><departure_airport_iata>HAN</departure_airport_iata><departure_name_airport>Noibai International</departure_name_airport><departure_coordinates_lon>105.802826</departure_coordinates_lon><departure_coordinates_lat>21.214184</departure_coordinates_lat><departure_country_code>VN</departure_country_code><departure_country_name>Vietnam</departure_country_name><departure_city_code>HAN</departure_city_code><departure_city_name>Hanoi</departure_city_name><arrival_airport_iata>SIN</arrival_airport_iata><arrival_name_airport>Singapore Changi</arrival_name_airport><arrival_coordinates_lon>103.990204</arrival_coordinates_lon><arrival_coordinates_lat>1.361173</arrival_coordinates_lat><arrival_country_code>SG</arrival_country_code><arrival_country_name>Singapore</arrival_country_name><arrival_city_code>SIN</arrival_city_code><arrival_city_name>Singapore</arrival_city_name><planes>320</planes><plane_name>Airbus Industrie A320</plane_name></routes><routes><airline_iata>3K</airline_iata><departure_airport_iata>HGH</departure_airport_iata><departure_name_airport>Hangzhou</departure_name_airport><departure_coordinates_lon>120.43236</departure_coordinates_lon><departure_coordinates_lat>30.236935</departure_coordinates_lat><departure_country_code>CN</departure_country_code><departure_country_name>China</departure_country_name><departure_city_code>HGH</departure_city_code><departure_city_name>Hangzhou</departure_city_name><arrival_airport_iata>SIN</arrival_airport_iata><arrival_name_airport>Singapore Changi</arrival_name_airport><arrival_coordinates_lon>103.990204</arrival_coordinates_lon><arrival_coordinates_lat>1.361173</arrival_coordinates_lat><arrival_country_code>SG</arrival_country_code><arrival_country_name>Singapore</arrival_country_name><arrival_city_code>SIN</arrival_city_code><arrival_city_name>Singapore</arrival_city_name><planes>320</planes><plane_name>Airbus Industrie A320</plane_name></routes><routes><airline_iata>3K</airline_iata><departure_airport_iata>HKG</departure_airport_iata><departure_name_airport>Hong Kong International</departure_name_airport><departure_coordinates_lon>113.93649</departure_coordinates_lon><departure_coordinates_lat>22.315248</departure_coordinates_lat><departure_country_code>HK</departure_country_code><departure_country_name>Hong Kong</departure_country_name><departure_city_code>HKG</departure_city_code><departure_city_name>Hong Kong</departure_city_name><arrival_airport_iata>SIN</arrival_airport_iata><arrival_name_airport>Singapore Changi</arrival_name_airport><arrival_coordinates_lon>103.990204</arrival_coordinates_lon><arrival_coordinates_lat>1.361173</arrival_coordinates_lat><arrival_country_code>SG</arrival_country_code><arrival_country_name>Singapore</arrival_country_name><arrival_city_code>SIN</arrival_city_code><arrival_city_name>Singapore</arrival_city_name><planes>320</planes><plane_name>Airbus Industrie A320</plane_name></routes><routes><airline_iata>3K</airline_iata><departure_airport_iata>HKT</departure_airport_iata><departure_name_airport>Phuket International</departure_name_airport><departure_coordinates_lon>98.306435</departure_coordinates_lon><departure_coordinates_lat>8.107619</departure_coordinates_lat><departure_country_code>TH</departure_country_code><departure_country_name>Thailand</departure_country_name><departure_city_code>HKT</departure_city_code><departure_city_name>Phuket</departure_city_name><arrival_airport_iata>SIN</arrival_airport_iata><arrival_name_airport>Singapore Changi</arrival_name_airport><arrival_coordinates_lon>103.990204</arrival_coordinates_lon><arrival_coordinates_lat>1.361173</arrival_coordinates_lat><arrival_country_code>SG</arrival_country_code><arrival_country_name>Singapore</arrival_country_name><arrival_city_code>SIN</arrival_city_code><arrival_city_name>Singapore</arrival_city_name><planes>320</planes><plane_name>Airbus Industrie A320</plane_name></routes><routes><airline_iata>3K</airline_iata><departure_airport_iata>KUL</departure_airport_iata><departure_name_airport>Kuala Lumpur International Airport (klia)</departure_name_airport><departure_coordinates_lon>101.70539</departure_coordinates_lon><departure_coordinates_lat>2.755672</departure_coordinates_lat><departure_country_code>MY</departure_country_code><departure_country_name>Malaysia</departure_country_name><departure_city_code>KUL</departure_city_code><departure_city_name>Kuala Lumpur</departure_city_name><arrival_airport_iata>SIN</arrival_airport_iata><arrival_name_airport>Singapore Changi</arrival_name_airport><arrival_coordinates_lon>103.990204</arrival_coordinates_lon><arrival_coordinates_lat>1.361173</arrival_coordinates_lat><arrival_country_code>SG</arrival_country_code><arrival_country_name>Singapore</arrival_country_name><arrival_city_code>SIN</arrival_city_code><arrival_city_name>Singapore</arrival_city_name><planes>320</planes><plane_name>Airbus Industrie A320</plane_name></routes><routes><airline_iata>3K</airline_iata><departure_airport_iata>MNL</departure_airport_iata><departure_name_airport>Ninoy Aquino International</departure_name_airport><departure_coordinates_lon>121.01251</departure_coordinates_lon><departure_coordinates_lat>14.509602</departure_coordinates_lat><departure_country_code>PH</departure_country_code><departure_country_name>Philippines</departure_country_name><departure_city_code>MNL</departure_city_code><departure_city_name>Manila</departure_city_name><arrival_airport_iata>SIN</arrival_airport_iata><arrival_name_airport>Singapore Changi</arrival_name_airport><arrival_coordinates_lon>103.990204</arrival_coordinates_lon><arrival_coordinates_lat>1.361173</arrival_coordinates_lat><arrival_country_code>SG</arrival_country_code><arrival_country_name>Singapore</arrival_country_name><arrival_city_code>SIN</arrival_city_code><arrival_city_name>Singapore</arrival_city_name><planes>320</planes><plane_name>Airbus Industrie A320</plane_name></routes><routes><airline_iata>3K</airline_iata><departure_airport_iata>NGB</departure_airport_iata><departure_name_airport>Lishe International Airport</departure_name_airport><departure_coordinates_lon>121.462395</departure_coordinates_lon><departure_coordinates_lat>29.820415</departure_coordinates_lat><departure_country_code>CN</departure_country_code><departure_country_name>China</departure_country_name><departure_city_code>NGB</departure_city_code><departure_city_name>Ningbo</departure_city_name><arrival_airport_iata>SIN</arrival_airport_iata><arrival_name_airport>Singapore Changi</arrival_name_airport><arrival_coordinates_lon>103.990204</arrival_coordinates_lon><arrival_coordinates_lat>1.361173</arrival_coordinates_lat><arrival_country_code>SG</arrival_country_code><arrival_country_name>Singapore</arrival_country_name><arrival_city_code>SIN</arrival_city_code><arrival_city_name>Singapore</arrival_city_name><planes>320</planes><plane_name>Airbus Industrie A320</plane_name></routes><routes><airline_iata>3K</airline_iata><departure_airport_iata>NNG</departure_airport_iata><departure_name_airport>Nanning</departure_name_airport><departure_coordinates_lon>108.1675</departure_coordinates_lon><departure_coordinates_lat>22.61321</departure_coordinates_lat><departure_country_code>CN</departure_country_code><departure_country_name>China</departure_country_name><departure_city_code>NNG</departure_city_code><departure_city_name>Nanning</departure_city_name><arrival_airport_iata>SIN</arrival_airport_iata><arrival_name_airport>Singapore Changi</arrival_name_airport><arrival_coordinates_lon>103.990204</arrival_coordinates_lon><arrival_coordinates_lat>1.361173</arrival_coordinates_lat><arrival_country_code>SG</arrival_country_code><arrival_country_name>Singapore</arrival_country_name><arrival_city_code>SIN</arrival_city_code><arrival_city_name>Singapore</arrival_city_name><planes>320</planes><plane_name>Airbus Industrie A320</plane_name></routes><routes><airline_iata>3K</airline_iata><departure_airport_iata>PEN</departure_airport_iata><departure_name_airport>Penang International</departure_name_airport><departure_coordinates_lon>100.265175</departure_coordinates_lon><departure_coordinates_lat>5.292961</departure_coordinates_lat><departure_country_code>MY</departure_country_code><departure_country_name>Malaysia</departure_country_name><departure_city_code>PEN</departure_city_code><departure_city_name>Penang</departure_city_name><arrival_airport_iata>SIN</arrival_airport_iata><arrival_name_airport>Singapore Changi</arrival_name_airport><arrival_coordinates_lon>103.990204</arrival_coordinates_lon><arrival_coordinates_lat>1.361173</arrival_coordinates_lat><arrival_country_code>SG</arrival_country_code><arrival_country_name>Singapore</arrival_country_name><arrival_city_code>SIN</arrival_city_code><arrival_city_name>Singapore</arrival_city_name><planes>320</planes><plane_name>Airbus Industrie A320</plane_name></routes><routes><airline_iata>3K</airline_iata><departure_airport_iata>PER</departure_airport_iata><departure_name_airport>Perth International</departure_name_airport><departure_coordinates_lon>115.960236</departure_coordinates_lon><departure_coordinates_lat>-31.933603</departure_coordinates_lat><departure_country_code>AU</departure_country_code><departure_country_name>Australia</departure_country_name><departure_city_code>PER</departure_city_code><departure_city_name>Perth</departure_city_name><arrival_airport_iata>SIN</arrival_airport_iata><arrival_name_airport>Singapore Changi</arrival_name_airport><arrival_coordinates_lon>103.990204</arrival_coordinates_lon><arrival_coordinates_lat>1.361173</arrival_coordinates_lat><arrival_country_code>SG</arrival_country_code><arrival_country_name>Singapore</arrival_country_name><arrival_city_code>SIN</arrival_city_code><arrival_city_name>Singapore</arrival_city_name><planes>320</planes><plane_name>Airbus Industrie A320</plane_name></routes><routes><airline_iata>3K</airline_iata><departure_airport_iata>PNH</departure_airport_iata><departure_name_airport>Phnom Penh International</departure_name_airport><departure_coordinates_lon>104.84778</departure_coordinates_lon><departure_coordinates_lat>11.546111</departure_coordinates_lat><departure_country_code>KH</departure_country_code><departure_country_name>Cambodia</departure_country_name><departure_city_code>PNH</departure_city_code><departure_city_name>Phnom Penh</departure_city_name><arrival_airport_iata>SIN</arrival_airport_iata><arrival_name_airport>Singapore Changi</arrival_name_airport><arrival_coordinates_lon>103.990204</arrival_coordinates_lon><arrival_coordinates_lat>1.361173</arrival_coordinates_lat><arrival_country_code>SG</arrival_country_code><arrival_country_name>Singapore</arrival_country_name><arrival_city_code>SIN</arrival_city_code><arrival_city_name>Singapore</arrival_city_name><planes>320</planes><plane_name>Airbus Industrie A320</plane_name></routes><routes><airline_iata>3K</airline_iata><departure_airport_iata>RGN</departure_airport_iata><departure_name_airport>Mingaladon</departure_name_airport><departure_coordinates_lon>96.134155</departure_coordinates_lon><departure_coordinates_lat>16.900068</departure_coordinates_lat><departure_country_code>MM</departure_country_code><departure_country_name>Myanmar</departure_country_name><departure_city_code>RGN</departure_city_code><departure_city_name>Yangon</departure_city_name><arrival_airport_iata>SIN</arrival_airport_iata><arrival_name_airport>Singapore Changi</arrival_name_airport><arrival_coordinates_lon>103.990204</arrival_coordinates_lon><arrival_coordinates_lat>1.361173</arrival_coordinates_lat><arrival_country_code>SG</arrival_country_code><arrival_country_name>Singapore</arrival_country_name><arrival_city_code>SIN</arrival_city_code><arrival_city_name>Singapore</arrival_city_name><planes>320</planes><plane_name>Airbus Industrie A320</plane_name></routes><routes><airline_iata>3K</airline_iata><departure_airport_iata>SGN</departure_airport_iata><departure_name_airport>Tan Son Nhat International</departure_name_airport><departure_coordinates_lon>106.662476</departure_coordinates_lon><departure_coordinates_lat>10.813045</departure_coordinates_lat><departure_country_code>VN</departure_country_code><departure_country_name>Vietnam</departure_country_name><departure_city_code>SGN</departure_city_code><departure_city_name>Ho Chi Minh City</departure_city_name><arrival_airport_iata>SIN</arrival_airport_iata><arrival_name_airport>Singapore Changi</arrival_name_airport><arrival_coordinates_lon>103.990204</arrival_coordinates_lon><arrival_coordinates_lat>1.361173</arrival_coordinates_lat><arrival_country_code>SG</arrival_country_code><arrival_country_name>Singapore</arrival_country_name><arrival_city_code>SIN</arrival_city_code><arrival_city_name>Singapore</arrival_city_name><planes>320</planes><plane_name>Airbus Industrie A320</plane_name></routes><routes><airline_iata>3K</airline_iata><departure_airport_iata>SWA</departure_airport_iata><departure_name_airport>Shantou</departure_name_airport><departure_coordinates_lon>116.75859</departure_coordinates_lon><departure_coordinates_lat>23.430237</departure_coordinates_lat><departure_country_code>CN</departure_country_code><departure_country_name>China</departure_country_name><departure_city_code>SWA</departure_city_code><departure_city_name>Shantou</departure_city_name><arrival_airport_iata>SIN</arrival_airport_iata><arrival_name_airport>Singapore Changi</arrival_name_airport><arrival_coordinates_lon>103.990204</arrival_coordinates_lon><arrival_coordinates_lat>1.361173</arrival_coordinates_lat><arrival_country_code>SG</arrival_country_code><arrival_country_name>Singapore</arrival_country_name><arrival_city_code>SIN</arrival_city_code><arrival_city_name>Singapore</arrival_city_name><planes>320</planes><plane_name>Airbus Industrie A320</plane_name></routes><routes><airline_iata>3K</airline_iata><departure_airport_iata>TPE</departure_airport_iata><departure_name_airport>Taiwan Taoyuan International (Chiang Kai Shek International)</departure_name_airport><departure_coordinates_lon>121.22389</departure_coordinates_lon><departure_coordinates_lat>25.07639</departure_coordinates_lat><departure_country_code>TW</departure_country_code><departure_country_name>Taiwan</departure_country_name><departure_city_code>TPE</departure_city_code><departure_city_name>Taipei</departure_city_name><arrival_airport_iata>SIN</arrival_airport_iata><arrival_name_airport>Singapore Changi</arrival_name_airport><arrival_coordinates_lon>103.990204</arrival_coordinates_lon><arrival_coordinates_lat>1.361173</arrival_coordinates_lat><arrival_country_code>SG</arrival_country_code><arrival_country_name>Singapore</arrival_country_name><arrival_city_code>SIN</arrival_city_code><arrival_city_name>Singapore</arrival_city_name><planes>320</planes><plane_name>Airbus Industrie A320</plane_name></routes><routes><airline_iata>5J</airline_iata><departure_airport_iata>CEB</departure_airport_iata><departure_name_airport>Mactan-Cebu International</departure_name_airport><departure_coordinates_lon>123.98278</departure_coordinates_lon><departure_coordinates_lat>10.313333</departure_coordinates_lat><departure_country_code>PH</departure_country_code><departure_country_name>Philippines</departure_country_name><departure_city_code>CEB</departure_city_code><departure_city_name>Cebu</departure_city_name><arrival_airport_iata>SIN</arrival_airport_iata><arrival_name_airport>Singapore Changi</arrival_name_airport><arrival_coordinates_lon>103.990204</arrival_coordinates_lon><arrival_coordinates_lat>1.361173</arrival_coordinates_lat><arrival_country_code>SG</arrival_country_code><arrival_country_name>Singapore</arrival_country_name><arrival_city_code>SIN</arrival_city_code><arrival_city_name>Singapore</arrival_city_name><planes>319</planes><plane_name>Airbus Industrie A319</plane_name></routes><routes><airline_iata>5J</airline_iata><departure_airport_iata>CRK</departure_airport_iata><departure_name_airport>Diosdado Macapagal International (Clark International)</departure_name_airport><departure_coordinates_lon>120.546486</departure_coordinates_lon><departure_coordinates_lat>15.182571</departure_coordinates_lat><departure_country_code>PH</departure_country_code><departure_country_name>Philippines</departure_country_name><departure_city_code>NCP</departure_city_code><departure_city_name>Luzon Island</departure_city_name><arrival_airport_iata>SIN</arrival_airport_iata><arrival_name_airport>Singapore Changi</arrival_name_airport><arrival_coordinates_lon>103.990204</arrival_coordinates_lon><arrival_coordinates_lat>1.361173</arrival_coordinates_lat><arrival_country_code>SG</arrival_country_code><arrival_country_name>Singapore</arrival_country_name><arrival_city_code>SIN</arrival_city_code><arrival_city_name>Singapore</arrival_city_name><planes>319</planes><plane_name>Airbus Industrie A319</plane_name></routes><routes><airline_iata>5J</airline_iata><departure_airport_iata>MNL</departure_airport_iata><departure_name_airport>Ninoy Aquino International</departure_name_airport><departure_coordinates_lon>121.01251</departure_coordinates_lon><departure_coordinates_lat>14.509602</departure_coordinates_lat><departure_country_code>PH</departure_country_code><departure_country_name>Philippines</departure_country_name><departure_city_code>MNL</departure_city_code><departure_city_name>Manila</departure_city_name><arrival_airport_iata>SIN</arrival_airport_iata><arrival_name_airport>Singapore Changi</arrival_name_airport><arrival_coordinates_lon>103.990204</arrival_coordinates_lon><arrival_coordinates_lat>1.361173</arrival_coordinates_lat><arrival_country_code>SG</arrival_country_code><arrival_country_name>Singapore</arrival_country_name><arrival_city_code>SIN</arrival_city_code><arrival_city_name>Singapore</arrival_city_name><planes>320</planes><plane_name>Airbus Industrie A320</plane_name></routes><routes><airline_iata>6E</airline_iata><departure_airport_iata>BOM</departure_airport_iata><departure_name_airport>Chhatrapati Shivaji International (Sahar International)</departure_name_airport><departure_coordinates_lon>72.87497</departure_coordinates_lon><departure_coordinates_lat>19.095509</departure_coordinates_lat><departure_country_code>IN</departure_country_code><departure_country_name>India</departure_country_name><departure_city_code>BOM</departure_city_code><departure_city_name>Mumbai</departure_city_name><arrival_airport_iata>SIN</arrival_airport_iata><arrival_name_airport>Singapore Changi</arrival_name_airport><arrival_coordinates_lon>103.990204</arrival_coordinates_lon><arrival_coordinates_lat>1.361173</arrival_coordinates_lat><arrival_country_code>SG</arrival_country_code><arrival_country_name>Singapore</arrival_country_name><arrival_city_code>SIN</arrival_city_code><arrival_city_name>Singapore</arrival_city_name><planes>320</planes><plane_name>Airbus Industrie A320</plane_name></routes><routes><airline_iata>6E</airline_iata><departure_airport_iata>DEL</departure_airport_iata><departure_name_airport>Indira Gandhi International</departure_name_airport><departure_coordinates_lon>77.10079</departure_coordinates_lon><departure_coordinates_lat>28.556555</departure_coordinates_lat><departure_country_code>IN</departure_country_code><departure_country_name>India</departure_country_name><departure_city_code>DEL</departure_city_code><departure_city_name>New Delhi</departure_city_name><arrival_airport_iata>SIN</arrival_airport_iata><arrival_name_airport>Singapore Changi</arrival_name_airport><arrival_coordinates_lon>103.990204</arrival_coordinates_lon><arrival_coordinates_lat>1.361173</arrival_coordinates_lat><arrival_country_code>SG</arrival_country_code><arrival_country_name>Singapore</arrival_country_name><arrival_city_code>SIN</arrival_city_code><arrival_city_name>Singapore</arrival_city_name><planes>320</planes><plane_name>Airbus Industrie A320</plane_name></routes><routes><airline_iata>8M</airline_iata><departure_airport_iata>RGN</departure_airport_iata><departure_name_airport>Mingaladon</departure_name_airport><departure_coordinates_lon>96.134155</departure_coordinates_lon><departure_coordinates_lat>16.900068</departure_coordinates_lat><departure_country_code>MM</departure_country_code><departure_country_name>Myanmar</departure_country_name><departure_city_code>RGN</departure_city_code><departure_city_name>Yangon</departure_city_name><arrival_airport_iata>SIN</arrival_airport_iata><arrival_name_airport>Singapore Changi</arrival_name_airport><arrival_coordinates_lon>103.990204</arrival_coordinates_lon><arrival_coordinates_lat>1.361173</arrival_coordinates_lat><arrival_country_code>SG</arrival_country_code><arrival_country_name>Singapore</arrival_country_name><arrival_city_code>SIN</arrival_city_code><arrival_city_name>Singapore</arrival_city_name><planes>320</planes><plane_name>Airbus Industrie A320</plane_name></routes><routes><airline_iata>9W</airline_iata><departure_airport_iata>BOM</departure_airport_iata><departure_name_airport>Chhatrapati Shivaji International (Sahar International)</departure_name_airport><departure_coordinates_lon>72.87497</departure_coordinates_lon><departure_coordinates_lat>19.095509</departure_coordinates_lat><departure_country_code>IN</departure_country_code><departure_country_name>India</departure_country_name><departure_city_code>BOM</departure_city_code><departure_city_name>Mumbai</departure_city_name><arrival_airport_iata>SIN</arrival_airport_iata><arrival_name_airport>Singapore Changi</arrival_name_airport><arrival_coordinates_lon>103.990204</arrival_coordinates_lon><arrival_coordinates_lat>1.361173</arrival_coordinates_lat><arrival_country_code>SG</arrival_country_code><arrival_country_name>Singapore</arrival_country_name><arrival_city_code>SIN</arrival_city_code><arrival_city_name>Singapore</arrival_city_name><planes>332</planes><plane_name>Airbus Industrie A330-200</plane_name></routes><routes><airline_iata>9W</airline_iata><departure_airport_iata>DEL</departure_airport_iata><departure_name_airport>Indira Gandhi International</departure_name_airport><departure_coordinates_lon>77.10079</departure_coordinates_lon><departure_coordinates_lat>28.556555</departure_coordinates_lat><departure_country_code>IN</departure_country_code><departure_country_name>India</departure_country_name><departure_city_code>DEL</departure_city_code><departure_city_name>New Delhi</departure_city_name><arrival_airport_iata>SIN</arrival_airport_iata><arrival_name_airport>Singapore Changi</arrival_name_airport><arrival_coordinates_lon>103.990204</arrival_coordinates_lon><arrival_coordinates_lat>1.361173</arrival_coordinates_lat><arrival_country_code>SG</arrival_country_code><arrival_country_name>Singapore</arrival_country_name><arrival_city_code>SIN</arrival_city_code><arrival_city_name>Singapore</arrival_city_name><planes>73H</planes><plane_name>Boeing 737-800 With Winglets</plane_name></routes><routes><airline_iata>9W</airline_iata><departure_airport_iata>MAA</departure_airport_iata><departure_name_airport>Madras International (Meenambakkam)</departure_name_airport><departure_coordinates_lon>80.16378</departure_coordinates_lon><departure_coordinates_lat>12.982267</departure_coordinates_lat><departure_country_code>IN</departure_country_code><departure_country_name>India</departure_country_name><departure_city_code>MAA</departure_city_code><departure_city_name>Chennai</departure_city_name><arrival_airport_iata>SIN</arrival_airport_iata><arrival_name_airport>Singapore Changi</arrival_name_airport><arrival_coordinates_lon>103.990204</arrival_coordinates_lon><arrival_coordinates_lat>1.361173</arrival_coordinates_lat><arrival_country_code>SG</arrival_country_code><arrival_country_name>Singapore</arrival_country_name><arrival_city_code>SIN</arrival_city_code><arrival_city_name>Singapore</arrival_city_name><planes>73H</planes><plane_name>Boeing 737-800 With Winglets</plane_name></routes><routes><airline_iata>AB</airline_iata><departure_airport_iata>AUH</departure_airport_iata><departure_name_airport>Abu Dhabi International</departure_name_airport><departure_coordinates_lon>54.645973</departure_coordinates_lon><departure_coordinates_lat>24.426912</departure_coordinates_lat><departure_country_code>AE</departure_country_code><departure_country_name>United Arab Emirates</departure_country_name><departure_city_code>AUH</departure_city_code><departure_city_name>Abu Dhabi</departure_city_name><arrival_airport_iata>SIN</arrival_airport_iata><arrival_name_airport>Singapore Changi</arrival_name_airport><arrival_coordinates_lon>103.990204</arrival_coordinates_lon><arrival_coordinates_lat>1.361173</arrival_coordinates_lat><arrival_country_code>SG</arrival_country_code><arrival_country_name>Singapore</arrival_country_name><arrival_city_code>SIN</arrival_city_code><arrival_city_name>Singapore</arrival_city_name><planes>332</planes><plane_name>Airbus Industrie A330-200</plane_name></routes><routes><airline_iata>AB</airline_iata><departure_airport_iata>BNE</departure_airport_iata><departure_name_airport>Brisbane International</departure_name_airport><departure_coordinates_lon>153.10905</departure_coordinates_lon><departure_coordinates_lat>-27.40303</departure_coordinates_lat><departure_country_code>AU</departure_country_code><departure_country_name>Australia</departure_country_name><departure_city_code>BNE</departure_city_code><departure_city_name>Brisbane</departure_city_name><arrival_airport_iata>SIN</arrival_airport_iata><arrival_name_airport>Singapore Changi</arrival_name_airport><arrival_coordinates_lon>103.990204</arrival_coordinates_lon><arrival_coordinates_lat>1.361173</arrival_coordinates_lat><arrival_country_code>SG</arrival_country_code><arrival_country_name>Singapore</arrival_country_name><arrival_city_code>SIN</arrival_city_code><arrival_city_name>Singapore</arrival_city_name><planes>332</planes><plane_name>Airbus Industrie A330-200</plane_name></routes><routes><airline_iata>AF</airline_iata><departure_airport_iata>CDG</departure_airport_iata><departure_name_airport>Charles De Gaulle</departure_name_airport><departure_coordinates_lon>2.567023</departure_coordinates_lon><departure_coordinates_lat>49.003197</departure_coordinates_lat><departure_country_code>FR</departure_country_code><departure_country_name>France</departure_country_name><departure_city_code>PAR</departure_city_code><departure_city_name>Paris</departure_city_name><arrival_airport_iata>SIN</arrival_airport_iata><arrival_name_airport>Singapore Changi</arrival_name_airport><arrival_coordinates_lon>103.990204</arrival_coordinates_lon><arrival_coordinates_lat>1.361173</arrival_coordinates_lat><arrival_country_code>SG</arrival_country_code><arrival_country_name>Singapore</arrival_country_name><arrival_city_code>SIN</arrival_city_code><arrival_city_name>Singapore</arrival_city_name><planes>388</planes><plane_name>Airbus Industrie A380-800</plane_name></routes><routes><airline_iata>AI</airline_iata><departure_airport_iata>BKK</departure_airport_iata><departure_name_airport>Suvarnabhumi International</departure_name_airport><departure_coordinates_lon>100.752045</departure_coordinates_lon><departure_coordinates_lat>13.693062</departure_coordinates_lat><departure_country_code>TH</departure_country_code><departure_country_name>Thailand</departure_country_name><departure_city_code>BKK</departure_city_code><departure_city_name>Bangkok</departure_city_name><arrival_airport_iata>SIN</arrival_airport_iata><arrival_name_airport>Singapore Changi</arrival_name_airport><arrival_coordinates_lon>103.990204</arrival_coordinates_lon><arrival_coordinates_lat>1.361173</arrival_coordinates_lat><arrival_country_code>SG</arrival_country_code><arrival_country_name>Singapore</arrival_country_name><arrival_city_code>SIN</arrival_city_code><arrival_city_name>Singapore</arrival_city_name><planes>772</planes><plane_name>Boeing 777-200/200ER</plane_name></routes><routes><airline_iata>AI</airline_iata><departure_airport_iata>BOM</departure_airport_iata><departure_name_airport>Chhatrapati Shivaji International (Sahar International)</departure_name_airport><departure_coordinates_lon>72.87497</departure_coordinates_lon><departure_coordinates_lat>19.095509</departure_coordinates_lat><departure_country_code>IN</departure_country_code><departure_country_name>India</departure_country_name><departure_city_code>BOM</departure_city_code><departure_city_name>Mumbai</departure_city_name><arrival_airport_iata>SIN</arrival_airport_iata><arrival_name_airport>Singapore Changi</arrival_name_airport><arrival_coordinates_lon>103.990204</arrival_coordinates_lon><arrival_coordinates_lat>1.361173</arrival_coordinates_lat><arrival_country_code>SG</arrival_country_code><arrival_country_name>Singapore</arrival_country_name><arrival_city_code>SIN</arrival_city_code><arrival_city_name>Singapore</arrival_city_name><planes>319</planes><plane_name>Airbus Industrie A319</plane_name></routes><routes><airline_iata>AI</airline_iata><departure_airport_iata>CCU</departure_airport_iata><departure_name_airport>Netaji Subhas Chandra</departure_name_airport><departure_coordinates_lon>88.43931</departure_coordinates_lon><departure_coordinates_lat>22.64531</departure_coordinates_lat><departure_country_code>IN</departure_country_code><departure_country_name>India</departure_country_name><departure_city_code>CCU</departure_city_code><departure_city_name>Kolkata</departure_city_name><arrival_airport_iata>SIN</arrival_airport_iata><arrival_name_airport>Singapore Changi</arrival_name_airport><arrival_coordinates_lon>103.990204</arrival_coordinates_lon><arrival_coordinates_lat>1.361173</arrival_coordinates_lat><arrival_country_code>SG</arrival_country_code><arrival_country_name>Singapore</arrival_country_name><arrival_city_code>SIN</arrival_city_code><arrival_city_name>Singapore</arrival_city_name><planes>333</planes><plane_name>Airbus Industrie A330-300</plane_name></routes><routes><airline_iata>AI</airline_iata><departure_airport_iata>DEL</departure_airport_iata><departure_name_airport>Indira Gandhi International</departure_name_airport><departure_coordinates_lon>77.10079</departure_coordinates_lon><departure_coordinates_lat>28.556555</departure_coordinates_lat><departure_country_code>IN</departure_country_code><departure_country_name>India</departure_country_name><departure_city_code>DEL</departure_city_code><departure_city_name>New Delhi</departure_city_name><arrival_airport_iata>SIN</arrival_airport_iata><arrival_name_airport>Singapore Changi</arrival_name_airport><arrival_coordinates_lon>103.990204</arrival_coordinates_lon><arrival_coordinates_lat>1.361173</arrival_coordinates_lat><arrival_country_code>SG</arrival_country_code><arrival_country_name>Singapore</arrival_country_name><arrival_city_code>SIN</arrival_city_code><arrival_city_name>Singapore</arrival_city_name><planes>319</planes><plane_name>Airbus Industrie A319</plane_name></routes><routes><airline_iata>AI</airline_iata><departure_airport_iata>HKG</departure_airport_iata><departure_name_airport>Hong Kong International</departure_name_airport><departure_coordinates_lon>113.93649</departure_coordinates_lon><departure_coordinates_lat>22.315248</departure_coordinates_lat><departure_country_code>HK</departure_country_code><departure_country_name>Hong Kong</departure_country_name><departure_city_code>HKG</departure_city_code><departure_city_name>Hong Kong</departure_city_name><arrival_airport_iata>SIN</arrival_airport_iata><arrival_name_airport>Singapore Changi</arrival_name_airport><arrival_coordinates_lon>103.990204</arrival_coordinates_lon><arrival_coordinates_lat>1.361173</arrival_coordinates_lat><arrival_country_code>SG</arrival_country_code><arrival_country_name>Singapore</arrival_country_name><arrival_city_code>SIN</arrival_city_code><arrival_city_name>Singapore</arrival_city_name><planes>77W</planes><plane_name>Boeing 777-300ER</plane_name></routes><routes><airline_iata>AI</airline_iata><departure_airport_iata>ICN</departure_airport_iata><departure_name_airport>Seoul (Incheon)</departure_name_airport><departure_coordinates_lon>126.45123</departure_coordinates_lon><departure_coordinates_lat>37.448524</departure_coordinates_lat><departure_country_code>KR</departure_country_code><departure_country_name>South Korea</departure_country_name><departure_city_code>SEL</departure_city_code><departure_city_name>Seoul</departure_city_name><arrival_airport_iata>SIN</arrival_airport_iata><arrival_name_airport>Singapore Changi</arrival_name_airport><arrival_coordinates_lon>103.990204</arrival_coordinates_lon><arrival_coordinates_lat>1.361173</arrival_coordinates_lat><arrival_country_code>SG</arrival_country_code><arrival_country_name>Singapore</arrival_country_name><arrival_city_code>SIN</arrival_city_code><arrival_city_name>Singapore</arrival_city_name><planes>77W</planes><plane_name>Boeing 777-300ER</plane_name></routes><routes><airline_iata>AI</airline_iata><departure_airport_iata>KUL</departure_airport_iata><departure_name_airport>Kuala Lumpur International Airport (klia)</departure_name_airport><departure_coordinates_lon>101.70539</departure_coordinates_lon><departure_coordinates_lat>2.755672</departure_coordinates_lat><departure_country_code>MY</departure_country_code><departure_country_name>Malaysia</departure_country_name><departure_city_code>KUL</departure_city_code><departure_city_name>Kuala Lumpur</departure_city_name><arrival_airport_iata>SIN</arrival_airport_iata><arrival_name_airport>Singapore Changi</arrival_name_airport><arrival_coordinates_lon>103.990204</arrival_coordinates_lon><arrival_coordinates_lat>1.361173</arrival_coordinates_lat><arrival_country_code>SG</arrival_country_code><arrival_country_name>Singapore</arrival_country_name><arrival_city_code>SIN</arrival_city_code><arrival_city_name>Singapore</arrival_city_name><planes>333</planes><plane_name>Airbus Industrie A330-300</plane_name></routes><routes><airline_iata>AI</airline_iata><departure_airport_iata>MAA</departure_airport_iata><departure_name_airport>Madras International (Meenambakkam)</departure_name_airport><departure_coordinates_lon>80.16378</departure_coordinates_lon><departure_coordinates_lat>12.982267</departure_coordinates_lat><departure_country_code>IN</departure_country_code><departure_country_name>India</departure_country_name><departure_city_code>MAA</departure_city_code><departure_city_name>Chennai</departure_city_name><arrival_airport_iata>SIN</arrival_airport_iata><arrival_name_airport>Singapore Changi</arrival_name_airport><arrival_coordinates_lon>103.990204</arrival_coordinates_lon><arrival_coordinates_lat>1.361173</arrival_coordinates_lat><arrival_country_code>SG</arrival_country_code><arrival_country_name>Singapore</arrival_country_name><arrival_city_code>SIN</arrival_city_code><arrival_city_name>Singapore</arrival_city_name><planes>320</planes><plane_name>Airbus Industrie A320</plane_name></routes><routes><airline_iata>AI</airline_iata><departure_airport_iata>NRT</departure_airport_iata><departure_name_airport>Narita International Airport</departure_name_airport><departure_coordinates_lon>140.38744</departure_coordinates_lon><departure_coordinates_lat>35.773212</departure_coordinates_lat><departure_country_code>JP</departure_country_code><departure_country_name>Japan</departure_country_name><departure_city_code>TYO</departure_city_code><departure_city_name>Tokyo</departure_city_name><arrival_airport_iata>SIN</arrival_airport_iata><arrival_name_airport>Singapore Changi</arrival_name_airport><arrival_coordinates_lon>103.990204</arrival_coordinates_lon><arrival_coordinates_lat>1.361173</arrival_coordinates_lat><arrival_country_code>SG</arrival_country_code><arrival_country_name>Singapore</arrival_country_name><arrival_city_code>SIN</arrival_city_code><arrival_city_name>Singapore</arrival_city_name><planes>388</planes><plane_name>Airbus Industrie A380-800</plane_name></routes><routes><airline_iata>AK</airline_iata><departure_airport_iata>BKI</departure_airport_iata><departure_name_airport>Kota-Kinabalu International Airport</departure_name_airport><departure_coordinates_lon>116.05075</departure_coordinates_lon><departure_coordinates_lat>5.923961</departure_coordinates_lat><departure_country_code>MY</departure_country_code><departure_country_name>Malaysia</departure_country_name><departure_city_code>BKI</departure_city_code><departure_city_name>Kota-Kinabalu</departure_city_name><arrival_airport_iata>SIN</arrival_airport_iata><arrival_name_airport>Singapore Changi</arrival_name_airport><arrival_coordinates_lon>103.990204</arrival_coordinates_lon><arrival_coordinates_lat>1.361173</arrival_coordinates_lat><arrival_country_code>SG</arrival_country_code><arrival_country_name>Singapore</arrival_country_name><arrival_city_code>SIN</arrival_city_code><arrival_city_name>Singapore</arrival_city_name><planes>320</planes><plane_name>Airbus Industrie A320</plane_name></routes><routes><airline_iata>AK</airline_iata><departure_airport_iata>KCH</departure_airport_iata><departure_name_airport>Kuching</departure_name_airport><departure_coordinates_lon>110.340836</departure_coordinates_lon><departure_coordinates_lat>1.484167</departure_coordinates_lat><departure_country_code>MY</departure_country_code><departure_country_name>Malaysia</departure_country_name><departure_city_code>KCH</departure_city_code><departure_city_name>Kuching</departure_city_name><arrival_airport_iata>SIN</arrival_airport_iata><arrival_name_airport>Singapore Changi</arrival_name_airport><arrival_coordinates_lon>103.990204</arrival_coordinates_lon><arrival_coordinates_lat>1.361173</arrival_coordinates_lat><arrival_country_code>SG</arrival_country_code><arrival_country_name>Singapore</arrival_country_name><arrival_city_code>SIN</arrival_city_code><arrival_city_name>Singapore</arrival_city_name><planes>320</planes><plane_name>Airbus Industrie A320</plane_name></routes><routes><airline_iata>AK</airline_iata><departure_airport_iata>KUL</departure_airport_iata><departure_name_airport>Kuala Lumpur International Airport (klia)</departure_name_airport><departure_coordinates_lon>101.70539</departure_coordinates_lon><departure_coordinates_lat>2.755672</departure_coordinates_lat><departure_country_code>MY</departure_country_code><departure_country_name>Malaysia</departure_country_name><departure_city_code>KUL</departure_city_code><departure_city_name>Kuala Lumpur</departure_city_name><arrival_airport_iata>SIN</arrival_airport_iata><arrival_name_airport>Singapore Changi</arrival_name_airport><arrival_coordinates_lon>103.990204</arrival_coordinates_lon><arrival_coordinates_lat>1.361173</arrival_coordinates_lat><arrival_country_code>SG</arrival_country_code><arrival_country_name>Singapore</arrival_country_name><arrival_city_code>SIN</arrival_city_code><arrival_city_name>Singapore</arrival_city_name><planes>320</planes><plane_name>Airbus Industrie A320</plane_name></routes><routes><airline_iata>AK</airline_iata><departure_airport_iata>LGK</departure_airport_iata><departure_name_airport>Langakawi International</departure_name_airport><departure_coordinates_lon>99.7314</departure_coordinates_lon><departure_coordinates_lat>6.342174</departure_coordinates_lat><departure_country_code>MY</departure_country_code><departure_country_name>Malaysia</departure_country_name><departure_city_code>LGK</departure_city_code><departure_city_name>Langkawi</departure_city_name><arrival_airport_iata>SIN</arrival_airport_iata><arrival_name_airport>Singapore Changi</arrival_name_airport><arrival_coordinates_lon>103.990204</arrival_coordinates_lon><arrival_coordinates_lat>1.361173</arrival_coordinates_lat><arrival_country_code>SG</arrival_country_code><arrival_country_name>Singapore</arrival_country_name><arrival_city_code>SIN</arrival_city_code><arrival_city_name>Singapore</arrival_city_name><planes>320</planes><plane_name>Airbus Industrie A320</plane_name></routes><routes><airline_iata>AK</airline_iata><departure_airport_iata>MYY</departure_airport_iata><departure_name_airport>Miri</departure_name_airport><departure_coordinates_lon>113.983116</departure_coordinates_lon><departure_coordinates_lat>4.325261</departure_coordinates_lat><departure_country_code>MY</departure_country_code><departure_country_name>Malaysia</departure_country_name><departure_city_code>MYY</departure_city_code><departure_city_name>Miri</departure_city_name><arrival_airport_iata>SIN</arrival_airport_iata><arrival_name_airport>Singapore Changi</arrival_name_airport><arrival_coordinates_lon>103.990204</arrival_coordinates_lon><arrival_coordinates_lat>1.361173</arrival_coordinates_lat><arrival_country_code>SG</arrival_country_code><arrival_country_name>Singapore</arrival_country_name><arrival_city_code>SIN</arrival_city_code><arrival_city_name>Singapore</arrival_city_name><planes>320</planes><plane_name>Airbus Industrie A320</plane_name></routes><routes><airline_iata>AK</airline_iata><departure_airport_iata>PEN</departure_airport_iata><departure_name_airport>Penang International</departure_name_airport><departure_coordinates_lon>100.265175</departure_coordinates_lon><departure_coordinates_lat>5.292961</departure_coordinates_lat><departure_country_code>MY</departure_country_code><departure_country_name>Malaysia</departure_country_name><departure_city_code>PEN</departure_city_code><departure_city_name>Penang</departure_city_name><arrival_airport_iata>SIN</arrival_airport_iata><arrival_name_airport>Singapore Changi</arrival_name_airport><arrival_coordinates_lon>103.990204</arrival_coordinates_lon><arrival_coordinates_lat>1.361173</arrival_coordinates_lat><arrival_country_code>SG</arrival_country_code><arrival_country_name>Singapore</arrival_country_name><arrival_city_code>SIN</arrival_city_code><arrival_city_name>Singapore</arrival_city_name><planes>320</planes><plane_name>Airbus Industrie A320</plane_name></routes><routes><airline_iata>AY</airline_iata><departure_airport_iata>HEL</departure_airport_iata><departure_name_airport>Helsinki-vantaa</departure_name_airport><departure_coordinates_lon>24.96645</departure_coordinates_lon><departure_coordinates_lat>60.31795</departure_coordinates_lat><departure_country_code>FI</departure_country_code><departure_country_name>Finland</departure_country_name><departure_city_code>HEL</departure_city_code><departure_city_name>Helsinki</departure_city_name><arrival_airport_iata>SIN</arrival_airport_iata><arrival_name_airport>Singapore Changi</arrival_name_airport><arrival_coordinates_lon>103.990204</arrival_coordinates_lon><arrival_coordinates_lat>1.361173</arrival_coordinates_lat><arrival_country_code>SG</arrival_country_code><arrival_country_name>Singapore</arrival_country_name><arrival_city_code>SIN</arrival_city_code><arrival_city_name>Singapore</arrival_city_name><planes>340</planes><plane_name>Airbus Industrie A340</plane_name></routes><routes><airline_iata>AZ</airline_iata><departure_airport_iata>CDG</departure_airport_iata><departure_name_airport>Charles De Gaulle</departure_name_airport><departure_coordinates_lon>2.567023</departure_coordinates_lon><departure_coordinates_lat>49.003197</departure_coordinates_lat><departure_country_code>FR</departure_country_code><departure_country_name>France</departure_country_name><departure_city_code>PAR</departure_city_code><departure_city_name>Paris</departure_city_name><arrival_airport_iata>SIN</arrival_airport_iata><arrival_name_airport>Singapore Changi</arrival_name_airport><arrival_coordinates_lon>103.990204</arrival_coordinates_lon><arrival_coordinates_lat>1.361173</arrival_coordinates_lat><arrival_country_code>SG</arrival_country_code><arrival_country_name>Singapore</arrival_country_name><arrival_city_code>SIN</arrival_city_code><arrival_city_name>Singapore</arrival_city_name><planes>388</planes><plane_name>Airbus Industrie A380-800</plane_name></routes><routes><airline_iata>BA</airline_iata><departure_airport_iata>ADL</departure_airport_iata><departure_name_airport>Adelaide International Airport</departure_name_airport><departure_coordinates_lon>138.53735</departure_coordinates_lon><departure_coordinates_lat>-34.938175</departure_coordinates_lat><departure_country_code>AU</departure_country_code><departure_country_name>Australia</departure_country_name><departure_city_code>ADL</departure_city_code><departure_city_name>Adelaide</departure_city_name><arrival_airport_iata>SIN</arrival_airport_iata><arrival_name_airport>Singapore Changi</arrival_name_airport><arrival_coordinates_lon>103.990204</arrival_coordinates_lon><arrival_coordinates_lat>1.361173</arrival_coordinates_lat><arrival_country_code>SG</arrival_country_code><arrival_country_name>Singapore</arrival_country_name><arrival_city_code>SIN</arrival_city_code><arrival_city_name>Singapore</arrival_city_name><planes>332</planes><plane_name>Airbus Industrie A330-200</plane_name></routes><routes><airline_iata>BA</airline_iata><departure_airport_iata>BNE</departure_airport_iata><departure_name_airport>Brisbane International</departure_name_airport><departure_coordinates_lon>153.10905</departure_coordinates_lon><departure_coordinates_lat>-27.40303</departure_coordinates_lat><departure_country_code>AU</departure_country_code><departure_country_name>Australia</departure_country_name><departure_city_code>BNE</departure_city_code><departure_city_name>Brisbane</departure_city_name><arrival_airport_iata>SIN</arrival_airport_iata><arrival_name_airport>Singapore Changi</arrival_name_airport><arrival_coordinates_lon>103.990204</arrival_coordinates_lon><arrival_coordinates_lat>1.361173</arrival_coordinates_lat><arrival_country_code>SG</arrival_country_code><arrival_country_name>Singapore</arrival_country_name><arrival_city_code>SIN</arrival_city_code><arrival_city_name>Singapore</arrival_city_name><planes>744</planes><plane_name>Boeing 747-400</plane_name></routes><routes><airline_iata>BA</airline_iata><departure_airport_iata>FRA</departure_airport_iata><departure_name_airport>Frankfurt International Airport</departure_name_airport><departure_coordinates_lon>8.570773</departure_coordinates_lon><departure_coordinates_lat>50.050735</departure_coordinates_lat><departure_country_code>DE</departure_country_code><departure_country_name>Germany</departure_country_name><departure_city_code>FRA</departure_city_code><departure_city_name>Frankfurt</departure_city_name><arrival_airport_iata>SIN</arrival_airport_iata><arrival_name_airport>Singapore Changi</arrival_name_airport><arrival_coordinates_lon>103.990204</arrival_coordinates_lon><arrival_coordinates_lat>1.361173</arrival_coordinates_lat><arrival_country_code>SG</arrival_country_code><arrival_country_name>Singapore</arrival_country_name><arrival_city_code>SIN</arrival_city_code><arrival_city_name>Singapore</arrival_city_name><planes>744</planes><plane_name>Boeing 747-400</plane_name></routes><routes><airline_iata>BA</airline_iata><departure_airport_iata>LHR</departure_airport_iata><departure_name_airport>Heathrow</departure_name_airport><departure_coordinates_lon>-0.453566</departure_coordinates_lon><departure_coordinates_lat>51.469604</departure_coordinates_lat><departure_country_code>GB</departure_country_code><departure_country_name>United Kingdom</departure_country_name><departure_city_code>LON</departure_city_code><departure_city_name>London</departure_city_name><arrival_airport_iata>SIN</arrival_airport_iata><arrival_name_airport>Singapore Changi</arrival_name_airport><arrival_coordinates_lon>103.990204</arrival_coordinates_lon><arrival_coordinates_lat>1.361173</arrival_coordinates_lat><arrival_country_code>SG</arrival_country_code><arrival_country_name>Singapore</arrival_country_name><arrival_city_code>SIN</arrival_city_code><arrival_city_name>Singapore</arrival_city_name><planes>744</planes><plane_name>Boeing 747-400</plane_name></routes><routes><airline_iata>BA</airline_iata><departure_airport_iata>LHR</departure_airport_iata><departure_name_airport>Heathrow</departure_name_airport><departure_coordinates_lon>-0.453566</departure_coordinates_lon><departure_coordinates_lat>51.469604</departure_coordinates_lat><departure_country_code>GB</departure_country_code><departure_country_name>United Kingdom</departure_country_name><departure_city_code>LON</departure_city_code><departure_city_name>London</departure_city_name><arrival_airport_iata>SIN</arrival_airport_iata><arrival_name_airport>Singapore Changi</arrival_name_airport><arrival_coordinates_lon>103.990204</arrival_coordinates_lon><arrival_coordinates_lat>1.361173</arrival_coordinates_lat><arrival_country_code>SG</arrival_country_code><arrival_country_name>Singapore</arrival_country_name><arrival_city_code>SIN</arrival_city_code><arrival_city_name>Singapore</arrival_city_name><planes>388</planes><plane_name>Airbus Industrie A380-800</plane_name></routes><routes><airline_iata>BA</airline_iata><departure_airport_iata>MEL</departure_airport_iata><departure_name_airport>Tullamarine</departure_name_airport><departure_coordinates_lon>144.84978</departure_coordinates_lon><departure_coordinates_lat>-37.669613</departure_coordinates_lat><departure_country_code>AU</departure_country_code><departure_country_name>Australia</departure_country_name><departure_city_code>MEL</departure_city_code><departure_city_name>Melbourne</departure_city_name><arrival_airport_iata>SIN</arrival_airport_iata><arrival_name_airport>Singapore Changi</arrival_name_airport><arrival_coordinates_lon>103.990204</arrival_coordinates_lon><arrival_coordinates_lat>1.361173</arrival_coordinates_lat><arrival_country_code>SG</arrival_country_code><arrival_country_name>Singapore</arrival_country_name><arrival_city_code>SIN</arrival_city_code><arrival_city_name>Singapore</arrival_city_name><planes>388</planes><plane_name>Airbus Industrie A380-800</plane_name></routes><routes><airline_iata>BA</airline_iata><departure_airport_iata>PER</departure_airport_iata><departure_name_airport>Perth International</departure_name_airport><departure_coordinates_lon>115.960236</departure_coordinates_lon><departure_coordinates_lat>-31.933603</departure_coordinates_lat><departure_country_code>AU</departure_country_code><departure_country_name>Australia</departure_country_name><departure_city_code>PER</departure_city_code><departure_city_name>Perth</departure_city_name><arrival_airport_iata>SIN</arrival_airport_iata><arrival_name_airport>Singapore Changi</arrival_name_airport><arrival_coordinates_lon>103.990204</arrival_coordinates_lon><arrival_coordinates_lat>1.361173</arrival_coordinates_lat><arrival_country_code>SG</arrival_country_code><arrival_country_name>Singapore</arrival_country_name><arrival_city_code>SIN</arrival_city_code><arrival_city_name>Singapore</arrival_city_name><planes>332</planes><plane_name>Airbus Industrie A330-200</plane_name></routes><routes><airline_iata>BA</airline_iata><departure_airport_iata>SYD</departure_airport_iata><departure_name_airport>Kingsford Smith</departure_name_airport><departure_coordinates_lon>151.1799</departure_coordinates_lon><departure_coordinates_lat>-33.932922</departure_coordinates_lat><departure_country_code>AU</departure_country_code><departure_country_name>Australia</departure_country_name><departure_city_code>SYD</departure_city_code><departure_city_name>Sydney</departure_city_name><arrival_airport_iata>SIN</arrival_airport_iata><arrival_name_airport>Singapore Changi</arrival_name_airport><arrival_coordinates_lon>103.990204</arrival_coordinates_lon><arrival_coordinates_lat>1.361173</arrival_coordinates_lat><arrival_country_code>SG</arrival_country_code><arrival_country_name>Singapore</arrival_country_name><arrival_city_code>SIN</arrival_city_code><arrival_city_name>Singapore</arrival_city_name><planes>744</planes><plane_name>Boeing 747-400</plane_name></routes><routes><airline_iata>BA</airline_iata><departure_airport_iata>SYD</departure_airport_iata><departure_name_airport>Kingsford Smith</departure_name_airport><departure_coordinates_lon>151.1799</departure_coordinates_lon><departure_coordinates_lat>-33.932922</departure_coordinates_lat><departure_country_code>AU</departure_country_code><departure_country_name>Australia</departure_country_name><departure_city_code>SYD</departure_city_code><departure_city_name>Sydney</departure_city_name><arrival_airport_iata>SIN</arrival_airport_iata><arrival_name_airport>Singapore Changi</arrival_name_airport><arrival_coordinates_lon>103.990204</arrival_coordinates_lon><arrival_coordinates_lat>1.361173</arrival_coordinates_lat><arrival_country_code>SG</arrival_country_code><arrival_country_name>Singapore</arrival_country_name><arrival_city_code>SIN</arrival_city_code><arrival_city_name>Singapore</arrival_city_name><planes>744</planes><plane_name>Boeing 747-400</plane_name></routes><routes><airline_iata>BG</airline_iata><departure_airport_iata>DAC</departure_airport_iata><departure_name_airport>Zia International</departure_name_airport><departure_coordinates_lon>90.405876</departure_coordinates_lon><departure_coordinates_lat>23.848648</departure_coordinates_lat><departure_country_code>BD</departure_country_code><departure_country_name>Bangladesh</departure_country_name><departure_city_code>DAC</departure_city_code><departure_city_name>Dhaka</departure_city_name><arrival_airport_iata>SIN</arrival_airport_iata><arrival_name_airport>Singapore Changi</arrival_name_airport><arrival_coordinates_lon>103.990204</arrival_coordinates_lon><arrival_coordinates_lat>1.361173</arrival_coordinates_lat><arrival_country_code>SG</arrival_country_code><arrival_country_name>Singapore</arrival_country_name><arrival_city_code>SIN</arrival_city_code><arrival_city_name>Singapore</arrival_city_name><planes>738</planes><plane_name>Boeing 737-800</plane_name></routes><routes><airline_iata>BI</airline_iata><departure_airport_iata>BWN</departure_airport_iata><departure_name_airport>Bandar Seri Begwan International Airport</departure_name_airport><departure_coordinates_lon>114.93375</departure_coordinates_lon><departure_coordinates_lat>4.945197</departure_coordinates_lat><departure_country_code>BN</departure_country_code><departure_country_name>Brunei</departure_country_name><departure_city_code>BWN</departure_city_code><departure_city_name>Bandar Seri Begawan</departure_city_name><arrival_airport_iata>SIN</arrival_airport_iata><arrival_name_airport>Singapore Changi</arrival_name_airport><arrival_coordinates_lon>103.990204</arrival_coordinates_lon><arrival_coordinates_lat>1.361173</arrival_coordinates_lat><arrival_country_code>SG</arrival_country_code><arrival_country_name>Singapore</arrival_country_name><arrival_city_code>SIN</arrival_city_code><arrival_city_name>Singapore</arrival_city_name><planes>320</planes><plane_name>Airbus Industrie A320</plane_name></routes><routes><airline_iata>BR</airline_iata><departure_airport_iata>TPE</departure_airport_iata><departure_name_airport>Taiwan Taoyuan International (Chiang Kai Shek International)</departure_name_airport><departure_coordinates_lon>121.22389</departure_coordinates_lon><departure_coordinates_lat>25.07639</departure_coordinates_lat><departure_country_code>TW</departure_country_code><departure_country_name>Taiwan</departure_country_name><departure_city_code>TPE</departure_city_code><departure_city_name>Taipei</departure_city_name><arrival_airport_iata>SIN</arrival_airport_iata><arrival_name_airport>Singapore Changi</arrival_name_airport><arrival_coordinates_lon>103.990204</arrival_coordinates_lon><arrival_coordinates_lat>1.361173</arrival_coordinates_lat><arrival_country_code>SG</arrival_country_code><arrival_country_name>Singapore</arrival_country_name><arrival_city_code>SIN</arrival_city_code><arrival_city_name>Singapore</arrival_city_name><planes>332</planes><plane_name>Airbus Industrie A330-200</plane_name></routes><routes><airline_iata>CA</airline_iata><departure_airport_iata>CTU</departure_airport_iata><departure_name_airport>Shuangliu</departure_name_airport><departure_coordinates_lon>103.9568</departure_coordinates_lon><departure_coordinates_lat>30.581135</departure_coordinates_lat><departure_country_code>CN</departure_country_code><departure_country_name>China</departure_country_name><departure_city_code>CTU</departure_city_code><departure_city_name>Chengdu</departure_city_name><arrival_airport_iata>SIN</arrival_airport_iata><arrival_name_airport>Singapore Changi</arrival_name_airport><arrival_coordinates_lon>103.990204</arrival_coordinates_lon><arrival_coordinates_lat>1.361173</arrival_coordinates_lat><arrival_country_code>SG</arrival_country_code><arrival_country_name>Singapore</arrival_country_name><arrival_city_code>SIN</arrival_city_code><arrival_city_name>Singapore</arrival_city_name><planes>319</planes><plane_name>Airbus Industrie A319</plane_name></routes><routes><airline_iata>CA</airline_iata><departure_airport_iata>PEK</departure_airport_iata><departure_name_airport>Beijing Capital International</departure_name_airport><departure_coordinates_lon>116.5871</departure_coordinates_lon><departure_coordinates_lat>40.078537</departure_coordinates_lat><departure_country_code>CN</departure_country_code><departure_country_name>China</departure_country_name><departure_city_code>BJS</departure_city_code><departure_city_name>Beijing</departure_city_name><arrival_airport_iata>SIN</arrival_airport_iata><arrival_name_airport>Singapore Changi</arrival_name_airport><arrival_coordinates_lon>103.990204</arrival_coordinates_lon><arrival_coordinates_lat>1.361173</arrival_coordinates_lat><arrival_country_code>SG</arrival_country_code><arrival_country_name>Singapore</arrival_country_name><arrival_city_code>SIN</arrival_city_code><arrival_city_name>Singapore</arrival_city_name><planes>333</planes><plane_name>Airbus Industrie A330-300</plane_name></routes><routes><airline_iata>CI</airline_iata><departure_airport_iata>KHH</departure_airport_iata><departure_name_airport>Kaoshiung International Airport</departure_name_airport><departure_coordinates_lon>120.345276</departure_coordinates_lon><departure_coordinates_lat>22.5725</departure_coordinates_lat><departure_country_code>TW</departure_country_code><departure_country_name>Taiwan</departure_country_name><departure_city_code>KHH</departure_city_code><departure_city_name>Kaohsiung</departure_city_name><arrival_airport_iata>SIN</arrival_airport_iata><arrival_name_airport>Singapore Changi</arrival_name_airport><arrival_coordinates_lon>103.990204</arrival_coordinates_lon><arrival_coordinates_lat>1.361173</arrival_coordinates_lat><arrival_country_code>SG</arrival_country_code><arrival_country_name>Singapore</arrival_country_name><arrival_city_code>SIN</arrival_city_code><arrival_city_name>Singapore</arrival_city_name><planes>738</planes><plane_name>Boeing 737-800</plane_name></routes><routes><airline_iata>CI</airline_iata><departure_airport_iata>SUB</departure_airport_iata><departure_name_airport>Juanda</departure_name_airport><departure_coordinates_lon>112.77724</departure_coordinates_lon><departure_coordinates_lat>-7.38387</departure_coordinates_lat><departure_country_code>ID</departure_country_code><departure_country_name>Indonesia</departure_country_name><departure_city_code>SUB</departure_city_code><departure_city_name>Surabaya</departure_city_name><arrival_airport_iata>SIN</arrival_airport_iata><arrival_name_airport>Singapore Changi</arrival_name_airport><arrival_coordinates_lon>103.990204</arrival_coordinates_lon><arrival_coordinates_lat>1.361173</arrival_coordinates_lat><arrival_country_code>SG</arrival_country_code><arrival_country_name>Singapore</arrival_country_name><arrival_city_code>SIN</arrival_city_code><arrival_city_name>Singapore</arrival_city_name><planes>333</planes><plane_name>Airbus Industrie A330-300</plane_name></routes><routes><airline_iata>CI</airline_iata><departure_airport_iata>TPE</departure_airport_iata><departure_name_airport>Taiwan Taoyuan International (Chiang Kai Shek International)</departure_name_airport><departure_coordinates_lon>121.22389</departure_coordinates_lon><departure_coordinates_lat>25.07639</departure_coordinates_lat><departure_country_code>TW</departure_country_code><departure_country_name>Taiwan</departure_country_name><departure_city_code>TPE</departure_city_code><departure_city_name>Taipei</departure_city_name><arrival_airport_iata>SIN</arrival_airport_iata><arrival_name_airport>Singapore Changi</arrival_name_airport><arrival_coordinates_lon>103.990204</arrival_coordinates_lon><arrival_coordinates_lat>1.361173</arrival_coordinates_lat><arrival_country_code>SG</arrival_country_code><arrival_country_name>Singapore</arrival_country_name><arrival_city_code>SIN</arrival_city_code><arrival_city_name>Singapore</arrival_city_name><planes>343</planes><plane_name>Airbus Industrie A340-300</plane_name></routes><routes><airline_iata>CX</airline_iata><departure_airport_iata>BKK</departure_airport_iata><departure_name_airport>Suvarnabhumi International</departure_name_airport><departure_coordinates_lon>100.752045</departure_coordinates_lon><departure_coordinates_lat>13.693062</departure_coordinates_lat><departure_country_code>TH</departure_country_code><departure_country_name>Thailand</departure_country_name><departure_city_code>BKK</departure_city_code><departure_city_name>Bangkok</departure_city_name><arrival_airport_iata>SIN</arrival_airport_iata><arrival_name_airport>Singapore Changi</arrival_name_airport><arrival_coordinates_lon>103.990204</arrival_coordinates_lon><arrival_coordinates_lat>1.361173</arrival_coordinates_lat><arrival_country_code>SG</arrival_country_code><arrival_country_name>Singapore</arrival_country_name><arrival_city_code>SIN</arrival_city_code><arrival_city_name>Singapore</arrival_city_name><planes>773</planes><plane_name>Boeing 777-300</plane_name></routes><routes><airline_iata>CX</airline_iata><departure_airport_iata>CMB</departure_airport_iata><departure_name_airport>Bandaranaike International</departure_name_airport><departure_coordinates_lon>79.8865</departure_coordinates_lon><departure_coordinates_lat>7.174112</departure_coordinates_lat><departure_country_code>LK</departure_country_code><departure_country_name>Sri Lanka</departure_country_name><departure_city_code>CMB</departure_city_code><departure_city_name>Colombo</departure_city_name><arrival_airport_iata>SIN</arrival_airport_iata><arrival_name_airport>Singapore Changi</arrival_name_airport><arrival_coordinates_lon>103.990204</arrival_coordinates_lon><arrival_coordinates_lat>1.361173</arrival_coordinates_lat><arrival_country_code>SG</arrival_country_code><arrival_country_name>Singapore</arrival_country_name><arrival_city_code>SIN</arrival_city_code><arrival_city_name>Singapore</arrival_city_name><planes>773</planes><plane_name>Boeing 777-300</plane_name></routes><routes><airline_iata>CX</airline_iata><departure_airport_iata>HKG</departure_airport_iata><departure_name_airport>Hong Kong International</departure_name_airport><departure_coordinates_lon>113.93649</departure_coordinates_lon><departure_coordinates_lat>22.315248</departure_coordinates_lat><departure_country_code>HK</departure_country_code><departure_country_name>Hong Kong</departure_country_name><departure_city_code>HKG</departure_city_code><departure_city_name>Hong Kong</departure_city_name><arrival_airport_iata>SIN</arrival_airport_iata><arrival_name_airport>Singapore Changi</arrival_name_airport><arrival_coordinates_lon>103.990204</arrival_coordinates_lon><arrival_coordinates_lat>1.361173</arrival_coordinates_lat><arrival_country_code>SG</arrival_country_code><arrival_country_name>Singapore</arrival_country_name><arrival_city_code>SIN</arrival_city_code><arrival_city_name>Singapore</arrival_city_name><planes>77W</planes><plane_name>Boeing 777-300ER</plane_name></routes><routes><airline_iata>CZ</airline_iata><departure_airport_iata>CAN</departure_airport_iata><departure_name_airport>Guangzhou Baiyun International</departure_name_airport><departure_coordinates_lon>113.29734</departure_coordinates_lon><departure_coordinates_lat>23.387861</departure_coordinates_lat><departure_country_code>CN</departure_country_code><departure_country_name>China</departure_country_name><departure_city_code>CAN</departure_city_code><departure_city_name>Guangzhou</departure_city_name><arrival_airport_iata>SIN</arrival_airport_iata><arrival_name_airport>Singapore Changi</arrival_name_airport><arrival_coordinates_lon>103.990204</arrival_coordinates_lon><arrival_coordinates_lat>1.361173</arrival_coordinates_lat><arrival_country_code>SG</arrival_country_code><arrival_country_name>Singapore</arrival_country_name><arrival_city_code>SIN</arrival_city_code><arrival_city_name>Singapore</arrival_city_name><planes>320</planes><plane_name>Airbus Industrie A320</plane_name></routes><routes><airline_iata>CZ</airline_iata><departure_airport_iata>FOC</departure_airport_iata><departure_name_airport>Fuzhou</departure_name_airport><departure_coordinates_lon>119.66923</departure_coordinates_lon><departure_coordinates_lat>25.93123</departure_coordinates_lat><departure_country_code>CN</departure_country_code><departure_country_name>China</departure_country_name><departure_city_code>FOC</departure_city_code><departure_city_name>Fuzhou</departure_city_name><arrival_airport_iata>SIN</arrival_airport_iata><arrival_name_airport>Singapore Changi</arrival_name_airport><arrival_coordinates_lon>103.990204</arrival_coordinates_lon><arrival_coordinates_lat>1.361173</arrival_coordinates_lat><arrival_country_code>SG</arrival_country_code><arrival_country_name>Singapore</arrival_country_name><arrival_city_code>SIN</arrival_city_code><arrival_city_name>Singapore</arrival_city_name><planes>738</planes><plane_name>Boeing 737-800</plane_name></routes><routes><airline_iata>CZ</airline_iata><departure_airport_iata>XMN</departure_airport_iata><departure_name_airport>Xiamen</departure_name_airport><departure_coordinates_lon>118.1275</departure_coordinates_lon><departure_coordinates_lat>24.536882</departure_coordinates_lat><departure_country_code>CN</departure_country_code><departure_country_name>China</departure_country_name><departure_city_code>XMN</departure_city_code><departure_city_name>Xiamen</departure_city_name><arrival_airport_iata>SIN</arrival_airport_iata><arrival_name_airport>Singapore Changi</arrival_name_airport><arrival_coordinates_lon>103.990204</arrival_coordinates_lon><arrival_coordinates_lat>1.361173</arrival_coordinates_lat><arrival_country_code>SG</arrival_country_code><arrival_country_name>Singapore</arrival_country_name><arrival_city_code>SIN</arrival_city_code><arrival_city_name>Singapore</arrival_city_name><planes>738</planes><plane_name>Boeing 737-800</plane_name></routes><routes><airline_iata>DG</airline_iata><departure_airport_iata>CRK</departure_airport_iata><departure_name_airport>Diosdado Macapagal International (Clark International)</departure_name_airport><departure_coordinates_lon>120.546486</departure_coordinates_lon><departure_coordinates_lat>15.182571</departure_coordinates_lat><departure_country_code>PH</departure_country_code><departure_country_name>Philippines</departure_country_name><departure_city_code>NCP</departure_city_code><departure_city_name>Luzon Island</departure_city_name><arrival_airport_iata>SIN</arrival_airport_iata><arrival_name_airport>Singapore Changi</arrival_name_airport><arrival_coordinates_lon>103.990204</arrival_coordinates_lon><arrival_coordinates_lat>1.361173</arrival_coordinates_lat><arrival_country_code>SG</arrival_country_code><arrival_country_name>Singapore</arrival_country_name><arrival_city_code>SIN</arrival_city_code><arrival_city_name>Singapore</arrival_city_name><planes>320</planes><plane_name>Airbus Industrie A320</plane_name></routes><routes><airline_iata>DL</airline_iata><departure_airport_iata>NRT</departure_airport_iata><departure_name_airport>Narita International Airport</departure_name_airport><departure_coordinates_lon>140.38744</departure_coordinates_lon><departure_coordinates_lat>35.773212</departure_coordinates_lat><departure_country_code>JP</departure_country_code><departure_country_name>Japan</departure_country_name><departure_city_code>TYO</departure_city_code><departure_city_name>Tokyo</departure_city_name><arrival_airport_iata>SIN</arrival_airport_iata><arrival_name_airport>Singapore Changi</arrival_name_airport><arrival_coordinates_lon>103.990204</arrival_coordinates_lon><arrival_coordinates_lat>1.361173</arrival_coordinates_lat><arrival_country_code>SG</arrival_country_code><arrival_country_name>Singapore</arrival_country_name><arrival_city_code>SIN</arrival_city_code><arrival_city_name>Singapore</arrival_city_name><planes>77L</planes><plane_name>Boeing 777-200LR</plane_name></routes><routes><airline_iata>EK</airline_iata><departure_airport_iata>BNE</departure_airport_iata><departure_name_airport>Brisbane International</departure_name_airport><departure_coordinates_lon>153.10905</departure_coordinates_lon><departure_coordinates_lat>-27.40303</departure_coordinates_lat><departure_country_code>AU</departure_country_code><departure_country_name>Australia</departure_country_name><departure_city_code>BNE</departure_city_code><departure_city_name>Brisbane</departure_city_name><arrival_airport_iata>SIN</arrival_airport_iata><arrival_name_airport>Singapore Changi</arrival_name_airport><arrival_coordinates_lon>103.990204</arrival_coordinates_lon><arrival_coordinates_lat>1.361173</arrival_coordinates_lat><arrival_country_code>SG</arrival_country_code><arrival_country_name>Singapore</arrival_country_name><arrival_city_code>SIN</arrival_city_code><arrival_city_name>Singapore</arrival_city_name><planes>77W</planes><plane_name>Boeing 777-300ER</plane_name></routes><routes><airline_iata>EK</airline_iata><departure_airport_iata>CMB</departure_airport_iata><departure_name_airport>Bandaranaike International</departure_name_airport><departure_coordinates_lon>79.8865</departure_coordinates_lon><departure_coordinates_lat>7.174112</departure_coordinates_lat><departure_country_code>LK</departure_country_code><departure_country_name>Sri Lanka</departure_country_name><departure_city_code>CMB</departure_city_code><departure_city_name>Colombo</departure_city_name><arrival_airport_iata>SIN</arrival_airport_iata><arrival_name_airport>Singapore Changi</arrival_name_airport><arrival_coordinates_lon>103.990204</arrival_coordinates_lon><arrival_coordinates_lat>1.361173</arrival_coordinates_lat><arrival_country_code>SG</arrival_country_code><arrival_country_name>Singapore</arrival_country_name><arrival_city_code>SIN</arrival_city_code><arrival_city_name>Singapore</arrival_city_name><planes>773</planes><plane_name>Boeing 777-300</plane_name></routes><routes><airline_iata>EK</airline_iata><departure_airport_iata>DXB</departure_airport_iata><departure_name_airport>Dubai</departure_name_airport><departure_coordinates_lon>55.352917</departure_coordinates_lon><departure_coordinates_lat>25.248665</departure_coordinates_lat><departure_country_code>AE</departure_country_code><departure_country_name>United Arab Emirates</departure_country_name><departure_city_code>DXB</departure_city_code><departure_city_name>Dubai</departure_city_name><arrival_airport_iata>SIN</arrival_airport_iata><arrival_name_airport>Singapore Changi</arrival_name_airport><arrival_coordinates_lon>103.990204</arrival_coordinates_lon><arrival_coordinates_lat>1.361173</arrival_coordinates_lat><arrival_country_code>SG</arrival_country_code><arrival_country_name>Singapore</arrival_country_name><arrival_city_code>SIN</arrival_city_code><arrival_city_name>Singapore</arrival_city_name><planes>77W</planes><plane_name>Boeing 777-300ER</plane_name></routes><routes><airline_iata>EK</airline_iata><departure_airport_iata>MEL</departure_airport_iata><departure_name_airport>Tullamarine</departure_name_airport><departure_coordinates_lon>144.84978</departure_coordinates_lon><departure_coordinates_lat>-37.669613</departure_coordinates_lat><departure_country_code>AU</departure_country_code><departure_country_name>Australia</departure_country_name><departure_city_code>MEL</departure_city_code><departure_city_name>Melbourne</departure_city_name><arrival_airport_iata>SIN</arrival_airport_iata><arrival_name_airport>Singapore Changi</arrival_name_airport><arrival_coordinates_lon>103.990204</arrival_coordinates_lon><arrival_coordinates_lat>1.361173</arrival_coordinates_lat><arrival_country_code>SG</arrival_country_code><arrival_country_name>Singapore</arrival_country_name><arrival_city_code>SIN</arrival_city_code><arrival_city_name>Singapore</arrival_city_name><planes>77W</planes><plane_name>Boeing 777-300ER</plane_name></routes><routes><airline_iata>EY</airline_iata><departure_airport_iata>AUH</departure_airport_iata><departure_name_airport>Abu Dhabi International</departure_name_airport><departure_coordinates_lon>54.645973</departure_coordinates_lon><departure_coordinates_lat>24.426912</departure_coordinates_lat><departure_country_code>AE</departure_country_code><departure_country_name>United Arab Emirates</departure_country_name><departure_city_code>AUH</departure_city_code><departure_city_name>Abu Dhabi</departure_city_name><arrival_airport_iata>SIN</arrival_airport_iata><arrival_name_airport>Singapore Changi</arrival_name_airport><arrival_coordinates_lon>103.990204</arrival_coordinates_lon><arrival_coordinates_lat>1.361173</arrival_coordinates_lat><arrival_country_code>SG</arrival_country_code><arrival_country_name>Singapore</arrival_country_name><arrival_city_code>SIN</arrival_city_code><arrival_city_name>Singapore</arrival_city_name><planes>332</planes><plane_name>Airbus Industrie A330-200</plane_name></routes><routes><airline_iata>EY</airline_iata><departure_airport_iata>BNE</departure_airport_iata><departure_name_airport>Brisbane International</departure_name_airport><departure_coordinates_lon>153.10905</departure_coordinates_lon><departure_coordinates_lat>-27.40303</departure_coordinates_lat><departure_country_code>AU</departure_country_code><departure_country_name>Australia</departure_country_name><departure_city_code>BNE</departure_city_code><departure_city_name>Brisbane</departure_city_name><arrival_airport_iata>SIN</arrival_airport_iata><arrival_name_airport>Singapore Changi</arrival_name_airport><arrival_coordinates_lon>103.990204</arrival_coordinates_lon><arrival_coordinates_lat>1.361173</arrival_coordinates_lat><arrival_country_code>SG</arrival_country_code><arrival_country_name>Singapore</arrival_country_name><arrival_city_code>SIN</arrival_city_code><arrival_city_name>Singapore</arrival_city_name><planes>332</planes><plane_name>Airbus Industrie A330-200</plane_name></routes><routes><airline_iata>EY</airline_iata><departure_airport_iata>USM</departure_airport_iata><departure_name_airport>Koh Samui</departure_name_airport><departure_coordinates_lon>100.0628</departure_coordinates_lon><departure_coordinates_lat>9.555315</departure_coordinates_lat><departure_country_code>TH</departure_country_code><departure_country_name>Thailand</departure_country_name><departure_city_code>USM</departure_city_code><departure_city_name>Koh Samui</departure_city_name><arrival_airport_iata>SIN</arrival_airport_iata><arrival_name_airport>Singapore Changi</arrival_name_airport><arrival_coordinates_lon>103.990204</arrival_coordinates_lon><arrival_coordinates_lat>1.361173</arrival_coordinates_lat><arrival_country_code>SG</arrival_country_code><arrival_country_name>Singapore</arrival_country_name><arrival_city_code>SIN</arrival_city_code><arrival_city_name>Singapore</arrival_city_name><planes>319</planes><plane_name>Airbus Industrie A319</plane_name></routes><routes><airline_iata>FD</airline_iata><departure_airport_iata>DMK</departure_airport_iata><departure_name_airport>Don Muang</departure_name_airport><departure_coordinates_lon>100.60667</departure_coordinates_lon><departure_coordinates_lat>13.9125</departure_coordinates_lat><departure_country_code>TH</departure_country_code><departure_country_name>Thailand</departure_country_name><departure_city_code>BKK</departure_city_code><departure_city_name>Bangkok</departure_city_name><arrival_airport_iata>SIN</arrival_airport_iata><arrival_name_airport>Singapore Changi</arrival_name_airport><arrival_coordinates_lon>103.990204</arrival_coordinates_lon><arrival_coordinates_lat>1.361173</arrival_coordinates_lat><arrival_country_code>SG</arrival_country_code><arrival_country_name>Singapore</arrival_country_name><arrival_city_code>SIN</arrival_city_code><arrival_city_name>Singapore</arrival_city_name><planes>320</planes><plane_name>Airbus Industrie A320</plane_name></routes><routes><airline_iata>FD</airline_iata><departure_airport_iata>HKT</departure_airport_iata><departure_name_airport>Phuket International</departure_name_airport><departure_coordinates_lon>98.306435</departure_coordinates_lon><departure_coordinates_lat>8.107619</departure_coordinates_lat><departure_country_code>TH</departure_country_code><departure_country_name>Thailand</departure_country_name><departure_city_code>HKT</departure_city_code><departure_city_name>Phuket</departure_city_name><arrival_airport_iata>SIN</arrival_airport_iata><arrival_name_airport>Singapore Changi</arrival_name_airport><arrival_coordinates_lon>103.990204</arrival_coordinates_lon><arrival_coordinates_lat>1.361173</arrival_coordinates_lat><arrival_country_code>SG</arrival_country_code><arrival_country_name>Singapore</arrival_country_name><arrival_city_code>SIN</arrival_city_code><arrival_city_name>Singapore</arrival_city_name><planes>320</planes><plane_name>Airbus Industrie A320</plane_name></routes><routes><airline_iata>FY</airline_iata><departure_airport_iata>IPH</departure_airport_iata><departure_name_airport>Sultan Azlan Shah Airport</departure_name_airport><departure_coordinates_lon>101.09583</departure_coordinates_lon><departure_coordinates_lat>4.566944</departure_coordinates_lat><departure_country_code>MY</departure_country_code><departure_country_name>Malaysia</departure_country_name><departure_city_code>IPH</departure_city_code><departure_city_name>Ipoh</departure_city_name><arrival_airport_iata>SIN</arrival_airport_iata><arrival_name_airport>Singapore Changi</arrival_name_airport><arrival_coordinates_lon>103.990204</arrival_coordinates_lon><arrival_coordinates_lat>1.361173</arrival_coordinates_lat><arrival_country_code>SG</arrival_country_code><arrival_country_name>Singapore</arrival_country_name><arrival_city_code>SIN</arrival_city_code><arrival_city_name>Singapore</arrival_city_name><planes>AT7</planes><plane_name>Aerospatiale/Alenia ATR 72</plane_name></routes><routes><airline_iata>FY</airline_iata><departure_airport_iata>KBR</departure_airport_iata><departure_name_airport>Sultan Ismail Petra</departure_name_airport><departure_coordinates_lon>102.29092</departure_coordinates_lon><departure_coordinates_lat>6.17057</departure_coordinates_lat><departure_country_code>MY</departure_country_code><departure_country_name>Malaysia</departure_country_name><departure_city_code>KBR</departure_city_code><departure_city_name>Kota Bharu</departure_city_name><arrival_airport_iata>SIN</arrival_airport_iata><arrival_name_airport>Singapore Changi</arrival_name_airport><arrival_coordinates_lon>103.990204</arrival_coordinates_lon><arrival_coordinates_lat>1.361173</arrival_coordinates_lat><arrival_country_code>SG</arrival_country_code><arrival_country_name>Singapore</arrival_country_name><arrival_city_code>SIN</arrival_city_code><arrival_city_name>Singapore</arrival_city_name><planes>AT7</planes><plane_name>Aerospatiale/Alenia ATR 72</plane_name></routes><routes><airline_iata>FY</airline_iata><departure_airport_iata>KUA</departure_airport_iata><departure_name_airport>Kuantan</departure_name_airport><departure_coordinates_lon>103.21518</departure_coordinates_lon><departure_coordinates_lat>3.780765</departure_coordinates_lat><departure_country_code>MY</departure_country_code><departure_country_name>Malaysia</departure_country_name><departure_city_code>KUA</departure_city_code><departure_city_name>Kuantan</departure_city_name><arrival_airport_iata>SIN</arrival_airport_iata><arrival_name_airport>Singapore Changi</arrival_name_airport><arrival_coordinates_lon>103.990204</arrival_coordinates_lon><arrival_coordinates_lat>1.361173</arrival_coordinates_lat><arrival_country_code>SG</arrival_country_code><arrival_country_name>Singapore</arrival_country_name><arrival_city_code>SIN</arrival_city_code><arrival_city_name>Singapore</arrival_city_name><planes>AT7</planes><plane_name>Aerospatiale/Alenia ATR 72</plane_name></routes><routes><airline_iata>FY</airline_iata><departure_airport_iata>SZB</departure_airport_iata><departure_name_airport>Sultan Abdul Aziz Shah</departure_name_airport><departure_coordinates_lon>101.558075</departure_coordinates_lon><departure_coordinates_lat>3.130644</departure_coordinates_lat><departure_country_code>MY</departure_country_code><departure_country_name>Malaysia</departure_country_name><departure_city_code>KUL</departure_city_code><departure_city_name>Kuala Lumpur</departure_city_name><arrival_airport_iata>SIN</arrival_airport_iata><arrival_name_airport>Singapore Changi</arrival_name_airport><arrival_coordinates_lon>103.990204</arrival_coordinates_lon><arrival_coordinates_lat>1.361173</arrival_coordinates_lat><arrival_country_code>SG</arrival_country_code><arrival_country_name>Singapore</arrival_country_name><arrival_city_code>SIN</arrival_city_code><arrival_city_name>Singapore</arrival_city_name><planes>AT7</planes><plane_name>Aerospatiale/Alenia ATR 72</plane_name></routes><routes><airline_iata>GA</airline_iata><departure_airport_iata>BDO</departure_airport_iata><departure_name_airport>Husein Sastranegara</departure_name_airport><departure_coordinates_lon>107.58178</departure_coordinates_lon><departure_coordinates_lat>-6.904648</departure_coordinates_lat><departure_country_code>ID</departure_country_code><departure_country_name>Indonesia</departure_country_name><departure_city_code>BDO</departure_city_code><departure_city_name>Bandung</departure_city_name><arrival_airport_iata>SIN</arrival_airport_iata><arrival_name_airport>Singapore Changi</arrival_name_airport><arrival_coordinates_lon>103.990204</arrival_coordinates_lon><arrival_coordinates_lat>1.361173</arrival_coordinates_lat><arrival_country_code>SG</arrival_country_code><arrival_country_name>Singapore</arrival_country_name><arrival_city_code>SIN</arrival_city_code><arrival_city_name>Singapore</arrival_city_name><planes>319</planes><plane_name>Airbus Industrie A319</plane_name></routes><routes><airline_iata>GA</airline_iata><departure_airport_iata>BPN</departure_airport_iata><departure_name_airport>Sepingan</departure_name_airport><departure_coordinates_lon>116.90082</departure_coordinates_lon><departure_coordinates_lat>-1.260623</departure_coordinates_lat><departure_country_code>ID</departure_country_code><departure_country_name>Indonesia</departure_country_name><departure_city_code>BPN</departure_city_code><departure_city_name>Balikpapan</departure_city_name><arrival_airport_iata>SIN</arrival_airport_iata><arrival_name_airport>Singapore Changi</arrival_name_airport><arrival_coordinates_lon>103.990204</arrival_coordinates_lon><arrival_coordinates_lat>1.361173</arrival_coordinates_lat><arrival_country_code>SG</arrival_country_code><arrival_country_name>Singapore</arrival_country_name><arrival_city_code>SIN</arrival_city_code><arrival_city_name>Singapore</arrival_city_name><planes>735</planes><plane_name>Boeing 737-500</plane_name></routes><routes><airline_iata>GA</airline_iata><departure_airport_iata>BPN</departure_airport_iata><departure_name_airport>Sepingan</departure_name_airport><departure_coordinates_lon>116.90082</departure_coordinates_lon><departure_coordinates_lat>-1.260623</departure_coordinates_lat><departure_country_code>ID</departure_country_code><departure_country_name>Indonesia</departure_country_name><departure_city_code>BPN</departure_city_code><departure_city_name>Balikpapan</departure_city_name><arrival_airport_iata>SIN</arrival_airport_iata><arrival_name_airport>Singapore Changi</arrival_name_airport><arrival_coordinates_lon>103.990204</arrival_coordinates_lon><arrival_coordinates_lat>1.361173</arrival_coordinates_lat><arrival_country_code>SG</arrival_country_code><arrival_country_name>Singapore</arrival_country_name><arrival_city_code>SIN</arrival_city_code><arrival_city_name>Singapore</arrival_city_name><planes>319</planes><plane_name>Airbus Industrie A319</plane_name></routes><routes><airline_iata>GA</airline_iata><departure_airport_iata>CGK</departure_airport_iata><departure_name_airport>Soekarno-Hatta International</departure_name_airport><departure_coordinates_lon>106.655525</departure_coordinates_lon><departure_coordinates_lat>-6.130643</departure_coordinates_lat><departure_country_code>ID</departure_country_code><departure_country_name>Indonesia</departure_country_name><departure_city_code>JKT</departure_city_code><departure_city_name>Jakarta</departure_city_name><arrival_airport_iata>SIN</arrival_airport_iata><arrival_name_airport>Singapore Changi</arrival_name_airport><arrival_coordinates_lon>103.990204</arrival_coordinates_lon><arrival_coordinates_lat>1.361173</arrival_coordinates_lat><arrival_country_code>SG</arrival_country_code><arrival_country_name>Singapore</arrival_country_name><arrival_city_code>SIN</arrival_city_code><arrival_city_name>Singapore</arrival_city_name><planes>738</planes><plane_name>Boeing 737-800</plane_name></routes><routes><airline_iata>GA</airline_iata><departure_airport_iata>CGK</departure_airport_iata><departure_name_airport>Soekarno-Hatta International</departure_name_airport><departure_coordinates_lon>106.655525</departure_coordinates_lon><departure_coordinates_lat>-6.130643</departure_coordinates_lat><departure_country_code>ID</departure_country_code><departure_country_name>Indonesia</departure_country_name><departure_city_code>JKT</departure_city_code><departure_city_name>Jakarta</departure_city_name><arrival_airport_iata>SIN</arrival_airport_iata><arrival_name_airport>Singapore Changi</arrival_name_airport><arrival_coordinates_lon>103.990204</arrival_coordinates_lon><arrival_coordinates_lat>1.361173</arrival_coordinates_lat><arrival_country_code>SG</arrival_country_code><arrival_country_name>Singapore</arrival_country_name><arrival_city_code>SIN</arrival_city_code><arrival_city_name>Singapore</arrival_city_name><planes>320</planes><plane_name>Airbus Industrie A320</plane_name></routes><routes><airline_iata>GA</airline_iata><departure_airport_iata>DPS</departure_airport_iata><departure_name_airport>Ngurah Rai International</departure_name_airport><departure_coordinates_lon>115.16331</departure_coordinates_lon><departure_coordinates_lat>-8.74446</departure_coordinates_lat><departure_country_code>ID</departure_country_code><departure_country_name>Indonesia</departure_country_name><departure_city_code>DPS</departure_city_code><departure_city_name>Denpasar</departure_city_name><arrival_airport_iata>SIN</arrival_airport_iata><arrival_name_airport>Singapore Changi</arrival_name_airport><arrival_coordinates_lon>103.990204</arrival_coordinates_lon><arrival_coordinates_lat>1.361173</arrival_coordinates_lat><arrival_country_code>SG</arrival_country_code><arrival_country_name>Singapore</arrival_country_name><arrival_city_code>SIN</arrival_city_code><arrival_city_name>Singapore</arrival_city_name><planes>738</planes><plane_name>Boeing 737-800</plane_name></routes><routes><airline_iata>GA</airline_iata><departure_airport_iata>DPS</departure_airport_iata><departure_name_airport>Ngurah Rai International</departure_name_airport><departure_coordinates_lon>115.16331</departure_coordinates_lon><departure_coordinates_lat>-8.74446</departure_coordinates_lat><departure_country_code>ID</departure_country_code><departure_country_name>Indonesia</departure_country_name><departure_city_code>DPS</departure_city_code><departure_city_name>Denpasar</departure_city_name><arrival_airport_iata>SIN</arrival_airport_iata><arrival_name_airport>Singapore Changi</arrival_name_airport><arrival_coordinates_lon>103.990204</arrival_coordinates_lon><arrival_coordinates_lat>1.361173</arrival_coordinates_lat><arrival_country_code>SG</arrival_country_code><arrival_country_name>Singapore</arrival_country_name><arrival_city_code>SIN</arrival_city_code><arrival_city_name>Singapore</arrival_city_name><planes>772</planes><plane_name>Boeing 777-200/200ER</plane_name></routes><routes><airline_iata>GA</airline_iata><departure_airport_iata>IST</departure_airport_iata><departure_name_airport>Ataturk</departure_name_airport><departure_coordinates_lon>28.815277</departure_coordinates_lon><departure_coordinates_lat>40.976665</departure_coordinates_lat><departure_country_code>TR</departure_country_code><departure_country_name>Turkey</departure_country_name><departure_city_code>IST</departure_city_code><departure_city_name>Istanbul</departure_city_name><arrival_airport_iata>SIN</arrival_airport_iata><arrival_name_airport>Singapore Changi</arrival_name_airport><arrival_coordinates_lon>103.990204</arrival_coordinates_lon><arrival_coordinates_lat>1.361173</arrival_coordinates_lat><arrival_country_code>SG</arrival_country_code><arrival_country_name>Singapore</arrival_country_name><arrival_city_code>SIN</arrival_city_code><arrival_city_name>Singapore</arrival_city_name><planes>333</planes><plane_name>Airbus Industrie A330-300</plane_name></routes><routes><airline_iata>GA</airline_iata><departure_airport_iata>LOP</departure_airport_iata><departure_name_airport>Lombok International</departure_name_airport><departure_coordinates_lon>116.27667</departure_coordinates_lon><departure_coordinates_lat>-8.757322</departure_coordinates_lat><departure_country_code>ID</departure_country_code><departure_country_name>Indonesia</departure_country_name><departure_city_code>LOP</departure_city_code><departure_city_name>Praya</departure_city_name><arrival_airport_iata>SIN</arrival_airport_iata><arrival_name_airport>Singapore Changi</arrival_name_airport><arrival_coordinates_lon>103.990204</arrival_coordinates_lon><arrival_coordinates_lat>1.361173</arrival_coordinates_lat><arrival_country_code>SG</arrival_country_code><arrival_country_name>Singapore</arrival_country_name><arrival_city_code>SIN</arrival_city_code><arrival_city_name>Singapore</arrival_city_name><planes>319</planes><plane_name>Airbus Industrie A319</plane_name></routes><routes><airline_iata>GA</airline_iata><departure_airport_iata>MDC</departure_airport_iata><departure_name_airport>Samratulangi</departure_name_airport><departure_coordinates_lon>124.92203</departure_coordinates_lon><departure_coordinates_lat>1.543533</departure_coordinates_lat><departure_country_code>ID</departure_country_code><departure_country_name>Indonesia</departure_country_name><departure_city_code>MDC</departure_city_code><departure_city_name>Manado</departure_city_name><arrival_airport_iata>SIN</arrival_airport_iata><arrival_name_airport>Singapore Changi</arrival_name_airport><arrival_coordinates_lon>103.990204</arrival_coordinates_lon><arrival_coordinates_lat>1.361173</arrival_coordinates_lat><arrival_country_code>SG</arrival_country_code><arrival_country_name>Singapore</arrival_country_name><arrival_city_code>SIN</arrival_city_code><arrival_city_name>Singapore</arrival_city_name><planes>319</planes><plane_name>Airbus Industrie A319</plane_name></routes><routes><airline_iata>GA</airline_iata><departure_airport_iata>MES</departure_airport_iata><departure_name_airport>Polonia</departure_name_airport><departure_coordinates_lon>98.672775</departure_coordinates_lon><departure_coordinates_lat>3.561111</departure_coordinates_lat><departure_country_code>ID</departure_country_code><departure_country_name>Indonesia</departure_country_name><departure_city_code>MES</departure_city_code><departure_city_name>Medan</departure_city_name><arrival_airport_iata>SIN</arrival_airport_iata><arrival_name_airport>Singapore Changi</arrival_name_airport><arrival_coordinates_lon>103.990204</arrival_coordinates_lon><arrival_coordinates_lat>1.361173</arrival_coordinates_lat><arrival_country_code>SG</arrival_country_code><arrival_country_name>Singapore</arrival_country_name><arrival_city_code>SIN</arrival_city_code><arrival_city_name>Singapore</arrival_city_name><planes>319</planes><plane_name>Airbus Industrie A319</plane_name></routes><routes><airline_iata>GA</airline_iata><departure_airport_iata>MNL</departure_airport_iata><departure_name_airport>Ninoy Aquino International</departure_name_airport><departure_coordinates_lon>121.01251</departure_coordinates_lon><departure_coordinates_lat>14.509602</departure_coordinates_lat><departure_country_code>PH</departure_country_code><departure_country_name>Philippines</departure_country_name><departure_city_code>MNL</departure_city_code><departure_city_name>Manila</departure_city_name><arrival_airport_iata>SIN</arrival_airport_iata><arrival_name_airport>Singapore Changi</arrival_name_airport><arrival_coordinates_lon>103.990204</arrival_coordinates_lon><arrival_coordinates_lat>1.361173</arrival_coordinates_lat><arrival_country_code>SG</arrival_country_code><arrival_country_name>Singapore</arrival_country_name><arrival_city_code>SIN</arrival_city_code><arrival_city_name>Singapore</arrival_city_name><planes>320</planes><plane_name>Airbus Industrie A320</plane_name></routes><routes><airline_iata>GA</airline_iata><departure_airport_iata>PKU</departure_airport_iata><departure_name_airport>Sultan Syarif Kasim Ii</departure_name_airport><departure_coordinates_lon>101.446884</departure_coordinates_lon><departure_coordinates_lat>0.464563</departure_coordinates_lat><departure_country_code>ID</departure_country_code><departure_country_name>Indonesia</departure_country_name><departure_city_code>PKU</departure_city_code><departure_city_name>Pekanbaru</departure_city_name><arrival_airport_iata>SIN</arrival_airport_iata><arrival_name_airport>Singapore Changi</arrival_name_airport><arrival_coordinates_lon>103.990204</arrival_coordinates_lon><arrival_coordinates_lat>1.361173</arrival_coordinates_lat><arrival_country_code>SG</arrival_country_code><arrival_country_name>Singapore</arrival_country_name><arrival_city_code>SIN</arrival_city_code><arrival_city_name>Singapore</arrival_city_name><planes>319</planes><plane_name>Airbus Industrie A319</plane_name></routes><routes><airline_iata>GA</airline_iata><departure_airport_iata>PLM</departure_airport_iata><departure_name_airport>Mahmud Badaruddin Ii</departure_name_airport><departure_coordinates_lon>104.69861</departure_coordinates_lon><departure_coordinates_lat>-2.900146</departure_coordinates_lat><departure_country_code>ID</departure_country_code><departure_country_name>Indonesia</departure_country_name><departure_city_code>PLM</departure_city_code><departure_city_name>Palembang</departure_city_name><arrival_airport_iata>SIN</arrival_airport_iata><arrival_name_airport>Singapore Changi</arrival_name_airport><arrival_coordinates_lon>103.990204</arrival_coordinates_lon><arrival_coordinates_lat>1.361173</arrival_coordinates_lat><arrival_country_code>SG</arrival_country_code><arrival_country_name>Singapore</arrival_country_name><arrival_city_code>SIN</arrival_city_code><arrival_city_name>Singapore</arrival_city_name><planes>319</planes><plane_name>Airbus Industrie A319</plane_name></routes><routes><airline_iata>GA</airline_iata><departure_airport_iata>SGN</departure_airport_iata><departure_name_airport>Tan Son Nhat International</departure_name_airport><departure_coordinates_lon>106.662476</departure_coordinates_lon><departure_coordinates_lat>10.813045</departure_coordinates_lat><departure_country_code>VN</departure_country_code><departure_country_name>Vietnam</departure_country_name><departure_city_code>SGN</departure_city_code><departure_city_name>Ho Chi Minh City</departure_city_name><arrival_airport_iata>SIN</arrival_airport_iata><arrival_name_airport>Singapore Changi</arrival_name_airport><arrival_coordinates_lon>103.990204</arrival_coordinates_lon><arrival_coordinates_lat>1.361173</arrival_coordinates_lat><arrival_country_code>SG</arrival_country_code><arrival_country_name>Singapore</arrival_country_name><arrival_city_code>SIN</arrival_city_code><arrival_city_name>Singapore</arrival_city_name><plane