<?xml version="1.0" encoding="utf-8"?>
<route><routes><airline_iata>DY</airline_iata><departure_airport_iata>CPH</departure_airport_iata><departure_name_airport>Kastrup</departure_name_airport><departure_coordinates_lon>12.647601</departure_coordinates_lon><departure_coordinates_lat>55.62905</departure_coordinates_lat><departure_country_code>DK</departure_country_code><departure_country_name>Denmark</departure_country_name><departure_city_code>CPH</departure_city_code><departure_city_name>Copenhagen</departure_city_name><arrival_airport_iata>BTS</arrival_airport_iata><arrival_name_airport>M. R. Štefánika</arrival_name_airport><arrival_coordinates_lon>17.199799</arrival_coordinates_lon><arrival_coordinates_lat>48.170017</arrival_coordinates_lat><arrival_country_code>SK</arrival_country_code><arrival_country_name>Slovakia</arrival_country_name><arrival_city_code>BTS</arrival_city_code><arrival_city_name>Bratislava</arrival_city_name><planes>73H</planes><plane_name>Boeing 737-800 With Winglets</plane_name></routes><routes><airline_iata>DY</airline_iata><departure_airport_iata>OSL</departure_airport_iata><departure_name_airport>Gardermoen</departure_name_airport><departure_coordinates_lon>11.100411</departure_coordinates_lon><departure_coordinates_lat>60.19419</departure_coordinates_lat><departure_country_code>NO</departure_country_code><departure_country_name>Norway</departure_country_name><departure_city_code>OSL</departure_city_code><departure_city_name>Oslo</departure_city_name><arrival_airport_iata>BTS</arrival_airport_iata><arrival_name_airport>M. R. Štefánika</arrival_name_airport><arrival_coordinates_lon>17.199799</arrival_coordinates_lon><arrival_coordinates_lat>48.170017</arrival_coordinates_lat><arrival_country_code>SK</arrival_country_code><arrival_country_name>Slovakia</arrival_country_name><arrival_city_code>BTS</arrival_city_code><arrival_city_name>Bratislava</arrival_city_name><planes>73H</planes><plane_name>Boeing 737-800 With Winglets</plane_name></routes><routes><airline_iata>FR</airline_iata><departure_airport_iata>AGP</departure_airport_iata><departure_name_airport>Pablo Ruiz Picasso</departure_name_airport><departure_coordinates_lon>-4.489616</departure_coordinates_lon><departure_coordinates_lat>36.675182</departure_coordinates_lat><departure_country_code>ES</departure_country_code><departure_country_name>Spain</departure_country_name><departure_city_code>AGP</departure_city_code><departure_city_name>Malaga</departure_city_name><arrival_airport_iata>BTS</arrival_airport_iata><arrival_name_airport>M. R. Štefánika</arrival_name_airport><arrival_coordinates_lon>17.199799</arrival_coordinates_lon><arrival_coordinates_lat>48.170017</arrival_coordinates_lat><arrival_country_code>SK</arrival_country_code><arrival_country_name>Slovakia</arrival_country_name><arrival_city_code>BTS</arrival_city_code><arrival_city_name>Bratislava</arrival_city_name><planes>738</planes><plane_name>Boeing 737-800</plane_name></routes><routes><airline_iata>FR</airline_iata><departure_airport_iata>AHO</departure_airport_iata><departure_name_airport>Fertilia</departure_name_airport><departure_coordinates_lon>8.295891</departure_coordinates_lon><departure_coordinates_lat>40.630405</departure_coordinates_lat><departure_country_code>IT</departure_country_code><departure_country_name>Italy</departure_country_name><departure_city_code>AHO</departure_city_code><departure_city_name>Alghero</departure_city_name><arrival_airport_iata>BTS</arrival_airport_iata><arrival_name_airport>M. R. Štefánika</arrival_name_airport><arrival_coordinates_lon>17.199799</arrival_coordinates_lon><arrival_coordinates_lat>48.170017</arrival_coordinates_lat><arrival_country_code>SK</arrival_country_code><arrival_country_name>Slovakia</arrival_country_name><arrival_city_code>BTS</arrival_city_code><arrival_city_name>Bratislava</arrival_city_name><planes>738</planes><plane_name>Boeing 737-800</plane_name></routes><routes><airline_iata>FR</airline_iata><departure_airport_iata>BGY</departure_airport_iata><departure_name_airport>Bergamo - Orio al Serio</departure_name_airport><departure_coordinates_lon>9.698713</departure_coordinates_lon><departure_coordinates_lat>45.665314</departure_coordinates_lat><departure_country_code>IT</departure_country_code><departure_country_name>Italy</departure_country_name><departure_city_code>MIL</departure_city_code><departure_city_name>Milan</departure_city_name><arrival_airport_iata>BTS</arrival_airport_iata><arrival_name_airport>M. R. Štefánika</arrival_name_airport><arrival_coordinates_lon>17.199799</arrival_coordinates_lon><arrival_coordinates_lat>48.170017</arrival_coordinates_lat><arrival_country_code>SK</arrival_country_code><arrival_country_name>Slovakia</arrival_country_name><arrival_city_code>BTS</arrival_city_code><arrival_city_name>Bratislava</arrival_city_name><planes>738</planes><plane_name>Boeing 737-800</plane_name></routes><routes><airline_iata>FR</airline_iata><departure_airport_iata>BHX</departure_airport_iata><departure_name_airport>Birmingham International Airport</departure_name_airport><departure_coordinates_lon>-1.733256</departure_coordinates_lon><departure_coordinates_lat>52.45252</departure_coordinates_lat><departure_country_code>GB</departure_country_code><departure_country_name>United Kingdom</departure_country_name><departure_city_code>BHX</departure_city_code><departure_city_name>Birmingham</departure_city_name><arrival_airport_iata>BTS</arrival_airport_iata><arrival_name_airport>M. R. Štefánika</arrival_name_airport><arrival_coordinates_lon>17.199799</arrival_coordinates_lon><arrival_coordinates_lat>48.170017</arrival_coordinates_lat><arrival_country_code>SK</arrival_country_code><arrival_country_name>Slovakia</arrival_country_name><arrival_city_code>BTS</arrival_city_code><arrival_city_name>Bratislava</arrival_city_name><planes>738</planes><plane_name>Boeing 737-800</plane_name></routes><routes><airline_iata>FR</airline_iata><departure_airport_iata>BRS</departure_airport_iata><departure_name_airport>Bristol</departure_name_airport><departure_coordinates_lon>-2.710659</departure_coordinates_lon><departure_coordinates_lat>51.386757</departure_coordinates_lat><departure_country_code>GB</departure_country_code><departure_country_name>United Kingdom</departure_country_name><departure_city_code>BRS</departure_city_code><departure_city_name>Bristol</departure_city_name><arrival_airport_iata>BTS</arrival_airport_iata><arrival_name_airport>M. R. Štefánika</arrival_name_airport><arrival_coordinates_lon>17.199799</arrival_coordinates_lon><arrival_coordinates_lat>48.170017</arrival_coordinates_lat><arrival_country_code>SK</arrival_country_code><arrival_country_name>Slovakia</arrival_country_name><arrival_city_code>BTS</arrival_city_code><arrival_city_name>Bratislava</arrival_city_name><planes>738</planes><plane_name>Boeing 737-800</plane_name></routes><routes><airline_iata>FR</airline_iata><departure_airport_iata>BVA</departure_airport_iata><departure_name_airport>Beauvais-Tille</departure_name_airport><departure_coordinates_lon>2.110815</departure_coordinates_lon><departure_coordinates_lat>49.459488</departure_coordinates_lat><departure_country_code>FR</departure_country_code><departure_country_name>France</departure_country_name><departure_city_code>PAR</departure_city_code><departure_city_name>Paris</departure_city_name><arrival_airport_iata>BTS</arrival_airport_iata><arrival_name_airport>M. R. Štefánika</arrival_name_airport><arrival_coordinates_lon>17.199799</arrival_coordinates_lon><arrival_coordinates_lat>48.170017</arrival_coordinates_lat><arrival_country_code>SK</arrival_country_code><arrival_country_name>Slovakia</arrival_country_name><arrival_city_code>BTS</arrival_city_code><arrival_city_name>Bratislava</arrival_city_name><planes>738</planes><plane_name>Boeing 737-800</plane_name></routes><routes><airline_iata>FR</airline_iata><departure_airport_iata>CIA</departure_airport_iata><departure_name_airport>Ciampino</departure_name_airport><departure_coordinates_lon>12.590987</departure_coordinates_lon><departure_coordinates_lat>41.799065</departure_coordinates_lat><departure_country_code>IT</departure_country_code><departure_country_name>Italy</departure_country_name><departure_city_code>ROM</departure_city_code><departure_city_name>Rome</departure_city_name><arrival_airport_iata>BTS</arrival_airport_iata><arrival_name_airport>M. R. Štefánika</arrival_name_airport><arrival_coordinates_lon>17.199799</arrival_coordinates_lon><arrival_coordinates_lat>48.170017</arrival_coordinates_lat><arrival_country_code>SK</arrival_country_code><arrival_country_name>Slovakia</arrival_country_name><arrival_city_code>BTS</arrival_city_code><arrival_city_name>Bratislava</arrival_city_name><planes>738</planes><plane_name>Boeing 737-800</plane_name></routes><routes><airline_iata>FR</airline_iata><departure_airport_iata>CRL</departure_airport_iata><departure_name_airport>Charleroi Brussels South</departure_name_airport><departure_coordinates_lon>4.451703</departure_coordinates_lon><departure_coordinates_lat>50.456696</departure_coordinates_lat><departure_country_code>BE</departure_country_code><departure_country_name>Belgium</departure_country_name><departure_city_code>BRU</departure_city_code><departure_city_name>Brussels</departure_city_name><arrival_airport_iata>BTS</arrival_airport_iata><arrival_name_airport>M. R. Štefánika</arrival_name_airport><arrival_coordinates_lon>17.199799</arrival_coordinates_lon><arrival_coordinates_lat>48.170017</arrival_coordinates_lat><arrival_country_code>SK</arrival_country_code><arrival_country_name>Slovakia</arrival_country_name><arrival_city_code>BTS</arrival_city_code><arrival_city_name>Bratislava</arrival_city_name><planes>738</planes><plane_name>Boeing 737-800</plane_name></routes><routes><airline_iata>FR</airline_iata><departure_airport_iata>DUB</departure_airport_iata><departure_name_airport>Dublin International</departure_name_airport><departure_coordinates_lon>-6.24357</departure_coordinates_lon><departure_coordinates_lat>53.42728</departure_coordinates_lat><departure_country_code>IE</departure_country_code><departure_country_name>Ireland</departure_country_name><departure_city_code>DUB</departure_city_code><departure_city_name>Dublin</departure_city_name><arrival_airport_iata>BTS</arrival_airport_iata><arrival_name_airport>M. R. Štefánika</arrival_name_airport><arrival_coordinates_lon>17.199799</arrival_coordinates_lon><arrival_coordinates_lat>48.170017</arrival_coordinates_lat><arrival_country_code>SK</arrival_country_code><arrival_country_name>Slovakia</arrival_country_name><arrival_city_code>BTS</arrival_city_code><arrival_city_name>Bratislava</arrival_city_name><planes>738</planes><plane_name>Boeing 737-800</plane_name></routes><routes><airline_iata>FR</airline_iata><departure_airport_iata>EDI</departure_airport_iata><departure_name_airport>Edinburgh</departure_name_airport><departure_coordinates_lon>-3.364177</departure_coordinates_lon><departure_coordinates_lat>55.948143</departure_coordinates_lat><departure_country_code>GB</departure_country_code><departure_country_name>United Kingdom</departure_country_name><departure_city_code>EDI</departure_city_code><departure_city_name>Edinburgh</departure_city_name><arrival_airport_iata>BTS</arrival_airport_iata><arrival_name_airport>M. R. Štefánika</arrival_name_airport><arrival_coordinates_lon>17.199799</arrival_coordinates_lon><arrival_coordinates_lat>48.170017</arrival_coordinates_lat><arrival_country_code>SK</arrival_country_code><arrival_country_name>Slovakia</arrival_country_name><arrival_city_code>BTS</arrival_city_code><arrival_city_name>Bratislava</arrival_city_name><planes>738</planes><plane_name>Boeing 737-800</plane_name></routes><routes><airline_iata>FR</airline_iata><departure_airport_iata>GRO</departure_airport_iata><departure_name_airport>Girona-Costa Brava</departure_name_airport><departure_coordinates_lon>2.766383</departure_coordinates_lon><departure_coordinates_lat>41.89804</departure_coordinates_lat><departure_country_code>ES</departure_country_code><departure_country_name>Spain</departure_country_name><departure_city_code>GRO</departure_city_code><departure_city_name>Gerona</departure_city_name><arrival_airport_iata>BTS</arrival_airport_iata><arrival_name_airport>M. R. Štefánika</arrival_name_airport><arrival_coordinates_lon>17.199799</arrival_coordinates_lon><arrival_coordinates_lat>48.170017</arrival_coordinates_lat><arrival_country_code>SK</arrival_country_code><arrival_country_name>Slovakia</arrival_country_name><arrival_city_code>BTS</arrival_city_code><arrival_city_name>Bratislava</arrival_city_name><planes>738</planes><plane_name>Boeing 737-800</plane_name></routes><routes><airline_iata>FR</airline_iata><departure_airport_iata>LPL</departure_airport_iata><departure_name_airport>Liverpool John Lennon</departure_name_airport><departure_coordinates_lon>-2.854905</departure_coordinates_lon><departure_coordinates_lat>53.337616</departure_coordinates_lat><departure_country_code>GB</departure_country_code><departure_country_name>United Kingdom</departure_country_name><departure_city_code>LPL</departure_city_code><departure_city_name>Liverpool</departure_city_name><arrival_airport_iata>BTS</arrival_airport_iata><arrival_name_airport>M. R. Štefánika</arrival_name_airport><arrival_coordinates_lon>17.199799</arrival_coordinates_lon><arrival_coordinates_lat>48.170017</arrival_coordinates_lat><arrival_country_code>SK</arrival_country_code><arrival_country_name>Slovakia</arrival_country_name><arrival_city_code>BTS</arrival_city_code><arrival_city_name>Bratislava</arrival_city_name><planes>738</planes><plane_name>Boeing 737-800</plane_name></routes><routes><airline_iata>FR</airline_iata><departure_airport_iata>LTN</departure_airport_iata><departure_name_airport>Luton Airport</departure_name_airport><departure_coordinates_lon>-0.376232</departure_coordinates_lon><departure_coordinates_lat>51.87977</departure_coordinates_lat><departure_country_code>GB</departure_country_code><departure_country_name>United Kingdom</departure_country_name><departure_city_code>LON</departure_city_code><departure_city_name>London</departure_city_name><arrival_airport_iata>BTS</arrival_airport_iata><arrival_name_airport>M. R. Štefánika</arrival_name_airport><arrival_coordinates_lon>17.199799</arrival_coordinates_lon><arrival_coordinates_lat>48.170017</arrival_coordinates_lat><arrival_country_code>SK</arrival_country_code><arrival_country_name>Slovakia</arrival_country_name><arrival_city_code>BTS</arrival_city_code><arrival_city_name>Bratislava</arrival_city_name><planes>738</planes><plane_name>Boeing 737-800</plane_name></routes><routes><airline_iata>FR</airline_iata><departure_airport_iata>PMI</departure_airport_iata><departure_name_airport>Son Sant Joan Airport</departure_name_airport><departure_coordinates_lon>2.730388</departure_coordinates_lon><departure_coordinates_lat>39.547653</departure_coordinates_lat><departure_country_code>ES</departure_country_code><departure_country_name>Spain</departure_country_name><departure_city_code>PMI</departure_city_code><departure_city_name>Palma Mallorca</departure_city_name><arrival_airport_iata>BTS</arrival_airport_iata><arrival_name_airport>M. R. Štefánika</arrival_name_airport><arrival_coordinates_lon>17.199799</arrival_coordinates_lon><arrival_coordinates_lat>48.170017</arrival_coordinates_lat><arrival_country_code>SK</arrival_country_code><arrival_country_name>Slovakia</arrival_country_name><arrival_city_code>BTS</arrival_city_code><arrival_city_name>Bratislava</arrival_city_name><planes>738</planes><plane_name>Boeing 737-800</plane_name></routes><routes><airline_iata>FR</airline_iata><departure_airport_iata>STN</departure_airport_iata><departure_name_airport>Stansted</departure_name_airport><departure_coordinates_lon>0.262703</departure_coordinates_lon><departure_coordinates_lat>51.889267</departure_coordinates_lat><departure_country_code>GB</departure_country_code><departure_country_name>United Kingdom</departure_country_name><departure_city_code>LON</departure_city_code><departure_city_name>London</departure_city_name><arrival_airport_iata>BTS</arrival_airport_iata><arrival_name_airport>M. R. Štefánika</arrival_name_airport><arrival_coordinates_lon>17.199799</arrival_coordinates_lon><arrival_coordinates_lat>48.170017</arrival_coordinates_lat><arrival_country_code>SK</arrival_country_code><arrival_country_name>Slovakia</arrival_country_name><arrival_city_code>BTS</arrival_city_code><arrival_city_name>Bratislava</arrival_city_name><planes>738</planes><plane_name>Boeing 737-800</plane_name></routes><routes><airline_iata>K2</airline_iata><departure_airport_iata>WAW</departure_airport_iata><departure_name_airport>Frederic Chopin</departure_name_airport><departure_coordinates_lon>20.97329</departure_coordinates_lon><departure_coordinates_lat>52.170906</departure_coordinates_lat><departure_country_code>PL</departure_country_code><departure_country_name>Poland</departure_country_name><departure_city_code>WAW</departure_city_code><departure_city_name>Warsaw</departure_city_name><arrival_airport_iata>TAT</arrival_airport_iata><arrival_name_airport>Poprad/Tatry</arrival_name_airport><arrival_coordinates_lon>20.240278</arrival_coordinates_lon><arrival_coordinates_lat>49.071945</arrival_coordinates_lat><arrival_country_code>SK</arrival_country_code><arrival_country_name>Slovakia</arrival_country_name><arrival_city_code>TAT</arrival_city_code><arrival_city_name>Poprad</arrival_city_name><planes>AT5</planes><plane_name>Aerospatiale/Alenia ATR 42-500</plane_name></routes><routes><airline_iata>LY</airline_iata><departure_airport_iata>TLV</departure_airport_iata><departure_name_airport>Ben Gurion International</departure_name_airport><departure_coordinates_lon>34.870743</departure_coordinates_lon><departure_coordinates_lat>32.000454</departure_coordinates_lat><departure_country_code>IL</departure_country_code><departure_country_name>Israel</departure_country_name><departure_city_code>TLV</departure_city_code><departure_city_name>Tel Aviv Yafo</departure_city_name><arrival_airport_iata>BTS</arrival_airport_iata><arrival_name_airport>M. R. Štefánika</arrival_name_airport><arrival_coordinates_lon>17.199799</arrival_coordinates_lon><arrival_coordinates_lat>48.170017</arrival_coordinates_lat><arrival_country_code>SK</arrival_country_code><arrival_country_name>Slovakia</arrival_country_name><arrival_city_code>BTS</arrival_city_code><arrival_city_name>Bratislava</arrival_city_name><planes>757</planes><plane_name>Boeing 757</plane_name></routes><routes><airline_iata>OK</airline_iata><departure_airport_iata>PRG</departure_airport_iata><departure_name_airport>Prague Vaclav Havel Airport</departure_name_airport><departure_coordinates_lon>14.266638</departure_coordinates_lon><departure_coordinates_lat>50.10619</departure_coordinates_lat><departure_country_code>CZ</departure_country_code><departure_country_name>Czech Republic</departure_country_name><departure_city_code>PRG</departure_city_code><departure_city_name>Prague</departure_city_name><arrival_airport_iata>KSC</arrival_airport_iata><arrival_name_airport>Barca</arrival_name_airport><arrival_coordinates_lon>21.25</arrival_coordinates_lon><arrival_coordinates_lat>48.666668</arrival_coordinates_lat><arrival_country_code>SK</arrival_country_code><arrival_country_name>Slovakia</arrival_country_name><arrival_city_code>KSC</arrival_city_code><arrival_city_name>Kosice</arrival_city_name><planes>AT7</planes><plane_name>Aerospatiale/Alenia ATR 72</plane_name></routes><routes><airline_iata>OS</airline_iata><departure_airport_iata>VIE</departure_airport_iata><departure_name_airport>Vienna International</departure_name_airport><departure_coordinates_lon>16.563583</departure_coordinates_lon><departure_coordinates_lat>48.11972</departure_coordinates_lat><departure_country_code>AT</departure_country_code><departure_country_name>Austria</departure_country_name><departure_city_code>VIE</departure_city_code><departure_city_name>Vienna</departure_city_name><arrival_airport_iata>KSC</arrival_airport_iata><arrival_name_airport>Barca</arrival_name_airport><arrival_coordinates_lon>21.25</arrival_coordinates_lon><arrival_coordinates_lat>48.666668</arrival_coordinates_lat><arrival_country_code>SK</arrival_country_code><arrival_country_name>Slovakia</arrival_country_name><arrival_city_code>KSC</arrival_city_code><arrival_city_name>Kosice</arrival_city_name><planes>DH4</planes><plane_name>De Havilland Canada DHC-8-400 Dash 8/8Q</plane_name></routes></route>
