<?xml version="1.0" encoding="utf-8"?>
<route><routes><airline_iata>AF</airline_iata><departure_airport_iata>CKY</departure_airport_iata><departure_name_airport>Conakry</departure_name_airport><departure_coordinates_lon>-13.62017</departure_coordinates_lon><departure_coordinates_lat>9.575655</departure_coordinates_lat><departure_country_code>GN</departure_country_code><departure_country_name>Guinea</departure_country_name><departure_city_code>CKY</departure_city_code><departure_city_name>Conakry</departure_city_name><arrival_airport_iata>FNA</arrival_airport_iata><arrival_name_airport>Lungi International</arrival_name_airport><arrival_coordinates_lon>-13.196944</arrival_coordinates_lon><arrival_coordinates_lat>8.6175</arrival_coordinates_lat><arrival_country_code>SL</arrival_country_code><arrival_country_name>Sierra Leone</arrival_country_name><arrival_city_code>FNA</arrival_city_code><arrival_city_name>Freetown</arrival_city_name><planes>332</planes><plane_name>Airbus Industrie A330-200</plane_name></routes><routes><airline_iata>AT</airline_iata><departure_airport_iata>CMN</departure_airport_iata><departure_name_airport>Mohamed V</departure_name_airport><departure_coordinates_lon>-7.586667</departure_coordinates_lon><departure_coordinates_lat>33.36667</departure_coordinates_lat><departure_country_code>MA</departure_country_code><departure_country_name>Morocco</departure_country_name><departure_city_code>CAS</departure_city_code><departure_city_name>Casablanca</departure_city_name><arrival_airport_iata>FNA</arrival_airport_iata><arrival_name_airport>Lungi International</arrival_name_airport><arrival_coordinates_lon>-13.196944</arrival_coordinates_lon><arrival_coordinates_lat>8.6175</arrival_coordinates_lat><arrival_country_code>SL</arrival_country_code><arrival_country_name>Sierra Leone</arrival_country_name><arrival_city_code>FNA</arrival_city_code><arrival_city_name>Freetown</arrival_city_name><planes>738</planes><plane_name>Boeing 737-800</plane_name></routes><routes><airline_iata>AT</airline_iata><departure_airport_iata>ROB</departure_airport_iata><departure_name_airport>Roberts International</departure_name_airport><departure_coordinates_lon>-10.358889</departure_coordinates_lon><departure_coordinates_lat>6.239722</departure_coordinates_lat><departure_country_code>LR</departure_country_code><departure_country_name>Liberia</departure_country_name><departure_city_code>MLW</departure_city_code><departure_city_name>Monrovia</departure_city_name><arrival_airport_iata>FNA</arrival_airport_iata><arrival_name_airport>Lungi International</arrival_name_airport><arrival_coordinates_lon>-13.196944</arrival_coordinates_lon><arrival_coordinates_lat>8.6175</arrival_coordinates_lat><arrival_country_code>SL</arrival_country_code><arrival_country_name>Sierra Leone</arrival_country_name><arrival_city_code>FNA</arrival_city_code><arrival_city_name>Freetown</arrival_city_name><planes>738</planes><plane_name>Boeing 737-800</plane_name></routes><routes><airline_iata>BA</airline_iata><departure_airport_iata>LHR</departure_airport_iata><departure_name_airport>Heathrow</departure_name_airport><departure_coordinates_lon>-0.453566</departure_coordinates_lon><departure_coordinates_lat>51.469604</departure_coordinates_lat><departure_country_code>GB</departure_country_code><departure_country_name>United Kingdom</departure_country_name><departure_city_code>LON</departure_city_code><departure_city_name>London</departure_city_name><arrival_airport_iata>FNA</arrival_airport_iata><arrival_name_airport>Lungi International</arrival_name_airport><arrival_coordinates_lon>-13.196944</arrival_coordinates_lon><arrival_coordinates_lat>8.6175</arrival_coordinates_lat><arrival_country_code>SL</arrival_country_code><arrival_country_name>Sierra Leone</arrival_country_name><arrival_city_code>FNA</arrival_city_code><arrival_city_name>Freetown</arrival_city_name><planes>332</planes><plane_name>Airbus Industrie A330-200</plane_name></routes><routes><airline_iata>BD</airline_iata><departure_airport_iata>LHR</departure_airport_iata><departure_name_airport>Heathrow</departure_name_airport><departure_coordinates_lon>-0.453566</departure_coordinates_lon><departure_coordinates_lat>51.469604</departure_coordinates_lat><departure_country_code>GB</departure_country_code><departure_country_name>United Kingdom</departure_country_name><departure_city_code>LON</departure_city_code><departure_city_name>London</departure_city_name><arrival_airport_iata>FNA</arrival_airport_iata><arrival_name_airport>Lungi International</arrival_name_airport><arrival_coordinates_lon>-13.196944</arrival_coordinates_lon><arrival_coordinates_lat>8.6175</arrival_coordinates_lat><arrival_country_code>SL</arrival_country_code><arrival_country_name>Sierra Leone</arrival_country_name><arrival_city_code>FNA</arrival_city_code><arrival_city_name>Freetown</arrival_city_name><planes>332</planes><plane_name>Airbus Industrie A330-200</plane_name></routes><routes><airline_iata>ET</airline_iata><departure_airport_iata>ROB</departure_airport_iata><departure_name_airport>Roberts International</departure_name_airport><departure_coordinates_lon>-10.358889</departure_coordinates_lon><departure_coordinates_lat>6.239722</departure_coordinates_lat><departure_country_code>LR</departure_country_code><departure_country_name>Liberia</departure_country_name><departure_city_code>MLW</departure_city_code><departure_city_name>Monrovia</departure_city_name><arrival_airport_iata>FNA</arrival_airport_iata><arrival_name_airport>Lungi International</arrival_name_airport><arrival_coordinates_lon>-13.196944</arrival_coordinates_lon><arrival_coordinates_lat>8.6175</arrival_coordinates_lat><arrival_country_code>SL</arrival_country_code><arrival_country_name>Sierra Leone</arrival_country_name><arrival_city_code>FNA</arrival_city_code><arrival_city_name>Freetown</arrival_city_name><planes>DH8</planes><plane_name>De Havilland Canada DHC-8 Dash 8 All S.</plane_name></routes><routes><airline_iata>KQ</airline_iata><departure_airport_iata>ACC</departure_airport_iata><departure_name_airport>Kotoka</departure_name_airport><departure_coordinates_lon>-0.171769</departure_coordinates_lon><departure_coordinates_lat>5.60737</departure_coordinates_lat><departure_country_code>GH</departure_country_code><departure_country_name>Ghana</departure_country_name><departure_city_code>ACC</departure_city_code><departure_city_name>Accra</departure_city_name><arrival_airport_iata>FNA</arrival_airport_iata><arrival_name_airport>Lungi International</arrival_name_airport><arrival_coordinates_lon>-13.196944</arrival_coordinates_lon><arrival_coordinates_lat>8.6175</arrival_coordinates_lat><arrival_country_code>SL</arrival_country_code><arrival_country_name>Sierra Leone</arrival_country_name><arrival_city_code>FNA</arrival_city_code><arrival_city_name>Freetown</arrival_city_name><planes>738</planes><plane_name>Boeing 737-800</plane_name></routes><routes><airline_iata>LH</airline_iata><departure_airport_iata>BRU</departure_airport_iata><departure_name_airport>Brussels Airport</departure_name_airport><departure_coordinates_lon>4.483602</departure_coordinates_lon><departure_coordinates_lat>50.89717</departure_coordinates_lat><departure_country_code>BE</departure_country_code><departure_country_name>Belgium</departure_country_name><departure_city_code>BRU</departure_city_code><departure_city_name>Brussels</departure_city_name><arrival_airport_iata>FNA</arrival_airport_iata><arrival_name_airport>Lungi International</arrival_name_airport><arrival_coordinates_lon>-13.196944</arrival_coordinates_lon><arrival_coordinates_lat>8.6175</arrival_coordinates_lat><arrival_country_code>SL</arrival_country_code><arrival_country_name>Sierra Leone</arrival_country_name><arrival_city_code>FNA</arrival_city_code><arrival_city_name>Freetown</arrival_city_name><planes>332</planes><plane_name>Airbus Industrie A330-200</plane_name></routes><routes><airline_iata>SN</airline_iata><departure_airport_iata>BRU</departure_airport_iata><departure_name_airport>Brussels Airport</departure_name_airport><departure_coordinates_lon>4.483602</departure_coordinates_lon><departure_coordinates_lat>50.89717</departure_coordinates_lat><departure_country_code>BE</departure_country_code><departure_country_name>Belgium</departure_country_name><departure_city_code>BRU</departure_city_code><departure_city_name>Brussels</departure_city_name><arrival_airport_iata>FNA</arrival_airport_iata><arrival_name_airport>Lungi International</arrival_name_airport><arrival_coordinates_lon>-13.196944</arrival_coordinates_lon><arrival_coordinates_lat>8.6175</arrival_coordinates_lat><arrival_country_code>SL</arrival_country_code><arrival_country_name>Sierra Leone</arrival_country_name><arrival_city_code>FNA</arrival_city_code><arrival_city_name>Freetown</arrival_city_name><planes>332</planes><plane_name>Airbus Industrie A330-200</plane_name></routes><routes><airline_iata>UA</airline_iata><departure_airport_iata>BRU</departure_airport_iata><departure_name_airport>Brussels Airport</departure_name_airport><departure_coordinates_lon>4.483602</departure_coordinates_lon><departure_coordinates_lat>50.89717</departure_coordinates_lat><departure_country_code>BE</departure_country_code><departure_country_name>Belgium</departure_country_name><departure_city_code>BRU</departure_city_code><departure_city_name>Brussels</departure_city_name><arrival_airport_iata>FNA</arrival_airport_iata><arrival_name_airport>Lungi International</arrival_name_airport><arrival_coordinates_lon>-13.196944</arrival_coordinates_lon><arrival_coordinates_lat>8.6175</arrival_coordinates_lat><arrival_country_code>SL</arrival_country_code><arrival_country_name>Sierra Leone</arrival_country_name><arrival_city_code>FNA</arrival_city_code><arrival_city_name>Freetown</arrival_city_name><planes>332</planes><plane_name>Airbus Industrie A330-200</plane_name></routes><routes><airline_iata>US</airline_iata><departure_airport_iata>BRU</departure_airport_iata><departure_name_airport>Brussels Airport</departure_name_airport><departure_coordinates_lon>4.483602</departure_coordinates_lon><departure_coordinates_lat>50.89717</departure_coordinates_lat><departure_country_code>BE</departure_country_code><departure_country_name>Belgium</departure_country_name><departure_city_code>BRU</departure_city_code><departure_city_name>Brussels</departure_city_name><arrival_airport_iata>FNA</arrival_airport_iata><arrival_name_airport>Lungi International</arrival_name_airport><arrival_coordinates_lon>-13.196944</arrival_coordinates_lon><arrival_coordinates_lat>8.6175</arrival_coordinates_lat><arrival_country_code>SL</arrival_country_code><arrival_country_name>Sierra Leone</arrival_country_name><arrival_city_code>FNA</arrival_city_code><arrival_city_name>Freetown</arrival_city_name><planes>332</planes><plane_name>Airbus Industrie A330-200</plane_name></routes><routes><airline_iata>W3</airline_iata><departure_airport_iata>BJL</departure_airport_iata><departure_name_airport>Yundum International</departure_name_airport><departure_coordinates_lon>-16.6522</departure_coordinates_lon><departure_coordinates_lat>13.34406</departure_coordinates_lat><departure_country_code>GM</departure_country_code><departure_country_name>Gambia</departure_country_name><departure_city_code>BJL</departure_city_code><departure_city_name>Banjul</departure_city_name><arrival_airport_iata>FNA</arrival_airport_iata><arrival_name_airport>Lungi International</arrival_name_airport><arrival_coordinates_lon>-13.196944</arrival_coordinates_lon><arrival_coordinates_lat>8.6175</arrival_coordinates_lat><arrival_country_code>SL</arrival_country_code><arrival_country_name>Sierra Leone</arrival_country_name><arrival_city_code>FNA</arrival_city_code><arrival_city_name>Freetown</arrival_city_name><planes>738</planes><plane_name>Boeing 737-800</plane_name></routes><routes><airline_iata>W3</airline_iata><departure_airport_iata>LOS</departure_airport_iata><departure_name_airport>Murtala Muhammed</departure_name_airport><departure_coordinates_lon>3.321178</departure_coordinates_lon><departure_coordinates_lat>6.577871</departure_coordinates_lat><departure_country_code>NG</departure_country_code><departure_country_name>Nigeria</departure_country_name><departure_city_code>LOS</departure_city_code><departure_city_name>Lagos</departure_city_name><arrival_airport_iata>FNA</arrival_airport_iata><arrival_name_airport>Lungi International</arrival_name_airport><arrival_coordinates_lon>-13.196944</arrival_coordinates_lon><arrival_coordinates_lat>8.6175</arrival_coordinates_lat><arrival_country_code>SL</arrival_country_code><arrival_country_name>Sierra Leone</arrival_country_name><arrival_city_code>FNA</arrival_city_code><arrival_city_name>Freetown</arrival_city_name><planes>738</planes><plane_name>Boeing 737-800</plane_name></routes></route>
