<?xml version="1.0" encoding="utf-8"?>
<route><routes><airline_iata>2J</airline_iata><departure_airport_iata>OUA</departure_airport_iata><departure_name_airport>Ouagadougou</departure_name_airport><departure_coordinates_lon>-1.514283</departure_coordinates_lon><departure_coordinates_lat>12.355019</departure_coordinates_lat><departure_country_code>BF</departure_country_code><departure_country_name>Burkina Faso</departure_country_name><departure_city_code>OUA</departure_city_code><departure_city_name>Ouagadougou</departure_city_name><arrival_airport_iata>LFW</arrival_airport_iata><arrival_name_airport>Lome</arrival_name_airport><arrival_coordinates_lon>1.250347</arrival_coordinates_lon><arrival_coordinates_lat>6.167103</arrival_coordinates_lat><arrival_country_code>TG</arrival_country_code><arrival_country_name>Togo</arrival_country_name><arrival_city_code>LFW</arrival_city_code><arrival_city_name>Lome</arrival_city_name><planes>CRJ</planes><plane_name>Canadair Regional Jet</plane_name></routes><routes><airline_iata>AC</airline_iata><departure_airport_iata>OUA</departure_airport_iata><departure_name_airport>Ouagadougou</departure_name_airport><departure_coordinates_lon>-1.514283</departure_coordinates_lon><departure_coordinates_lat>12.355019</departure_coordinates_lat><departure_country_code>BF</departure_country_code><departure_country_name>Burkina Faso</departure_country_name><departure_city_code>OUA</departure_city_code><departure_city_name>Ouagadougou</departure_city_name><arrival_airport_iata>LFW</arrival_airport_iata><arrival_name_airport>Lome</arrival_name_airport><arrival_coordinates_lon>1.250347</arrival_coordinates_lon><arrival_coordinates_lat>6.167103</arrival_coordinates_lat><arrival_country_code>TG</arrival_country_code><arrival_country_name>Togo</arrival_country_name><arrival_city_code>LFW</arrival_city_code><arrival_city_name>Lome</arrival_city_name><planes>332</planes><plane_name>Airbus Industrie A330-200</plane_name></routes><routes><airline_iata>AF</airline_iata><departure_airport_iata>CDG</departure_airport_iata><departure_name_airport>Charles De Gaulle</departure_name_airport><departure_coordinates_lon>2.567023</departure_coordinates_lon><departure_coordinates_lat>49.003197</departure_coordinates_lat><departure_country_code>FR</departure_country_code><departure_country_name>France</departure_country_name><departure_city_code>PAR</departure_city_code><departure_city_name>Paris</departure_city_name><arrival_airport_iata>LFW</arrival_airport_iata><arrival_name_airport>Lome</arrival_name_airport><arrival_coordinates_lon>1.250347</arrival_coordinates_lon><arrival_coordinates_lat>6.167103</arrival_coordinates_lat><arrival_country_code>TG</arrival_country_code><arrival_country_name>Togo</arrival_country_name><arrival_city_code>LFW</arrival_city_code><arrival_city_name>Lome</arrival_city_name><planes>343</planes><plane_name>Airbus Industrie A340-300</plane_name></routes><routes><airline_iata>AT</airline_iata><departure_airport_iata>CMN</departure_airport_iata><departure_name_airport>Mohamed V</departure_name_airport><departure_coordinates_lon>-7.586667</departure_coordinates_lon><departure_coordinates_lat>33.36667</departure_coordinates_lat><departure_country_code>MA</departure_country_code><departure_country_name>Morocco</departure_country_name><departure_city_code>CAS</departure_city_code><departure_city_name>Casablanca</departure_city_name><arrival_airport_iata>LFW</arrival_airport_iata><arrival_name_airport>Lome</arrival_name_airport><arrival_coordinates_lon>1.250347</arrival_coordinates_lon><arrival_coordinates_lat>6.167103</arrival_coordinates_lat><arrival_country_code>TG</arrival_country_code><arrival_country_name>Togo</arrival_country_name><arrival_city_code>LFW</arrival_city_code><arrival_city_name>Lome</arrival_city_name><planes>73G</planes><plane_name>Boeing 737-700</plane_name></routes><routes><airline_iata>ET</airline_iata><departure_airport_iata>ABJ</departure_airport_iata><departure_name_airport>Felix Houphouet Boigny</departure_name_airport><departure_coordinates_lon>-3.933015</departure_coordinates_lon><departure_coordinates_lat>5.254879</departure_coordinates_lat><departure_country_code>CI</departure_country_code><departure_country_name>Ivory Coast</departure_country_name><departure_city_code>ABJ</departure_city_code><departure_city_name>Abidjan</departure_city_name><arrival_airport_iata>LFW</arrival_airport_iata><arrival_name_airport>Lome</arrival_name_airport><arrival_coordinates_lon>1.250347</arrival_coordinates_lon><arrival_coordinates_lat>6.167103</arrival_coordinates_lat><arrival_country_code>TG</arrival_country_code><arrival_country_name>Togo</arrival_country_name><arrival_city_code>LFW</arrival_city_code><arrival_city_name>Lome</arrival_city_name><planes>73W</planes><plane_name>Boeing 737-700 With Winglets</plane_name></routes><routes><airline_iata>ET</airline_iata><departure_airport_iata>ACC</departure_airport_iata><departure_name_airport>Kotoka</departure_name_airport><departure_coordinates_lon>-0.171769</departure_coordinates_lon><departure_coordinates_lat>5.60737</departure_coordinates_lat><departure_country_code>GH</departure_country_code><departure_country_name>Ghana</departure_country_name><departure_city_code>ACC</departure_city_code><departure_city_name>Accra</departure_city_name><arrival_airport_iata>LFW</arrival_airport_iata><arrival_name_airport>Lome</arrival_name_airport><arrival_coordinates_lon>1.250347</arrival_coordinates_lon><arrival_coordinates_lat>6.167103</arrival_coordinates_lat><arrival_country_code>TG</arrival_country_code><arrival_country_name>Togo</arrival_country_name><arrival_city_code>LFW</arrival_city_code><arrival_city_name>Lome</arrival_city_name><planes>DH8</planes><plane_name>De Havilland Canada DHC-8 Dash 8 All S.</plane_name></routes><routes><airline_iata>ET</airline_iata><departure_airport_iata>ADD</departure_airport_iata><departure_name_airport>Bole International</departure_name_airport><departure_coordinates_lon>38.7959</departure_coordinates_lon><departure_coordinates_lat>8.983759</departure_coordinates_lat><departure_country_code>ET</departure_country_code><departure_country_name>Ethiopia</departure_country_name><departure_city_code>ADD</departure_city_code><departure_city_name>Addis Ababa</departure_city_name><arrival_airport_iata>LFW</arrival_airport_iata><arrival_name_airport>Lome</arrival_name_airport><arrival_coordinates_lon>1.250347</arrival_coordinates_lon><arrival_coordinates_lat>6.167103</arrival_coordinates_lat><arrival_country_code>TG</arrival_country_code><arrival_country_name>Togo</arrival_country_name><arrival_city_code>LFW</arrival_city_code><arrival_city_name>Lome</arrival_city_name><planes>73W</planes><plane_name>Boeing 737-700 With Winglets</plane_name></routes><routes><airline_iata>ET</airline_iata><departure_airport_iata>BKO</departure_airport_iata><departure_name_airport>Bamako</departure_name_airport><departure_coordinates_lon>-7.947951</departure_coordinates_lon><departure_coordinates_lat>12.540926</departure_coordinates_lat><departure_country_code>ML</departure_country_code><departure_country_name>Mali</departure_country_name><departure_city_code>BKO</departure_city_code><departure_city_name>Bamako</departure_city_name><arrival_airport_iata>LFW</arrival_airport_iata><arrival_name_airport>Lome</arrival_name_airport><arrival_coordinates_lon>1.250347</arrival_coordinates_lon><arrival_coordinates_lat>6.167103</arrival_coordinates_lat><arrival_country_code>TG</arrival_country_code><arrival_country_name>Togo</arrival_country_name><arrival_city_code>LFW</arrival_city_code><arrival_city_name>Lome</arrival_city_name><planes>73W</planes><plane_name>Boeing 737-700 With Winglets</plane_name></routes><routes><airline_iata>ET</airline_iata><departure_airport_iata>COO</departure_airport_iata><departure_name_airport>Cotonou</departure_name_airport><departure_coordinates_lon>2.385271</departure_coordinates_lon><departure_coordinates_lat>6.353097</departure_coordinates_lat><departure_country_code>BJ</departure_country_code><departure_country_name>Benin</departure_country_name><departure_city_code>COO</departure_city_code><departure_city_name>Cotonou</departure_city_name><arrival_airport_iata>LFW</arrival_airport_iata><arrival_name_airport>Lome</arrival_name_airport><arrival_coordinates_lon>1.250347</arrival_coordinates_lon><arrival_coordinates_lat>6.167103</arrival_coordinates_lat><arrival_country_code>TG</arrival_country_code><arrival_country_name>Togo</arrival_country_name><arrival_city_code>LFW</arrival_city_code><arrival_city_name>Lome</arrival_city_name><planes>73W</planes><plane_name>Boeing 737-700 With Winglets</plane_name></routes><routes><airline_iata>ET</airline_iata><departure_airport_iata>DLA</departure_airport_iata><departure_name_airport>Douala</departure_name_airport><departure_coordinates_lon>9.717018</departure_coordinates_lon><departure_coordinates_lat>4.01346</departure_coordinates_lat><departure_country_code>CM</departure_country_code><departure_country_name>Cameroon</departure_country_name><departure_city_code>DLA</departure_city_code><departure_city_name>Douala</departure_city_name><arrival_airport_iata>LFW</arrival_airport_iata><arrival_name_airport>Lome</arrival_name_airport><arrival_coordinates_lon>1.250347</arrival_coordinates_lon><arrival_coordinates_lat>6.167103</arrival_coordinates_lat><arrival_country_code>TG</arrival_country_code><arrival_country_name>Togo</arrival_country_name><arrival_city_code>LFW</arrival_city_code><arrival_city_name>Lome</arrival_city_name><planes>73W</planes><plane_name>Boeing 737-700 With Winglets</plane_name></routes><routes><airline_iata>ET</airline_iata><departure_airport_iata>LBV</departure_airport_iata><departure_name_airport>Libreville</departure_name_airport><departure_coordinates_lon>9.409852</departure_coordinates_lon><departure_coordinates_lat>0.456963</departure_coordinates_lat><departure_country_code>GA</departure_country_code><departure_country_name>Gabon</departure_country_name><departure_city_code>LBV</departure_city_code><departure_city_name>Libreville</departure_city_name><arrival_airport_iata>LFW</arrival_airport_iata><arrival_name_airport>Lome</arrival_name_airport><arrival_coordinates_lon>1.250347</arrival_coordinates_lon><arrival_coordinates_lat>6.167103</arrival_coordinates_lat><arrival_country_code>TG</arrival_country_code><arrival_country_name>Togo</arrival_country_name><arrival_city_code>LFW</arrival_city_code><arrival_city_name>Lome</arrival_city_name><planes>73W</planes><plane_name>Boeing 737-700 With Winglets</plane_name></routes><routes><airline_iata>ET</airline_iata><departure_airport_iata>LOS</departure_airport_iata><departure_name_airport>Murtala Muhammed</departure_name_airport><departure_coordinates_lon>3.321178</departure_coordinates_lon><departure_coordinates_lat>6.577871</departure_coordinates_lat><departure_country_code>NG</departure_country_code><departure_country_name>Nigeria</departure_country_name><departure_city_code>LOS</departure_city_code><departure_city_name>Lagos</departure_city_name><arrival_airport_iata>LFW</arrival_airport_iata><arrival_name_airport>Lome</arrival_name_airport><arrival_coordinates_lon>1.250347</arrival_coordinates_lon><arrival_coordinates_lat>6.167103</arrival_coordinates_lat><arrival_country_code>TG</arrival_country_code><arrival_country_name>Togo</arrival_country_name><arrival_city_code>LFW</arrival_city_code><arrival_city_name>Lome</arrival_city_name><planes>DH8</planes><plane_name>De Havilland Canada DHC-8 Dash 8 All S.</plane_name></routes><routes><airline_iata>ET</airline_iata><departure_airport_iata>OUA</departure_airport_iata><departure_name_airport>Ouagadougou</departure_name_airport><departure_coordinates_lon>-1.514283</departure_coordinates_lon><departure_coordinates_lat>12.355019</departure_coordinates_lat><departure_country_code>BF</departure_country_code><departure_country_name>Burkina Faso</departure_country_name><departure_city_code>OUA</departure_city_code><departure_city_name>Ouagadougou</departure_city_name><arrival_airport_iata>LFW</arrival_airport_iata><arrival_name_airport>Lome</arrival_name_airport><arrival_coordinates_lon>1.250347</arrival_coordinates_lon><arrival_coordinates_lat>6.167103</arrival_coordinates_lat><arrival_country_code>TG</arrival_country_code><arrival_country_name>Togo</arrival_country_name><arrival_city_code>LFW</arrival_city_code><arrival_city_name>Lome</arrival_city_name><planes>DH8</planes><plane_name>De Havilland Canada DHC-8 Dash 8 All S.</plane_name></routes><routes><airline_iata>LH</airline_iata><departure_airport_iata>OUA</departure_airport_iata><departure_name_airport>Ouagadougou</departure_name_airport><departure_coordinates_lon>-1.514283</departure_coordinates_lon><departure_coordinates_lat>12.355019</departure_coordinates_lat><departure_country_code>BF</departure_country_code><departure_country_name>Burkina Faso</departure_country_name><departure_city_code>OUA</departure_city_code><departure_city_name>Ouagadougou</departure_city_name><arrival_airport_iata>LFW</arrival_airport_iata><arrival_name_airport>Lome</arrival_name_airport><arrival_coordinates_lon>1.250347</arrival_coordinates_lon><arrival_coordinates_lat>6.167103</arrival_coordinates_lat><arrival_country_code>TG</arrival_country_code><arrival_country_name>Togo</arrival_country_name><arrival_city_code>LFW</arrival_city_code><arrival_city_name>Lome</arrival_city_name><planes>332</planes><plane_name>Airbus Industrie A330-200</plane_name></routes><routes><airline_iata>SN</airline_iata><departure_airport_iata>OUA</departure_airport_iata><departure_name_airport>Ouagadougou</departure_name_airport><departure_coordinates_lon>-1.514283</departure_coordinates_lon><departure_coordinates_lat>12.355019</departure_coordinates_lat><departure_country_code>BF</departure_country_code><departure_country_name>Burkina Faso</departure_country_name><departure_city_code>OUA</departure_city_code><departure_city_name>Ouagadougou</departure_city_name><arrival_airport_iata>LFW</arrival_airport_iata><arrival_name_airport>Lome</arrival_name_airport><arrival_coordinates_lon>1.250347</arrival_coordinates_lon><arrival_coordinates_lat>6.167103</arrival_coordinates_lat><arrival_country_code>TG</arrival_country_code><arrival_country_name>Togo</arrival_country_name><arrival_city_code>LFW</arrival_city_code><arrival_city_name>Lome</arrival_city_name><planes>332</planes><plane_name>Airbus Industrie A330-200</plane_name></routes><routes><airline_iata>UA</airline_iata><departure_airport_iata>OUA</departure_airport_iata><departure_name_airport>Ouagadougou</departure_name_airport><departure_coordinates_lon>-1.514283</departure_coordinates_lon><departure_coordinates_lat>12.355019</departure_coordinates_lat><departure_country_code>BF</departure_country_code><departure_country_name>Burkina Faso</departure_country_name><departure_city_code>OUA</departure_city_code><departure_city_name>Ouagadougou</departure_city_name><arrival_airport_iata>LFW</arrival_airport_iata><arrival_name_airport>Lome</arrival_name_airport><arrival_coordinates_lon>1.250347</arrival_coordinates_lon><arrival_coordinates_lat>6.167103</arrival_coordinates_lat><arrival_country_code>TG</arrival_country_code><arrival_country_name>Togo</arrival_country_name><arrival_city_code>LFW</arrival_city_code><arrival_city_name>Lome</arrival_city_name><planes>332</planes><plane_name>Airbus Industrie A330-200</plane_name></routes><routes><airline_iata>US</airline_iata><departure_airport_iata>OUA</departure_airport_iata><departure_name_airport>Ouagadougou</departure_name_airport><departure_coordinates_lon>-1.514283</departure_coordinates_lon><departure_coordinates_lat>12.355019</departure_coordinates_lat><departure_country_code>BF</departure_country_code><departure_country_name>Burkina Faso</departure_country_name><departure_city_code>OUA</departure_city_code><departure_city_name>Ouagadougou</departure_city_name><arrival_airport_iata>LFW</arrival_airport_iata><arrival_name_airport>Lome</arrival_name_airport><arrival_coordinates_lon>1.250347</arrival_coordinates_lon><arrival_coordinates_lat>6.167103</arrival_coordinates_lat><arrival_country_code>TG</arrival_country_code><arrival_country_name>Togo</arrival_country_name><arrival_city_code>LFW</arrival_city_code><arrival_city_name>Lome</arrival_city_name><planes>332</planes><plane_name>Airbus Industrie A330-200</plane_name></routes></route>
