<?xml version="1.0" encoding="utf-8"?>
<route><routes><airline_iata>4G</airline_iata><departure_airport_iata>VKO</departure_airport_iata><departure_name_airport>Vnukovo</departure_name_airport><departure_coordinates_lon>37.2921</departure_coordinates_lon><departure_coordinates_lat>55.60315</departure_coordinates_lat><departure_country_code>RU</departure_country_code><departure_country_name>Russia</departure_country_name><departure_city_code>MOW</departure_city_code><departure_city_name>Moscow</departure_city_name><arrival_airport_iata>NCU</arrival_airport_iata><arrival_name_airport>Nukus</arrival_name_airport><arrival_coordinates_lon>59.63333</arrival_coordinates_lon><arrival_coordinates_lat>42.483334</arrival_coordinates_lat><arrival_country_code>UZ</arrival_country_code><arrival_country_name>Uzbekistan</arrival_country_name><arrival_city_code>NCU</arrival_city_code><arrival_city_name>Nukus</arrival_city_name><planes>73G</planes><plane_name>Boeing 737-700</plane_name></routes><routes><airline_iata>BT</airline_iata><departure_airport_iata>RIX</departure_airport_iata><departure_name_airport>Riga International</departure_name_airport><departure_coordinates_lon>23.979807</departure_coordinates_lon><departure_coordinates_lat>56.92208</departure_coordinates_lat><departure_country_code>LV</departure_country_code><departure_country_name>Latvia</departure_country_name><departure_city_code>RIX</departure_city_code><departure_city_name>Riga</departure_city_name><arrival_airport_iata>TAS</arrival_airport_iata><arrival_name_airport>Tashkent International</arrival_name_airport><arrival_coordinates_lon>69.26619</arrival_coordinates_lon><arrival_coordinates_lat>41.262714</arrival_coordinates_lat><arrival_country_code>UZ</arrival_country_code><arrival_country_name>Uzbekistan</arrival_country_name><arrival_city_code>TAS</arrival_city_code><arrival_city_name>Tashkent</arrival_city_name><planes>733</planes><plane_name>Boeing 737-300</plane_name></routes><routes><airline_iata>BT</airline_iata><departure_airport_iata>RIX</departure_airport_iata><departure_name_airport>Riga International</departure_name_airport><departure_coordinates_lon>23.979807</departure_coordinates_lon><departure_coordinates_lat>56.92208</departure_coordinates_lat><departure_country_code>LV</departure_country_code><departure_country_name>Latvia</departure_country_name><departure_city_code>RIX</departure_city_code><departure_city_name>Riga</departure_city_name><arrival_airport_iata>TAS</arrival_airport_iata><arrival_name_airport>Tashkent International</arrival_name_airport><arrival_coordinates_lon>69.26619</arrival_coordinates_lon><arrival_coordinates_lat>41.262714</arrival_coordinates_lat><arrival_country_code>UZ</arrival_country_code><arrival_country_name>Uzbekistan</arrival_country_name><arrival_city_code>TAS</arrival_city_code><arrival_city_name>Tashkent</arrival_city_name><planes>763</planes><plane_name>Boeing 767-300</plane_name></routes><routes><airline_iata>CZ</airline_iata><departure_airport_iata>PEK</departure_airport_iata><departure_name_airport>Beijing Capital International</departure_name_airport><departure_coordinates_lon>116.5871</departure_coordinates_lon><departure_coordinates_lat>40.078537</departure_coordinates_lat><departure_country_code>CN</departure_country_code><departure_country_name>China</departure_country_name><departure_city_code>BJS</departure_city_code><departure_city_name>Beijing</departure_city_name><arrival_airport_iata>TAS</arrival_airport_iata><arrival_name_airport>Tashkent International</arrival_name_airport><arrival_coordinates_lon>69.26619</arrival_coordinates_lon><arrival_coordinates_lat>41.262714</arrival_coordinates_lat><arrival_country_code>UZ</arrival_country_code><arrival_country_name>Uzbekistan</arrival_country_name><arrival_city_code>TAS</arrival_city_code><arrival_city_name>Tashkent</arrival_city_name><planes>330</planes><plane_name>Airbus Industrie A330</plane_name></routes><routes><airline_iata>CZ</airline_iata><departure_airport_iata>URC</departure_airport_iata><departure_name_airport>Urumqi</departure_name_airport><departure_coordinates_lon>87.47515</departure_coordinates_lon><departure_coordinates_lat>43.90126</departure_coordinates_lat><departure_country_code>CN</departure_country_code><departure_country_name>China</departure_country_name><departure_city_code>URC</departure_city_code><departure_city_name>Urumqi</departure_city_name><arrival_airport_iata>TAS</arrival_airport_iata><arrival_name_airport>Tashkent International</arrival_name_airport><arrival_coordinates_lon>69.26619</arrival_coordinates_lon><arrival_coordinates_lat>41.262714</arrival_coordinates_lat><arrival_country_code>UZ</arrival_country_code><arrival_country_name>Uzbekistan</arrival_country_name><arrival_city_code>TAS</arrival_city_code><arrival_city_name>Tashkent</arrival_city_name><planes>752</planes><plane_name>Boeing 757-200</plane_name></routes><routes><airline_iata>D9</airline_iata><departure_airport_iata>AER</departure_airport_iata><departure_name_airport>Sochi/Adler International Airport</departure_name_airport><departure_coordinates_lon>39.941105</departure_coordinates_lon><departure_coordinates_lat>43.44884</departure_coordinates_lat><departure_country_code>RU</departure_country_code><departure_country_name>Russia</departure_country_name><departure_city_code>AER</departure_city_code><departure_city_name>Sochi</departure_city_name><arrival_airport_iata>TAS</arrival_airport_iata><arrival_name_airport>Tashkent International</arrival_name_airport><arrival_coordinates_lon>69.26619</arrival_coordinates_lon><arrival_coordinates_lat>41.262714</arrival_coordinates_lat><arrival_country_code>UZ</arrival_country_code><arrival_country_name>Uzbekistan</arrival_country_name><arrival_city_code>TAS</arrival_city_code><arrival_city_name>Tashkent</arrival_city_name><planes>735</planes><plane_name>Boeing 737-500</plane_name></routes><routes><airline_iata>D9</airline_iata><departure_airport_iata>MRV</departure_airport_iata><departure_name_airport>Mineralnye Vodyj</departure_name_airport><departure_coordinates_lon>43.085815</departure_coordinates_lon><departure_coordinates_lat>44.218105</departure_coordinates_lat><departure_country_code>RU</departure_country_code><departure_country_name>Russia</departure_country_name><departure_city_code>MRV</departure_city_code><departure_city_name>Mineralnye Vody</departure_city_name><arrival_airport_iata>TAS</arrival_airport_iata><arrival_name_airport>Tashkent International</arrival_name_airport><arrival_coordinates_lon>69.26619</arrival_coordinates_lon><arrival_coordinates_lat>41.262714</arrival_coordinates_lat><arrival_country_code>UZ</arrival_country_code><arrival_country_name>Uzbekistan</arrival_country_name><arrival_city_code>TAS</arrival_city_code><arrival_city_name>Tashkent</arrival_city_name><planes>319</planes><plane_name>Airbus Industrie A319</plane_name></routes><routes><airline_iata>D9</airline_iata><departure_airport_iata>ROV</departure_airport_iata><departure_name_airport>Rostov</departure_name_airport><departure_coordinates_lon>39.75</departure_coordinates_lon><departure_coordinates_lat>47.25</departure_coordinates_lat><departure_country_code>RU</departure_country_code><departure_country_name>Russia</departure_country_name><departure_city_code>ROV</departure_city_code><departure_city_name>Rostov</departure_city_name><arrival_airport_iata>TAS</arrival_airport_iata><arrival_name_airport>Tashkent International</arrival_name_airport><arrival_coordinates_lon>69.26619</arrival_coordinates_lon><arrival_coordinates_lat>41.262714</arrival_coordinates_lat><arrival_country_code>UZ</arrival_country_code><arrival_country_name>Uzbekistan</arrival_country_name><arrival_city_code>TAS</arrival_city_code><arrival_city_name>Tashkent</arrival_city_name><planes>735</planes><plane_name>Boeing 737-500</plane_name></routes><routes><airline_iata>DV</airline_iata><departure_airport_iata>ALA</departure_airport_iata><departure_name_airport>Almaty</departure_name_airport><departure_coordinates_lon>77.01145</departure_coordinates_lon><departure_coordinates_lat>43.346653</departure_coordinates_lat><departure_country_code>KZ</departure_country_code><departure_country_name>Kazakhstan</departure_country_name><departure_city_code>ALA</departure_city_code><departure_city_name>Almaty</departure_city_name><arrival_airport_iata>TAS</arrival_airport_iata><arrival_name_airport>Tashkent International</arrival_name_airport><arrival_coordinates_lon>69.26619</arrival_coordinates_lon><arrival_coordinates_lat>41.262714</arrival_coordinates_lat><arrival_country_code>UZ</arrival_country_code><arrival_country_name>Uzbekistan</arrival_country_name><arrival_city_code>TAS</arrival_city_code><arrival_city_name>Tashkent</arrival_city_name><planes>CRJ</planes><plane_name>Canadair Regional Jet</plane_name></routes><routes><airline_iata>FV</airline_iata><departure_airport_iata>LED</departure_airport_iata><departure_name_airport>Pulkovo</departure_name_airport><departure_coordinates_lon>30.3083</departure_coordinates_lon><departure_coordinates_lat>59.806084</departure_coordinates_lat><departure_country_code>RU</departure_country_code><departure_country_name>Russia</departure_country_name><departure_city_code>LED</departure_city_code><departure_city_name>Saint Petersburg</departure_city_name><arrival_airport_iata>BHK</arrival_airport_iata><arrival_name_airport>Bukhara</arrival_name_airport><arrival_coordinates_lon>64.47479</arrival_coordinates_lon><arrival_coordinates_lat>39.76037</arrival_coordinates_lat><arrival_country_code>UZ</arrival_country_code><arrival_country_name>Uzbekistan</arrival_country_name><arrival_city_code>BHK</arrival_city_code><arrival_city_name>Bukhara</arrival_city_name><planes>319</planes><plane_name>Airbus Industrie A319</plane_name></routes><routes><airline_iata>FV</airline_iata><departure_airport_iata>LED</departure_airport_iata><departure_name_airport>Pulkovo</departure_name_airport><departure_coordinates_lon>30.3083</departure_coordinates_lon><departure_coordinates_lat>59.806084</departure_coordinates_lat><departure_country_code>RU</departure_country_code><departure_country_name>Russia</departure_country_name><departure_city_code>LED</departure_city_code><departure_city_name>Saint Petersburg</departure_city_name><arrival_airport_iata>FEG</arrival_airport_iata><arrival_name_airport>Fergana</arrival_name_airport><arrival_coordinates_lon>71.73361</arrival_coordinates_lon><arrival_coordinates_lat>40.350277</arrival_coordinates_lat><arrival_country_code>UZ</arrival_country_code><arrival_country_name>Uzbekistan</arrival_country_name><arrival_city_code>FEG</arrival_city_code><arrival_city_name>Fergana</arrival_city_name><planes>320</planes><plane_name>Airbus Industrie A320</plane_name></routes><routes><airline_iata>FV</airline_iata><departure_airport_iata>LED</departure_airport_iata><departure_name_airport>Pulkovo</departure_name_airport><departure_coordinates_lon>30.3083</departure_coordinates_lon><departure_coordinates_lat>59.806084</departure_coordinates_lat><departure_country_code>RU</departure_country_code><departure_country_name>Russia</departure_country_name><departure_city_code>LED</departure_city_code><departure_city_name>Saint Petersburg</departure_city_name><arrival_airport_iata>KSQ</arrival_airport_iata><arrival_name_airport>Karshi</arrival_name_airport><arrival_coordinates_lon>65.77531</arrival_coordinates_lon><arrival_coordinates_lat>38.80981</arrival_coordinates_lat><arrival_country_code>UZ</arrival_country_code><arrival_country_name>Uzbekistan</arrival_country_name><arrival_city_code>KSQ</arrival_city_code><arrival_city_name>Karshi</arrival_city_name><planes>320</planes><plane_name>Airbus Industrie A320</plane_name></routes><routes><airline_iata>FV</airline_iata><departure_airport_iata>LED</departure_airport_iata><departure_name_airport>Pulkovo</departure_name_airport><departure_coordinates_lon>30.3083</departure_coordinates_lon><departure_coordinates_lat>59.806084</departure_coordinates_lat><departure_country_code>RU</departure_country_code><departure_country_name>Russia</departure_country_name><departure_city_code>LED</departure_city_code><departure_city_name>Saint Petersburg</departure_city_name><arrival_airport_iata>NCU</arrival_airport_iata><arrival_name_airport>Nukus</arrival_name_airport><arrival_coordinates_lon>59.63333</arrival_coordinates_lon><arrival_coordinates_lat>42.483334</arrival_coordinates_lat><arrival_country_code>UZ</arrival_country_code><arrival_country_name>Uzbekistan</arrival_country_name><arrival_city_code>NCU</arrival_city_code><arrival_city_name>Nukus</arrival_city_name><planes>320</planes><plane_name>Airbus Industrie A320</plane_name></routes><routes><airline_iata>FV</airline_iata><departure_airport_iata>LED</departure_airport_iata><departure_name_airport>Pulkovo</departure_name_airport><departure_coordinates_lon>30.3083</departure_coordinates_lon><departure_coordinates_lat>59.806084</departure_coordinates_lat><departure_country_code>RU</departure_country_code><departure_country_name>Russia</departure_country_name><departure_city_code>LED</departure_city_code><departure_city_name>Saint Petersburg</departure_city_name><arrival_airport_iata>NMA</arrival_airport_iata><arrival_name_airport>Namangan</arrival_name_airport><arrival_coordinates_lon>71.6</arrival_coordinates_lon><arrival_coordinates_lat>40.983334</arrival_coordinates_lat><arrival_country_code>UZ</arrival_country_code><arrival_country_name>Uzbekistan</arrival_country_name><arrival_city_code>NMA</arrival_city_code><arrival_city_name>Namangan</arrival_city_name><planes>763</planes><plane_name>Boeing 767-300</plane_name></routes><routes><airline_iata>FV</airline_iata><departure_airport_iata>LED</departure_airport_iata><departure_name_airport>Pulkovo</departure_name_airport><departure_coordinates_lon>30.3083</departure_coordinates_lon><departure_coordinates_lat>59.806084</departure_coordinates_lat><departure_country_code>RU</departure_country_code><departure_country_name>Russia</departure_country_name><departure_city_code>LED</departure_city_code><departure_city_name>Saint Petersburg</departure_city_name><arrival_airport_iata>NVI</arrival_airport_iata><arrival_name_airport>Navoi International Airport</arrival_name_airport><arrival_coordinates_lon>65.159164</arrival_coordinates_lon><arrival_coordinates_lat>40.115</arrival_coordinates_lat><arrival_country_code>UZ</arrival_country_code><arrival_country_name>Uzbekistan</arrival_country_name><arrival_city_code>NVI</arrival_city_code><arrival_city_name>Navoi</arrival_city_name><planes>319</planes><plane_name>Airbus Industrie A319</plane_name></routes><routes><airline_iata>FV</airline_iata><departure_airport_iata>LED</departure_airport_iata><departure_name_airport>Pulkovo</departure_name_airport><departure_coordinates_lon>30.3083</departure_coordinates_lon><departure_coordinates_lat>59.806084</departure_coordinates_lat><departure_country_code>RU</departure_country_code><departure_country_name>Russia</departure_country_name><departure_city_code>LED</departure_city_code><departure_city_name>Saint Petersburg</departure_city_name><arrival_airport_iata>SKD</arrival_airport_iata><arrival_name_airport>Samarkand</arrival_name_airport><arrival_coordinates_lon>66.99085</arrival_coordinates_lon><arrival_coordinates_lat>39.696217</arrival_coordinates_lat><arrival_country_code>UZ</arrival_country_code><arrival_country_name>Uzbekistan</arrival_country_name><arrival_city_code>SKD</arrival_city_code><arrival_city_name>Samarkand</arrival_city_name><planes>763</planes><plane_name>Boeing 767-300</plane_name></routes><routes><airline_iata>FV</airline_iata><departure_airport_iata>LED</departure_airport_iata><departure_name_airport>Pulkovo</departure_name_airport><departure_coordinates_lon>30.3083</departure_coordinates_lon><departure_coordinates_lat>59.806084</departure_coordinates_lat><departure_country_code>RU</departure_country_code><departure_country_name>Russia</departure_country_name><departure_city_code>LED</departure_city_code><departure_city_name>Saint Petersburg</departure_city_name><arrival_airport_iata>TAS</arrival_airport_iata><arrival_name_airport>Tashkent International</arrival_name_airport><arrival_coordinates_lon>69.26619</arrival_coordinates_lon><arrival_coordinates_lat>41.262714</arrival_coordinates_lat><arrival_country_code>UZ</arrival_country_code><arrival_country_name>Uzbekistan</arrival_country_name><arrival_city_code>TAS</arrival_city_code><arrival_city_name>Tashkent</arrival_city_name><planes>763</planes><plane_name>Boeing 767-300</plane_name></routes><routes><airline_iata>FV</airline_iata><departure_airport_iata>LED</departure_airport_iata><departure_name_airport>Pulkovo</departure_name_airport><departure_coordinates_lon>30.3083</departure_coordinates_lon><departure_coordinates_lat>59.806084</departure_coordinates_lat><departure_country_code>RU</departure_country_code><departure_country_name>Russia</departure_country_name><departure_city_code>LED</departure_city_code><departure_city_name>Saint Petersburg</departure_city_name><arrival_airport_iata>UGC</arrival_airport_iata><arrival_name_airport>Urgench</arrival_name_airport><arrival_coordinates_lon>60.63303</arrival_coordinates_lon><arrival_coordinates_lat>41.584835</arrival_coordinates_lat><arrival_country_code>UZ</arrival_country_code><arrival_country_name>Uzbekistan</arrival_country_name><arrival_city_code>UGC</arrival_city_code><arrival_city_name>Urgench</arrival_city_name><planes>320</planes><plane_name>Airbus Industrie A320</plane_name></routes><routes><airline_iata>HY</airline_iata><departure_airport_iata>AER</departure_airport_iata><departure_name_airport>Sochi/Adler International Airport</departure_name_airport><departure_coordinates_lon>39.941105</departure_coordinates_lon><departure_coordinates_lat>43.44884</departure_coordinates_lat><departure_country_code>RU</departure_country_code><departure_country_name>Russia</departure_country_name><departure_city_code>AER</departure_city_code><departure_city_name>Sochi</departure_city_name><arrival_airport_iata>TAS</arrival_airport_iata><arrival_name_airport>Tashkent International</arrival_name_airport><arrival_coordinates_lon>69.26619</arrival_coordinates_lon><arrival_coordinates_lat>41.262714</arrival_coordinates_lat><arrival_country_code>UZ</arrival_country_code><arrival_country_name>Uzbekistan</arrival_country_name><arrival_city_code>TAS</arrival_city_code><arrival_city_name>Tashkent</arrival_city_name><planes>320</planes><plane_name>Airbus Industrie A320</plane_name></routes><routes><airline_iata>HY</airline_iata><departure_airport_iata>ALA</departure_airport_iata><departure_name_airport>Almaty</departure_name_airport><departure_coordinates_lon>77.01145</departure_coordinates_lon><departure_coordinates_lat>43.346653</departure_coordinates_lat><departure_country_code>KZ</departure_country_code><departure_country_name>Kazakhstan</departure_country_name><departure_city_code>ALA</departure_city_code><departure_city_name>Almaty</departure_city_name><arrival_airport_iata>TAS</arrival_airport_iata><arrival_name_airport>Tashkent International</arrival_name_airport><arrival_coordinates_lon>69.26619</arrival_coordinates_lon><arrival_coordinates_lat>41.262714</arrival_coordinates_lat><arrival_country_code>UZ</arrival_country_code><arrival_country_name>Uzbekistan</arrival_country_name><arrival_city_code>TAS</arrival_city_code><arrival_city_name>Tashkent</arrival_city_name><planes>AR8</planes><plane_name>Avro RJ85 Avroliner</plane_name></routes><routes><airline_iata>HY</airline_iata><departure_airport_iata>ASB</departure_airport_iata><departure_name_airport>Ashgabat</departure_name_airport><departure_coordinates_lon>58.366978</departure_coordinates_lon><departure_coordinates_lat>37.984184</departure_coordinates_lat><departure_country_code>TM</departure_country_code><departure_country_name>Turkmenistan</departure_country_name><departure_city_code>ASB</departure_city_code><departure_city_name>Ashgabat</departure_city_name><arrival_airport_iata>TAS</arrival_airport_iata><arrival_name_airport>Tashkent International</arrival_name_airport><arrival_coordinates_lon>69.26619</arrival_coordinates_lon><arrival_coordinates_lat>41.262714</arrival_coordinates_lat><arrival_country_code>UZ</arrival_country_code><arrival_country_name>Uzbekistan</arrival_country_name><arrival_city_code>TAS</arrival_city_code><arrival_city_name>Tashkent</arrival_city_name><planes>AR8</planes><plane_name>Avro RJ85 Avroliner</plane_name></routes><routes><airline_iata>HY</airline_iata><departure_airport_iata>ATQ</departure_airport_iata><departure_name_airport>Raja Sansi International Airport</departure_name_airport><departure_coordinates_lon>74.8073</departure_coordinates_lon><departure_coordinates_lat>31.706741</departure_coordinates_lat><departure_country_code>IN</departure_country_code><departure_country_name>India</departure_country_name><departure_city_code>ATQ</departure_city_code><departure_city_name>Amritsar</departure_city_name><arrival_airport_iata>TAS</arrival_airport_iata><arrival_name_airport>Tashkent International</arrival_name_airport><arrival_coordinates_lon>69.26619</arrival_coordinates_lon><arrival_coordinates_lat>41.262714</arrival_coordinates_lat><arrival_country_code>UZ</arrival_country_code><arrival_country_name>Uzbekistan</arrival_country_name><arrival_city_code>TAS</arrival_city_code><arrival_city_name>Tashkent</arrival_city_name><planes>320</planes><plane_name>Airbus Industrie A320</plane_name></routes><routes><airline_iata>HY</airline_iata><departure_airport_iata>AZN</departure_airport_iata><departure_name_airport>Andizhan</departure_name_airport><departure_coordinates_lon>72.3</departure_coordinates_lon><departure_coordinates_lat>40.733334</departure_coordinates_lat><departure_country_code>UZ</departure_country_code><departure_country_name>Uzbekistan</departure_country_name><departure_city_code>AZN</departure_city_code><departure_city_name>Andizhan</departure_city_name><arrival_airport_iata>TAS</arrival_airport_iata><arrival_name_airport>Tashkent International</arrival_name_airport><arrival_coordinates_lon>69.26619</arrival_coordinates_lon><arrival_coordinates_lat>41.262714</arrival_coordinates_lat><arrival_country_code>UZ</arrival_country_code><arrival_country_name>Uzbekistan</arrival_country_name><arrival_city_code>TAS</arrival_city_code><arrival_city_name>Tashkent</arrival_city_name><planes>752</planes><plane_name>Boeing 757-200</plane_name></routes><routes><airline_iata>HY</airline_iata><departure_airport_iata>BHK</departure_airport_iata><departure_name_airport>Bukhara</departure_name_airport><departure_coordinates_lon>64.47479</departure_coordinates_lon><departure_coordinates_lat>39.76037</departure_coordinates_lat><departure_country_code>UZ</departure_country_code><departure_country_name>Uzbekistan</departure_country_name><departure_city_code>BHK</departure_city_code><departure_city_name>Bukhara</departure_city_name><arrival_airport_iata>TAS</arrival_airport_iata><arrival_name_airport>Tashkent International</arrival_name_airport><arrival_coordinates_lon>69.26619</arrival_coordinates_lon><arrival_coordinates_lat>41.262714</arrival_coordinates_lat><arrival_country_code>UZ</arrival_country_code><arrival_country_name>Uzbekistan</arrival_country_name><arrival_city_code>TAS</arrival_city_code><arrival_city_name>Tashkent</arrival_city_name><planes>AR8</planes><plane_name>Avro RJ85 Avroliner</plane_name></routes><routes><airline_iata>HY</airline_iata><departure_airport_iata>BKK</departure_airport_iata><departure_name_airport>Suvarnabhumi International</departure_name_airport><departure_coordinates_lon>100.752045</departure_coordinates_lon><departure_coordinates_lat>13.693062</departure_coordinates_lat><departure_country_code>TH</departure_country_code><departure_country_name>Thailand</departure_country_name><departure_city_code>BKK</departure_city_code><departure_city_name>Bangkok</departure_city_name><arrival_airport_iata>TAS</arrival_airport_iata><arrival_name_airport>Tashkent International</arrival_name_airport><arrival_coordinates_lon>69.26619</arrival_coordinates_lon><arrival_coordinates_lat>41.262714</arrival_coordinates_lat><arrival_country_code>UZ</arrival_country_code><arrival_country_name>Uzbekistan</arrival_country_name><arrival_city_code>TAS</arrival_city_code><arrival_city_name>Tashkent</arrival_city_name><planes>764</planes><plane_name>Boeing 767-400</plane_name></routes><routes><airline_iata>HY</airline_iata><departure_airport_iata>CDG</departure_airport_iata><departure_name_airport>Charles De Gaulle</departure_name_airport><departure_coordinates_lon>2.567023</departure_coordinates_lon><departure_coordinates_lat>49.003197</departure_coordinates_lat><departure_country_code>FR</departure_country_code><departure_country_name>France</departure_country_name><departure_city_code>PAR</departure_city_code><departure_city_name>Paris</departure_city_name><arrival_airport_iata>TAS</arrival_airport_iata><arrival_name_airport>Tashkent International</arrival_name_airport><arrival_coordinates_lon>69.26619</arrival_coordinates_lon><arrival_coordinates_lat>41.262714</arrival_coordinates_lat><arrival_country_code>UZ</arrival_country_code><arrival_country_name>Uzbekistan</arrival_country_name><arrival_city_code>TAS</arrival_city_code><arrival_city_name>Tashkent</arrival_city_name><planes>763</planes><plane_name>Boeing 767-300</plane_name></routes><routes><airline_iata>HY</airline_iata><departure_airport_iata>CDG</departure_airport_iata><departure_name_airport>Charles De Gaulle</departure_name_airport><departure_coordinates_lon>2.567023</departure_coordinates_lon><departure_coordinates_lat>49.003197</departure_coordinates_lat><departure_country_code>FR</departure_country_code><departure_country_name>France</departure_country_name><departure_city_code>PAR</departure_city_code><departure_city_name>Paris</departure_city_name><arrival_airport_iata>UGC</arrival_airport_iata><arrival_name_airport>Urgench</arrival_name_airport><arrival_coordinates_lon>60.63303</arrival_coordinates_lon><arrival_coordinates_lat>41.584835</arrival_coordinates_lat><arrival_country_code>UZ</arrival_country_code><arrival_country_name>Uzbekistan</arrival_country_name><arrival_city_code>UGC</arrival_city_code><arrival_city_name>Urgench</arrival_city_name><planes>752</planes><plane_name>Boeing 757-200</plane_name></routes><routes><airline_iata>HY</airline_iata><departure_airport_iata>DEL</departure_airport_iata><departure_name_airport>Indira Gandhi International</departure_name_airport><departure_coordinates_lon>77.10079</departure_coordinates_lon><departure_coordinates_lat>28.556555</departure_coordinates_lat><departure_country_code>IN</departure_country_code><departure_country_name>India</departure_country_name><departure_city_code>DEL</departure_city_code><departure_city_name>New Delhi</departure_city_name><arrival_airport_iata>TAS</arrival_airport_iata><arrival_name_airport>Tashkent International</arrival_name_airport><arrival_coordinates_lon>69.26619</arrival_coordinates_lon><arrival_coordinates_lat>41.262714</arrival_coordinates_lat><arrival_country_code>UZ</arrival_country_code><arrival_country_name>Uzbekistan</arrival_country_name><arrival_city_code>TAS</arrival_city_code><arrival_city_name>Tashkent</arrival_city_name><planes>313</planes><plane_name>Airbus Industrie A310-300</plane_name></routes><routes><airline_iata>HY</airline_iata><departure_airport_iata>DME</departure_airport_iata><departure_name_airport>Domodedovo</departure_name_airport><departure_coordinates_lon>37.899494</departure_coordinates_lon><departure_coordinates_lat>55.414566</departure_coordinates_lat><departure_country_code>RU</departure_country_code><departure_country_name>Russia</departure_country_name><departure_city_code>MOW</departure_city_code><departure_city_name>Moscow</departure_city_name><arrival_airport_iata>AZN</arrival_airport_iata><arrival_name_airport>Andizhan</arrival_name_airport><arrival_coordinates_lon>72.3</arrival_coordinates_lon><arrival_coordinates_lat>40.733334</arrival_coordinates_lat><arrival_country_code>UZ</arrival_country_code><arrival_country_name>Uzbekistan</arrival_country_name><arrival_city_code>AZN</arrival_city_code><arrival_city_name>Andizhan</arrival_city_name><planes>752</planes><plane_name>Boeing 757-200</plane_name></routes><routes><airline_iata>HY</airline_iata><departure_airport_iata>DME</departure_airport_iata><departure_name_airport>Domodedovo</departure_name_airport><departure_coordinates_lon>37.899494</departure_coordinates_lon><departure_coordinates_lat>55.414566</departure_coordinates_lat><departure_country_code>RU</departure_country_code><departure_country_name>Russia</departure_country_name><departure_city_code>MOW</departure_city_code><departure_city_name>Moscow</departure_city_name><arrival_airport_iata>BHK</arrival_airport_iata><arrival_name_airport>Bukhara</arrival_name_airport><arrival_coordinates_lon>64.47479</arrival_coordinates_lon><arrival_coordinates_lat>39.76037</arrival_coordinates_lat><arrival_country_code>UZ</arrival_country_code><arrival_country_name>Uzbekistan</arrival_country_name><arrival_city_code>BHK</arrival_city_code><arrival_city_name>Bukhara</arrival_city_name><planes>320</planes><plane_name>Airbus Industrie A320</plane_name></routes><routes><airline_iata>HY</airline_iata><departure_airport_iata>DME</departure_airport_iata><departure_name_airport>Domodedovo</departure_name_airport><departure_coordinates_lon>37.899494</departure_coordinates_lon><departure_coordinates_lat>55.414566</departure_coordinates_lat><departure_country_code>RU</departure_country_code><departure_country_name>Russia</departure_country_name><departure_city_code>MOW</departure_city_code><departure_city_name>Moscow</departure_city_name><arrival_airport_iata>FEG</arrival_airport_iata><arrival_name_airport>Fergana</arrival_name_airport><arrival_coordinates_lon>71.73361</arrival_coordinates_lon><arrival_coordinates_lat>40.350277</arrival_coordinates_lat><arrival_country_code>UZ</arrival_country_code><arrival_country_name>Uzbekistan</arrival_country_name><arrival_city_code>FEG</arrival_city_code><arrival_city_name>Fergana</arrival_city_name><planes>320</planes><plane_name>Airbus Industrie A320</plane_name></routes><routes><airline_iata>HY</airline_iata><departure_airport_iata>DME</departure_airport_iata><departure_name_airport>Domodedovo</departure_name_airport><departure_coordinates_lon>37.899494</departure_coordinates_lon><departure_coordinates_lat>55.414566</departure_coordinates_lat><departure_country_code>RU</departure_country_code><departure_country_name>Russia</departure_country_name><departure_city_code>MOW</departure_city_code><departure_city_name>Moscow</departure_city_name><arrival_airport_iata>KSQ</arrival_airport_iata><arrival_name_airport>Karshi</arrival_name_airport><arrival_coordinates_lon>65.77531</arrival_coordinates_lon><arrival_coordinates_lat>38.80981</arrival_coordinates_lat><arrival_country_code>UZ</arrival_country_code><arrival_country_name>Uzbekistan</arrival_country_name><arrival_city_code>KSQ</arrival_city_code><arrival_city_name>Karshi</arrival_city_name><planes>320</planes><plane_name>Airbus Industrie A320</plane_name></routes><routes><airline_iata>HY</airline_iata><departure_airport_iata>DME</departure_airport_iata><departure_name_airport>Domodedovo</departure_name_airport><departure_coordinates_lon>37.899494</departure_coordinates_lon><departure_coordinates_lat>55.414566</departure_coordinates_lat><departure_country_code>RU</departure_country_code><departure_country_name>Russia</departure_country_name><departure_city_code>MOW</departure_city_code><departure_city_name>Moscow</departure_city_name><arrival_airport_iata>NCU</arrival_airport_iata><arrival_name_airport>Nukus</arrival_name_airport><arrival_coordinates_lon>59.63333</arrival_coordinates_lon><arrival_coordinates_lat>42.483334</arrival_coordinates_lat><arrival_country_code>UZ</arrival_country_code><arrival_country_name>Uzbekistan</arrival_country_name><arrival_city_code>NCU</arrival_city_code><arrival_city_name>Nukus</arrival_city_name><planes>320</planes><plane_name>Airbus Industrie A320</plane_name></routes><routes><airline_iata>HY</airline_iata><departure_airport_iata>DME</departure_airport_iata><departure_name_airport>Domodedovo</departure_name_airport><departure_coordinates_lon>37.899494</departure_coordinates_lon><departure_coordinates_lat>55.414566</departure_coordinates_lat><departure_country_code>RU</departure_country_code><departure_country_name>Russia</departure_country_name><departure_city_code>MOW</departure_city_code><departure_city_name>Moscow</departure_city_name><arrival_airport_iata>NMA</arrival_airport_iata><arrival_name_airport>Namangan</arrival_name_airport><arrival_coordinates_lon>71.6</arrival_coordinates_lon><arrival_coordinates_lat>40.983334</arrival_coordinates_lat><arrival_country_code>UZ</arrival_country_code><arrival_country_name>Uzbekistan</arrival_country_name><arrival_city_code>NMA</arrival_city_code><arrival_city_name>Namangan</arrival_city_name><planes>752</planes><plane_name>Boeing 757-200</plane_name></routes><routes><airline_iata>HY</airline_iata><departure_airport_iata>DME</departure_airport_iata><departure_name_airport>Domodedovo</departure_name_airport><departure_coordinates_lon>37.899494</departure_coordinates_lon><departure_coordinates_lat>55.414566</departure_coordinates_lat><departure_country_code>RU</departure_country_code><departure_country_name>Russia</departure_country_name><departure_city_code>MOW</departure_city_code><departure_city_name>Moscow</departure_city_name><arrival_airport_iata>NVI</arrival_airport_iata><arrival_name_airport>Navoi International Airport</arrival_name_airport><arrival_coordinates_lon>65.159164</arrival_coordinates_lon><arrival_coordinates_lat>40.115</arrival_coordinates_lat><arrival_country_code>UZ</arrival_country_code><arrival_country_name>Uzbekistan</arrival_country_name><arrival_city_code>NVI</arrival_city_code><arrival_city_name>Navoi</arrival_city_name><planes>320</planes><plane_name>Airbus Industrie A320</plane_name></routes><routes><airline_iata>HY</airline_iata><departure_airport_iata>DME</departure_airport_iata><departure_name_airport>Domodedovo</departure_name_airport><departure_coordinates_lon>37.899494</departure_coordinates_lon><departure_coordinates_lat>55.414566</departure_coordinates_lat><departure_country_code>RU</departure_country_code><departure_country_name>Russia</departure_country_name><departure_city_code>MOW</departure_city_code><departure_city_name>Moscow</departure_city_name><arrival_airport_iata>SKD</arrival_airport_iata><arrival_name_airport>Samarkand</arrival_name_airport><arrival_coordinates_lon>66.99085</arrival_coordinates_lon><arrival_coordinates_lat>39.696217</arrival_coordinates_lat><arrival_country_code>UZ</arrival_country_code><arrival_country_name>Uzbekistan</arrival_country_name><arrival_city_code>SKD</arrival_city_code><arrival_city_name>Samarkand</arrival_city_name><planes>752</planes><plane_name>Boeing 757-200</plane_name></routes><routes><airline_iata>HY</airline_iata><departure_airport_iata>DME</departure_airport_iata><departure_name_airport>Domodedovo</departure_name_airport><departure_coordinates_lon>37.899494</departure_coordinates_lon><departure_coordinates_lat>55.414566</departure_coordinates_lat><departure_country_code>RU</departure_country_code><departure_country_name>Russia</departure_country_name><departure_city_code>MOW</departure_city_code><departure_city_name>Moscow</departure_city_name><arrival_airport_iata>TAS</arrival_airport_iata><arrival_name_airport>Tashkent International</arrival_name_airport><arrival_coordinates_lon>69.26619</arrival_coordinates_lon><arrival_coordinates_lat>41.262714</arrival_coordinates_lat><arrival_country_code>UZ</arrival_country_code><arrival_country_name>Uzbekistan</arrival_country_name><arrival_city_code>TAS</arrival_city_code><arrival_city_name>Tashkent</arrival_city_name><planes>763</planes><plane_name>Boeing 767-300</plane_name></routes><routes><airline_iata>HY</airline_iata><departure_airport_iata>DME</departure_airport_iata><departure_name_airport>Domodedovo</departure_name_airport><departure_coordinates_lon>37.899494</departure_coordinates_lon><departure_coordinates_lat>55.414566</departure_coordinates_lat><departure_country_code>RU</departure_country_code><departure_country_name>Russia</departure_country_name><departure_city_code>MOW</departure_city_code><departure_city_name>Moscow</departure_city_name><arrival_airport_iata>TMJ</arrival_airport_iata><arrival_name_airport>Termez</arrival_name_airport><arrival_coordinates_lon>67.318954</arrival_coordinates_lon><arrival_coordinates_lat>37.280502</arrival_coordinates_lat><arrival_country_code>UZ</arrival_country_code><arrival_country_name>Uzbekistan</arrival_country_name><arrival_city_code>TMJ</arrival_city_code><arrival_city_name>Termez</arrival_city_name><planes>752</planes><plane_name>Boeing 757-200</plane_name></routes><routes><airline_iata>HY</airline_iata><departure_airport_iata>DME</departure_airport_iata><departure_name_airport>Domodedovo</departure_name_airport><departure_coordinates_lon>37.899494</departure_coordinates_lon><departure_coordinates_lat>55.414566</departure_coordinates_lat><departure_country_code>RU</departure_country_code><departure_country_name>Russia</departure_country_name><departure_city_code>MOW</departure_city_code><departure_city_name>Moscow</departure_city_name><arrival_airport_iata>UGC</arrival_airport_iata><arrival_name_airport>Urgench</arrival_name_airport><arrival_coordinates_lon>60.63303</arrival_coordinates_lon><arrival_coordinates_lat>41.584835</arrival_coordinates_lat><arrival_country_code>UZ</arrival_country_code><arrival_country_name>Uzbekistan</arrival_country_name><arrival_city_code>UGC</arrival_city_code><arrival_city_name>Urgench</arrival_city_name><planes>752</planes><plane_name>Boeing 757-200</plane_name></routes><routes><airline_iata>HY</airline_iata><departure_airport_iata>DXB</departure_airport_iata><departure_name_airport>Dubai</departure_name_airport><departure_coordinates_lon>55.352917</departure_coordinates_lon><departure_coordinates_lat>25.248665</departure_coordinates_lat><departure_country_code>AE</departure_country_code><departure_country_name>United Arab Emirates</departure_country_name><departure_city_code>DXB</departure_city_code><departure_city_name>Dubai</departure_city_name><arrival_airport_iata>TAS</arrival_airport_iata><arrival_name_airport>Tashkent International</arrival_name_airport><arrival_coordinates_lon>69.26619</arrival_coordinates_lon><arrival_coordinates_lat>41.262714</arrival_coordinates_lat><arrival_country_code>UZ</arrival_country_code><arrival_country_name>Uzbekistan</arrival_country_name><arrival_city_code>TAS</arrival_city_code><arrival_city_name>Tashkent</arrival_city_name><planes>313</planes><plane_name>Airbus Industrie A310-300</plane_name></routes><routes><airline_iata>HY</airline_iata><departure_airport_iata>FCO</departure_airport_iata><departure_name_airport>Leonardo Da Vinci (Fiumicino)</departure_name_airport><departure_coordinates_lon>12.250346</departure_coordinates_lon><departure_coordinates_lat>41.794594</departure_coordinates_lat><departure_country_code>IT</departure_country_code><departure_country_name>Italy</departure_country_name><departure_city_code>ROM</departure_city_code><departure_city_name>Rome</departure_city_name><arrival_airport_iata>TAS</arrival_airport_iata><arrival_name_airport>Tashkent International</arrival_name_airport><arrival_coordinates_lon>69.26619</arrival_coordinates_lon><arrival_coordinates_lat>41.262714</arrival_coordinates_lat><arrival_country_code>UZ</arrival_country_code><arrival_country_name>Uzbekistan</arrival_country_name><arrival_city_code>TAS</arrival_city_code><arrival_city_name>Tashkent</arrival_city_name><planes>752</planes><plane_name>Boeing 757-200</plane_name></routes><routes><airline_iata>HY</airline_iata><departure_airport_iata>FEG</departure_airport_iata><departure_name_airport>Fergana</departure_name_airport><departure_coordinates_lon>71.73361</departure_coordinates_lon><departure_coordinates_lat>40.350277</departure_coordinates_lat><departure_country_code>UZ</departure_country_code><departure_country_name>Uzbekistan</departure_country_name><departure_city_code>FEG</departure_city_code><departure_city_name>Fergana</departure_city_name><arrival_airport_iata>TAS</arrival_airport_iata><arrival_name_airport>Tashkent International</arrival_name_airport><arrival_coordinates_lon>69.26619</arrival_coordinates_lon><arrival_coordinates_lat>41.262714</arrival_coordinates_lat><arrival_country_code>UZ</arrival_country_code><arrival_country_name>Uzbekistan</arrival_country_name><arrival_city_code>TAS</arrival_city_code><arrival_city_name>Tashkent</arrival_city_name><planes>320</planes><plane_name>Airbus Industrie A320</plane_name></routes><routes><airline_iata>HY</airline_iata><departure_airport_iata>FRA</departure_airport_iata><departure_name_airport>Frankfurt International Airport</departure_name_airport><departure_coordinates_lon>8.570773</departure_coordinates_lon><departure_coordinates_lat>50.050735</departure_coordinates_lat><departure_country_code>DE</departure_country_code><departure_country_name>Germany</departure_country_name><departure_city_code>FRA</departure_city_code><departure_city_name>Frankfurt</departure_city_name><arrival_airport_iata>TAS</arrival_airport_iata><arrival_name_airport>Tashkent International</arrival_name_airport><arrival_coordinates_lon>69.26619</arrival_coordinates_lon><arrival_coordinates_lat>41.262714</arrival_coordinates_lat><arrival_country_code>UZ</arrival_country_code><arrival_country_name>Uzbekistan</arrival_country_name><arrival_city_code>TAS</arrival_city_code><arrival_city_name>Tashkent</arrival_city_name><planes>763</planes><plane_name>Boeing 767-300</plane_name></routes><routes><airline_iata>HY</airline_iata><departure_airport_iata>FRU</departure_airport_iata><departure_name_airport>Manas (Bishkek)</departure_name_airport><departure_coordinates_lon>74.46945</departure_coordinates_lon><departure_coordinates_lat>43.05358</departure_coordinates_lat><departure_country_code>KG</departure_country_code><departure_country_name>Kyrgyzstan</departure_country_name><departure_city_code>FRU</departure_city_code><departure_city_name>Bishkek</departure_city_name><arrival_airport_iata>TAS</arrival_airport_iata><arrival_name_airport>Tashkent International</arrival_name_airport><arrival_coordinates_lon>69.26619</arrival_coordinates_lon><arrival_coordinates_lat>41.262714</arrival_coordinates_lat><arrival_country_code>UZ</arrival_country_code><arrival_country_name>Uzbekistan</arrival_country_name><arrival_city_code>TAS</arrival_city_code><arrival_city_name>Tashkent</arrival_city_name><planes>320</planes><plane_name>Airbus Industrie A320</plane_name></routes><routes><airline_iata>HY</airline_iata><departure_airport_iata>GYD</departure_airport_iata><departure_name_airport>Heydar Aliyev International (Bina International)</departure_name_airport><departure_coordinates_lon>50.05039</departure_coordinates_lon><departure_coordinates_lat>40.462486</departure_coordinates_lat><departure_country_code>AZ</departure_country_code><departure_country_name>Azerbaijan</departure_country_name><departure_city_code>BAK</departure_city_code><departure_city_name>Baku</departure_city_name><arrival_airport_iata>TAS</arrival_airport_iata><arrival_name_airport>Tashkent International</arrival_name_airport><arrival_coordinates_lon>69.26619</arrival_coordinates_lon><arrival_coordinates_lat>41.262714</arrival_coordinates_lat><arrival_country_code>UZ</arrival_country_code><arrival_country_name>Uzbekistan</arrival_country_name><arrival_city_code>TAS</arrival_city_code><arrival_city_name>Tashkent</arrival_city_name><planes>320</planes><plane_name>Airbus Industrie A320</plane_name></routes><routes><airline_iata>HY</airline_iata><departure_airport_iata>ICN</departure_airport_iata><departure_name_airport>Seoul (Incheon)</departure_name_airport><departure_coordinates_lon>126.45123</departure_coordinates_lon><departure_coordinates_lat>37.448524</departure_coordinates_lat><departure_country_code>KR</departure_country_code><departure_country_name>South Korea</departure_country_name><departure_city_code>SEL</departure_city_code><departure_city_name>Seoul</departure_city_name><arrival_airport_iata>TAS</arrival_airport_iata><arrival_name_airport>Tashkent International</arrival_name_airport><arrival_coordinates_lon>69.26619</arrival_coordinates_lon><arrival_coordinates_lat>41.262714</arrival_coordinates_lat><arrival_country_code>UZ</arrival_country_code><arrival_country_name>Uzbekistan</arrival_country_name><arrival_city_code>TAS</arrival_city_code><arrival_city_name>Tashkent</arrival_city_name><planes>752</planes><plane_name>Boeing 757-200</plane_name></routes><routes><airline_iata>HY</airline_iata><departure_airport_iata>ICN</departure_airport_iata><departure_name_airport>Seoul (Incheon)</departure_name_airport><departure_coordinates_lon>126.45123</departure_coordinates_lon><departure_coordinates_lat>37.448524</departure_coordinates_lat><departure_country_code>KR</departure_country_code><departure_country_name>South Korea</departure_country_name><departure_city_code>SEL</departure_city_code><departure_city_name>Seoul</departure_city_name><arrival_airport_iata>TAS</arrival_airport_iata><arrival_name_airport>Tashkent International</arrival_name_airport><arrival_coordinates_lon>69.26619</arrival_coordinates_lon><arrival_coordinates_lat>41.262714</arrival_coordinates_lat><arrival_country_code>UZ</arrival_country_code><arrival_country_name>Uzbekistan</arrival_country_name><arrival_city_code>TAS</arrival_city_code><arrival_city_name>Tashkent</arrival_city_name><planes>333</planes><plane_name>Airbus Industrie A330-300</plane_name></routes><routes><airline_iata>HY</airline_iata><departure_airport_iata>IST</departure_airport_iata><departure_name_airport>Ataturk</departure_name_airport><departure_coordinates_lon>28.815277</departure_coordinates_lon><departure_coordinates_lat>40.976665</departure_coordinates_lat><departure_country_code>TR</departure_country_code><departure_country_name>Turkey</departure_country_name><departure_city_code>IST</departure_city_code><departure_city_name>Istanbul</departure_city_name><arrival_airport_iata>TAS</arrival_airport_iata><arrival_name_airport>Tashkent International</arrival_name_airport><arrival_coordinates_lon>69.26619</arrival_coordinates_lon><arrival_coordinates_lat>41.262714</arrival_coordinates_lat><arrival_country_code>UZ</arrival_country_code><arrival_country_name>Uzbekistan</arrival_country_name><arrival_city_code>TAS</arrival_city_code><arrival_city_name>Tashkent</arrival_city_name><planes>764</planes><plane_name>Boeing 767-400</plane_name></routes><routes><airline_iata>HY</airline_iata><departure_airport_iata>KBP</departure_airport_iata><departure_name_airport>Boryspil (Borispol)</departure_name_airport><departure_coordinates_lon>30.895206</departure_coordinates_lon><departure_coordinates_lat>50.341244</departure_coordinates_lat><departure_country_code>UA</departure_country_code><departure_country_name>Ukraine</departure_country_name><departure_city_code>IEV</departure_city_code><departure_city_name>Kiev</departure_city_name><arrival_airport_iata>TAS</arrival_airport_iata><arrival_name_airport>Tashkent International</arrival_name_airport><arrival_coordinates_lon>69.26619</arrival_coordinates_lon><arrival_coordinates_lat>41.262714</arrival_coordinates_lat><arrival_country_code>UZ</arrival_country_code><arrival_country_name>Uzbekistan</arrival_country_name><arrival_city_code>TAS</arrival_city_code><arrival_city_name>Tashkent</arrival_city_name><planes>763</planes><plane_name>Boeing 767-300</plane_name></routes><routes><airline_iata>HY</airline_iata><departure_airport_iata>KGD</departure_airport_iata><departure_name_airport>Khrabrovo</departure_name_airport><departure_coordinates_lon>20.586645</departure_coordinates_lon><departure_coordinates_lat>54.882656</departure_coordinates_lat><departure_country_code>RU</departure_country_code><departure_country_name>Russia</departure_country_name><departure_city_code>KGD</departure_city_code><departure_city_name>Kaliningrad</departure_city_name><arrival_airport_iata>TAS</arrival_airport_iata><arrival_name_airport>Tashkent International</arrival_name_airport><arrival_coordinates_lon>69.26619</arrival_coordinates_lon><arrival_coordinates_lat>41.262714</arrival_coordinates_lat><arrival_country_code>UZ</arrival_country_code><arrival_country_name>Uzbekistan</arrival_country_name><arrival_city_code>TAS</arrival_city_code><arrival_city_name>Tashkent</arrival_city_name><planes>752</planes><plane_name>Boeing 757-200</plane_name></routes><routes><airline_iata>HY</airline_iata><departure_airport_iata>KJA</departure_airport_iata><departure_name_airport>Krasnojarsk</departure_name_airport><departure_coordinates_lon>92.48286</departure_coordinates_lon><departure_coordinates_lat>56.18113</departure_coordinates_lat><departure_country_code>RU</departure_country_code><departure_country_name>Russia</departure_country_name><departure_city_code>KJA</departure_city_code><departure_city_name>Krasnojarsk</departure_city_name><arrival_airport_iata>TAS</arrival_airport_iata><arrival_name_airport>Tashkent International</arrival_name_airport><arrival_coordinates_lon>69.26619</arrival_coordinates_lon><arrival_coordinates_lat>41.262714</arrival_coordinates_lat><arrival_country_code>UZ</arrival_country_code><arrival_country_name>Uzbekistan</arrival_country_name><arrival_city_code>TAS</arrival_city_code><arrival_city_name>Tashkent</arrival_city_name><planes>320</planes><plane_name>Airbus Industrie A320</plane_name></routes><routes><airline_iata>HY</airline_iata><departure_airport_iata>KRR</departure_airport_iata><departure_name_airport>Pashkovsky</departure_name_airport><departure_coordinates_lon>39.139004</departure_coordinates_lon><departure_coordinates_lat>45.034138</departure_coordinates_lat><departure_country_code>RU</departure_country_code><departure_country_name>Russia</departure_country_name><departure_city_code>KRR</departure_city_code><departure_city_name>Krasnodar</departure_city_name><arrival_airport_iata>TAS</arrival_airport_iata><arrival_name_airport>Tashkent International</arrival_name_airport><arrival_coordinates_lon>69.26619</arrival_coordinates_lon><arrival_coordinates_lat>41.262714</arrival_coordinates_lat><arrival_country_code>UZ</arrival_country_code><arrival_country_name>Uzbekistan</arrival_country_name><arrival_city_code>TAS</arrival_city_code><arrival_city_name>Tashkent</arrival_city_name><planes>320</planes><plane_name>Airbus Industrie A320</plane_name></routes><routes><airline_iata>HY</airline_iata><departure_airport_iata>KSQ</departure_airport_iata><departure_name_airport>Karshi</departure_name_airport><departure_coordinates_lon>65.77531</departure_coordinates_lon><departure_coordinates_lat>38.80981</departure_coordinates_lat><departure_country_code>UZ</departure_country_code><departure_country_name>Uzbekistan</departure_country_name><departure_city_code>KSQ</departure_city_code><departure_city_name>Karshi</departure_city_name><arrival_airport_iata>TAS</arrival_airport_iata><arrival_name_airport>Tashkent International</arrival_name_airport><arrival_coordinates_lon>69.26619</arrival_coordinates_lon><arrival_coordinates_lat>41.262714</arrival_coordinates_lat><arrival_country_code>UZ</arrival_country_code><arrival_country_name>Uzbekistan</arrival_country_name><arrival_city_code>TAS</arrival_city_code><arrival_city_name>Tashkent</arrival_city_name><planes>I14</planes><plane_name>Ilyushin IL-114</plane_name></routes><routes><airline_iata>HY</airline_iata><departure_airport_iata>KUF</departure_airport_iata><departure_name_airport>Kurumoch</departure_name_airport><departure_coordinates_lon>50.14742</departure_coordinates_lon><departure_coordinates_lat>53.50782</departure_coordinates_lat><departure_country_code>RU</departure_country_code><departure_country_name>Russia</departure_country_name><departure_city_code>KUF</departure_city_code><departure_city_name>Samara</departure_city_name><arrival_airport_iata>TAS</arrival_airport_iata><arrival_name_airport>Tashkent International</arrival_name_airport><arrival_coordinates_lon>69.26619</arrival_coordinates_lon><arrival_coordinates_lat>41.262714</arrival_coordinates_lat><arrival_country_code>UZ</arrival_country_code><arrival_country_name>Uzbekistan</arrival_country_name><arrival_city_code>TAS</arrival_city_code><arrival_city_name>Tashkent</arrival_city_name><planes>320</planes><plane_name>Airbus Industrie A320</plane_name></routes><routes><airline_iata>HY</airline_iata><departure_airport_iata>KUL</departure_airport_iata><departure_name_airport>Kuala Lumpur International Airport (klia)</departure_name_airport><departure_coordinates_lon>101.70539</departure_coordinates_lon><departure_coordinates_lat>2.755672</departure_coordinates_lat><departure_country_code>MY</departure_country_code><departure_country_name>Malaysia</departure_country_name><departure_city_code>KUL</departure_city_code><departure_city_name>Kuala Lumpur</departure_city_name><arrival_airport_iata>TAS</arrival_airport_iata><arrival_name_airport>Tashkent International</arrival_name_airport><arrival_coordinates_lon>69.26619</arrival_coordinates_lon><arrival_coordinates_lat>41.262714</arrival_coordinates_lat><arrival_country_code>UZ</arrival_country_code><arrival_country_name>Uzbekistan</arrival_country_name><arrival_city_code>TAS</arrival_city_code><arrival_city_name>Tashkent</arrival_city_name><planes>763</planes><plane_name>Boeing 767-300</plane_name></routes><routes><airline_iata>HY</airline_iata><departure_airport_iata>KZN</departure_airport_iata><departure_name_airport>Kazan</departure_name_airport><departure_coordinates_lon>49.29824</departure_coordinates_lon><departure_coordinates_lat>55.60844</departure_coordinates_lat><departure_country_code>RU</departure_country_code><departure_country_name>Russia</departure_country_name><departure_city_code>KZN</departure_city_code><departure_city_name>Kazan</departure_city_name><arrival_airport_iata>TAS</arrival_airport_iata><arrival_name_airport>Tashkent International</arrival_name_airport><arrival_coordinates_lon>69.26619</arrival_coordinates_lon><arrival_coordinates_lat>41.262714</arrival_coordinates_lat><arrival_country_code>UZ</arrival_country_code><arrival_country_name>Uzbekistan</arrival_country_name><arrival_city_code>TAS</arrival_city_code><arrival_city_name>Tashkent</arrival_city_name><planes>320</planes><plane_name>Airbus Industrie A320</plane_name></routes><routes><airline_iata>HY</airline_iata><departure_airport_iata>LED</departure_airport_iata><departure_name_airport>Pulkovo</departure_name_airport><departure_coordinates_lon>30.3083</departure_coordinates_lon><departure_coordinates_lat>59.806084</departure_coordinates_lat><departure_country_code>RU</departure_country_code><departure_country_name>Russia</departure_country_name><departure_city_code>LED</departure_city_code><departure_city_name>Saint Petersburg</departure_city_name><arrival_airport_iata>AZN</arrival_airport_iata><arrival_name_airport>Andizhan</arrival_name_airport><arrival_coordinates_lon>72.3</arrival_coordinates_lon><arrival_coordinates_lat>40.733334</arrival_coordinates_lat><arrival_country_code>UZ</arrival_country_code><arrival_country_name>Uzbekistan</arrival_country_name><arrival_city_code>AZN</arrival_city_code><arrival_city_name>Andizhan</arrival_city_name><planes>752</planes><plane_name>Boeing 757-200</plane_name></routes><routes><airline_iata>HY</airline_iata><departure_airport_iata>LED</departure_airport_iata><departure_name_airport>Pulkovo</departure_name_airport><departure_coordinates_lon>30.3083</departure_coordinates_lon><departure_coordinates_lat>59.806084</departure_coordinates_lat><departure_country_code>RU</departure_country_code><departure_country_name>Russia</departure_country_name><departure_city_code>LED</departure_city_code><departure_city_name>Saint Petersburg</departure_city_name><arrival_airport_iata>BHK</arrival_airport_iata><arrival_name_airport>Bukhara</arrival_name_airport><arrival_coordinates_lon>64.47479</arrival_coordinates_lon><arrival_coordinates_lat>39.76037</arrival_coordinates_lat><arrival_country_code>UZ</arrival_country_code><arrival_country_name>Uzbekistan</arrival_country_name><arrival_city_code>BHK</arrival_city_code><arrival_city_name>Bukhara</arrival_city_name><planes>752</planes><plane_name>Boeing 757-200</plane_name></routes><routes><airline_iata>HY</airline_iata><departure_airport_iata>LED</departure_airport_iata><departure_name_airport>Pulkovo</departure_name_airport><departure_coordinates_lon>30.3083</departure_coordinates_lon><departure_coordinates_lat>59.806084</departure_coordinates_lat><departure_country_code>RU</departure_country_code><departure_country_name>Russia</departure_country_name><departure_city_code>LED</departure_city_code><departure_city_name>Saint Petersburg</departure_city_name><arrival_airport_iata>KSQ</arrival_airport_iata><arrival_name_airport>Karshi</arrival_name_airport><arrival_coordinates_lon>65.77531</arrival_coordinates_lon><arrival_coordinates_lat>38.80981</arrival_coordinates_lat><arrival_country_code>UZ</arrival_country_code><arrival_country_name>Uzbekistan</arrival_country_name><arrival_city_code>KSQ</arrival_city_code><arrival_city_name>Karshi</arrival_city_name><planes>320</planes><plane_name>Airbus Industrie A320</plane_name></routes><routes><airline_iata>HY</airline_iata><departure_airport_iata>LED</departure_airport_iata><departure_name_airport>Pulkovo</departure_name_airport><departure_coordinates_lon>30.3083</departure_coordinates_lon><departure_coordinates_lat>59.806084</departure_coordinates_lat><departure_country_code>RU</departure_country_code><departure_country_name>Russia</departure_country_name><departure_city_code>LED</departure_city_code><departure_city_name>Saint Petersburg</departure_city_name><arrival_airport_iata>NMA</arrival_airport_iata><arrival_name_airport>Namangan</arrival_name_airport><arrival_coordinates_lon>71.6</arrival_coordinates_lon><arrival_coordinates_lat>40.983334</arrival_coordinates_lat><arrival_country_code>UZ</arrival_country_code><arrival_country_name>Uzbekistan</arrival_country_name><arrival_city_code>NMA</arrival_city_code><arrival_city_name>Namangan</arrival_city_name><planes>752</planes><plane_name>Boeing 757-200</plane_name></routes><routes><airline_iata>HY</airline_iata><departure_airport_iata>LED</departure_airport_iata><departure_name_airport>Pulkovo</departure_name_airport><departure_coordinates_lon>30.3083</departure_coordinates_lon><departure_coordinates_lat>59.806084</departure_coordinates_lat><departure_country_code>RU</departure_country_code><departure_country_name>Russia</departure_country_name><departure_city_code>LED</departure_city_code><departure_city_name>Saint Petersburg</departure_city_name><arrival_airport_iata>SKD</arrival_airport_iata><arrival_name_airport>Samarkand</arrival_name_airport><arrival_coordinates_lon>66.99085</arrival_coordinates_lon><arrival_coordinates_lat>39.696217</arrival_coordinates_lat><arrival_country_code>UZ</arrival_country_code><arrival_country_name>Uzbekistan</arrival_country_name><arrival_city_code>SKD</arrival_city_code><arrival_city_name>Samarkand</arrival_city_name><planes>752</planes><plane_name>Boeing 757-200</plane_name></routes><routes><airline_iata>HY</airline_iata><departure_airport_iata>LED</departure_airport_iata><departure_name_airport>Pulkovo</departure_name_airport><departure_coordinates_lon>30.3083</departure_coordinates_lon><departure_coordinates_lat>59.806084</departure_coordinates_lat><departure_country_code>RU</departure_country_code><departure_country_name>Russia</departure_country_name><departure_city_code>LED</departure_city_code><departure_city_name>Saint Petersburg</departure_city_name><arrival_airport_iata>TAS</arrival_airport_iata><arrival_name_airport>Tashkent International</arrival_name_airport><arrival_coordinates_lon>69.26619</arrival_coordinates_lon><arrival_coordinates_lat>41.262714</arrival_coordinates_lat><arrival_country_code>UZ</arrival_country_code><arrival_country_name>Uzbekistan</arrival_country_name><arrival_city_code>TAS</arrival_city_code><arrival_city_name>Tashkent</arrival_city_name><planes>320</planes><plane_name>Airbus Industrie A320</plane_name></routes><routes><airline_iata>HY</airline_iata><departure_airport_iata>LED</departure_airport_iata><departure_name_airport>Pulkovo</departure_name_airport><departure_coordinates_lon>30.3083</departure_coordinates_lon><departure_coordinates_lat>59.806084</departure_coordinates_lat><departure_country_code>RU</departure_country_code><departure_country_name>Russia</departure_country_name><departure_city_code>LED</departure_city_code><departure_city_name>Saint Petersburg</departure_city_name><arrival_airport_iata>UGC</arrival_airport_iata><arrival_name_airport>Urgench</arrival_name_airport><arrival_coordinates_lon>60.63303</arrival_coordinates_lon><arrival_coordinates_lat>41.584835</arrival_coordinates_lat><arrival_country_code>UZ</arrival_country_code><arrival_country_name>Uzbekistan</arrival_country_name><arrival_city_code>UGC</arrival_city_code><arrival_city_name>Urgench</arrival_city_name><planes>752</planes><plane_name>Boeing 757-200</plane_name></routes><routes><airline_iata>HY</airline_iata><departure_airport_iata>LHE</departure_airport_iata><departure_name_airport>Alama Iqbal International</departure_name_airport><departure_coordinates_lon>74.40278</departure_coordinates_lon><departure_coordinates_lat>31.520832</departure_coordinates_lat><departure_country_code>PK</departure_country_code><departure_country_name>Pakistan</departure_country_name><departure_city_code>LHE</departure_city_code><departure_city_name>Lahore</departure_city_name><arrival_airport_iata>TAS</arrival_airport_iata><arrival_name_airport>Tashkent International</arrival_name_airport><arrival_coordinates_lon>69.26619</arrival_coordinates_lon><arrival_coordinates_lat>41.262714</arrival_coordinates_lat><arrival_country_code>UZ</arrival_country_code><arrival_country_name>Uzbekistan</arrival_country_name><arrival_city_code>TAS</arrival_city_code><arrival_city_name>Tashkent</arrival_city_name><planes>320</planes><plane_name>Airbus Industrie A320</plane_name></routes><routes><airline_iata>HY</airline_iata><departure_airport_iata>LHR</departure_airport_iata><departure_name_airport>Heathrow</departure_name_airport><departure_coordinates_lon>-0.453566</departure_coordinates_lon><departure_coordinates_lat>51.469604</departure_coordinates_lat><departure_country_code>GB</departure_country_code><departure_country_name>United Kingdom</departure_country_name><departure_city_code>LON</departure_city_code><departure_city_name>London</departure_city_name><arrival_airport_iata>TAS</arrival_airport_iata><arrival_name_airport>Tashkent International</arrival_name_airport><arrival_coordinates_lon>69.26619</arrival_coordinates_lon><arrival_coordinates_lat>41.262714</arrival_coordinates_lat><arrival_country_code>UZ</arrival_country_code><arrival_country_name>Uzbekistan</arrival_country_name><arrival_city_code>TAS</arrival_city_code><arrival_city_name>Tashkent</arrival_city_name><planes>752</planes><plane_name>Boeing 757-200</plane_name></routes><routes><airline_iata>HY</airline_iata><departure_airport_iata>MAD</departure_airport_iata><departure_name_airport>Barajas</departure_name_airport><departure_coordinates_lon>-3.570209</departure_coordinates_lon><departure_coordinates_lat>40.46515</departure_coordinates_lat><departure_country_code>ES</departure_country_code><departure_country_name>Spain</departure_country_name><departure_city_code>MAD</departure_city_code><departure_city_name>Madrid</departure_city_name><arrival_airport_iata>TAS</arrival_airport_iata><arrival_name_airport>Tashkent International</arrival_name_airport><arrival_coordinates_lon>69.26619</arrival_coordinates_lon><arrival_coordinates_lat>41.262714</arrival_coordinates_lat><arrival_country_code>UZ</arrival_country_code><arrival_country_name>Uzbekistan</arrival_country_name><arrival_city_code>TAS</arrival_city_code><arrival_city_name>Tashkent</arrival_city_name><planes>313</planes><plane_name>Airbus Industrie A310-300</plane_name></routes><routes><airline_iata>HY</airline_iata><departure_airport_iata>MRV</departure_airport_iata><departure_name_airport>Mineralnye Vodyj</departure_name_airport><departure_coordinates_lon>43.085815</departure_coordinates_lon><departure_coordinates_lat>44.218105</departure_coordinates_lat><departure_country_code>RU</departure_country_code><departure_country_name>Russia</departure_country_name><departure_city_code>MRV</departure_city_code><departure_city_name>Mineralnye Vody</departure_city_name><arrival_airport_iata>TAS</arrival_airport_iata><arrival_name_airport>Tashkent International</arrival_name_airport><arrival_coordinates_lon>69.26619</arrival_coordinates_lon><arrival_coordinates_lat>41.262714</arrival_coordinates_lat><arrival_country_code>UZ</arrival_country_code><arrival_country_name>Uzbekistan</arrival_country_name><arrival_city_code>TAS</arrival_city_code><arrival_city_name>Tashkent</arrival_city_name><planes>320</planes><plane_name>Airbus Industrie A320</plane_name></routes><routes><airline_iata>HY</airline_iata><departure_airport_iata>MXP</departure_airport_iata><departure_name_airport>Milano Malpensa</departure_name_airport><departure_coordinates_lon>8.71237</departure_coordinates_lon><departure_coordinates_lat>45.627403</departure_coordinates_lat><departure_country_code>IT</departure_country_code><departure_country_name>Italy</departure_country_name><departure_city_code>MIL</departure_city_code><departure_city_name>Milan</departure_city_name><arrival_airport_iata>TAS</arrival_airport_iata><arrival_name_airport>Tashkent International</arrival_name_airport><arrival_coordinates_lon>69.26619</arrival_coordinates_lon><arrival_coordinates_lat>41.262714</arrival_coordinates_lat><arrival_country_code>UZ</arrival_country_code><arrival_country_name>Uzbekistan</arrival_country_name><arrival_city_code>TAS</arrival_city_code><arrival_city_name>Tashkent</arrival_city_name><planes>752</planes><plane_name>Boeing 757-200</plane_name></routes><routes><airline_iata>HY</airline_iata><departure_airport_iata>MXP</departure_airport_iata><departure_name_airport>Milano Malpensa</departure_name_airport><departure_coordinates_lon>8.71237</departure_coordinates_lon><departure_coordinates_lat>45.627403</departure_coordinates_lat><departure_country_code>IT</departure_country_code><departure_country_name>Italy</departure_country_name><departure_city_code>MIL</departure_city_code><departure_city_name>Milan</departure_city_name><arrival_airport_iata>UGC</arrival_airport_iata><arrival_name_airport>Urgench</arrival_name_airport><arrival_coordinates_lon>60.63303</arrival_coordinates_lon><arrival_coordinates_lat>41.584835</arrival_coordinates_lat><arrival_country_code>UZ</arrival_country_code><arrival_country_name>Uzbekistan</arrival_country_name><arrival_city_code>UGC</arrival_city_code><arrival_city_name>Urgench</arrival_city_name><planes>764</planes><plane_name>Boeing 767-400</plane_name></routes><routes><airline_iata>HY</airline_iata><departure_airport_iata>NCU</departure_airport_iata><departure_name_airport>Nukus</departure_name_airport><departure_coordinates_lon>59.63333</departure_coordinates_lon><departure_coordinates_lat>42.483334</departure_coordinates_lat><departure_country_code>UZ</departure_country_code><departure_country_name>Uzbekistan</departure_country_name><departure_city_code>NCU</departure_city_code><departure_city_name>Nukus</departure_city_name><arrival_airport_iata>TAS</arrival_airport_iata><arrival_name_airport>Tashkent International</arrival_name_airport><arrival_coordinates_lon>69.26619</arrival_coordinates_lon><arrival_coordinates_lat>41.262714</arrival_coordinates_lat><arrival_country_code>UZ</arrival_country_code><arrival_country_name>Uzbekistan</arrival_country_name><arrival_city_code>TAS</arrival_city_code><arrival_city_name>Tashkent</arrival_city_name><planes>AR8</planes><plane_name>Avro RJ85 Avroliner</plane_name></routes><routes><airline_iata>HY</airline_iata><departure_airport_iata>NMA</departure_airport_iata><departure_name_airport>Namangan</departure_name_airport><departure_coordinates_lon>71.6</departure_coordinates_lon><departure_coordinates_lat>40.983334</departure_coordinates_lat><departure_country_code>UZ</departure_country_code><departure_country_name>Uzbekistan</departure_country_name><departure_city_code>NMA</departure_city_code><departure_city_name>Namangan</departure_city_name><arrival_airport_iata>TAS</arrival_airport_iata><arrival_name_airport>Tashkent International</arrival_name_airport><arrival_coordinates_lon>69.26619</arrival_coordinates_lon><arrival_coordinates_lat>41.262714</arrival_coordinates_lat><arrival_country_code>UZ</arrival_country_code><arrival_country_name>Uzbekistan</arrival_country_name><arrival_city_code>TAS</arrival_city_code><arrival_city_name>Tashkent</arrival_city_name><planes>752</planes><plane_name>Boeing 757-200</plane_name></routes><routes><airline_iata>HY</airline_iata><departure_airport_iata>NRT</departure_airport_iata><departure_name_airport>Narita International Airport</departure_name_airport><departure_coordinates_lon>140.38744</departure_coordinates_lon><departure_coordinates_lat>35.773212</departure_coordinates_lat><departure_country_code>JP</departure_country_code><departure_country_name>Japan</departure_country_name><departure_city_code>TYO</departure_city_code><departure_city_name>Tokyo</departure_city_name><arrival_airport_iata>TAS</arrival_airport_iata><arrival_name_airport>Tashkent International</arrival_name_airport><arrival_coordinates_lon>69.26619</arrival_coordinates_lon><arrival_coordinates_lat>41.262714</arrival_coordinates_lat><arrival_country_code>UZ</arrival_country_code><arrival_country_name>Uzbekistan</arrival_country_name><arrival_city_code>TAS</arrival_city_code><arrival_city_name>Tashkent</arrival_city_name><planes>763</planes><plane_name>Boeing 767-300</plane_name></routes><routes><airline_iata>HY</airline_iata><departure_airport_iata>NVI</departure_airport_iata><departure_name_airport>Navoi International Airport</departure_name_airport><departure_coordinates_lon>65.159164</departure_coordinates_lon><departure_coordinates_lat>40.115</departure_coordinates_lat><departure_country_code>UZ</departure_country_code><departure_country_name>Uzbekistan</departure_country_name><departure_city_code>NVI</departure_city_code><departure_city_name>Navoi</departure_city_name><arrival_airport_iata>TAS</arrival_airport_iata><arrival_name_airport>Tashkent International</arrival_name_airport><arrival_coordinates_lon>69.26619</arrival_coordinates_lon><arrival_coordinates_lat>41.262714</arrival_coordinates_lat><arrival_country_code>UZ</arrival_country_code><arrival_country_name>Uzbekistan</arrival_country_name><arrival_city_code>TAS</arrival_city_code><arrival_city_name>Tashkent</arrival_city_name><planes>I14</planes><plane_name>Ilyushin IL-114</plane_name></routes><routes><airline_iata>HY</airline_iata><departure_airport_iata>OVB</departure_airport_iata><departure_name_airport>Tolmachevo</departure_name_airport><departure_coordinates_lon>82.667</departure_coordinates_lon><departure_coordinates_lat>55.00901</departure_coordinates_lat><departure_country_code>RU</departure_country_code><departure_country_name>Russia</departure_country_name><departure_city_code>OVB</departure_city_code><departure_city_name>Novosibirsk</departure_city_name><arrival_airport_iata>NMA</arrival_airport_iata><arrival_name_airport>Namangan</arrival_name_airport><arrival_coordinates_lon>71.6</arrival_coordinates_lon><arrival_coordinates_lat>40.983334</arrival_coordinates_lat><arrival_country_code>UZ</arrival_country_code><arrival_country_name>Uzbekistan</arrival_country_name><arrival_city_code>NMA</arrival_city_code><arrival_city_name>Namangan</arrival_city_name><planes>320</planes><plane_name>Airbus Industrie A320</plane_name></routes><routes><airline_iata>HY</airline_iata><departure_airport_iata>OVB</departure_airport_iata><departure_name_airport>Tolmachevo</departure_name_airport><departure_coordinates_lon>82.667</departure_coordinates_lon><departure_coordinates_lat>55.00901</departure_coordinates_lat><departure_country_code>RU</departure_country_code><departure_country_name>Russia</departure_country_name><departure_city_code>OVB</departure_city_code><departure_city_name>Novosibirsk</departure_city_name><arrival_airport_iata>TAS</arrival_airport_iata><arrival_name_airport>Tashkent International</arrival_name_airport><arrival_coordinates_lon>69.26619</arrival_coordinates_lon><arrival_coordinates_lat>41.262714</arrival_coordinates_lat><arrival_country_code>UZ</arrival_country_code><arrival_country_name>Uzbekistan</arrival_country_name><arrival_city_code>TAS</arrival_city_code><arrival_city_name>Tashkent</arrival_city_name><planes>320</planes><plane_name>Airbus Industrie A320</plane_name></routes><routes><airline_iata>HY</airline_iata><departure_airport_iata>PEK</departure_airport_iata><departure_name_airport>Beijing Capital International</departure_name_airport><departure_coordinates_lon>116.5871</departure_coordinates_lon><departure_coordinates_lat>40.078537</departure_coordinates_lat><departure_country_code>CN</departure_country_code><departure_country_name>China</departure_country_name><departure_city_code>BJS</departure_city_code><departure_city_name>Beijing</departure_city_name><arrival_airport_iata>TAS</arrival_airport_iata><arrival_name_airport>Tashkent International</arrival_name_airport><arrival_coordinates_lon>69.26619</arrival_coordinates_lon><arrival_coordinates_lat>41.262714</arrival_coordinates_lat><arrival_country_code>UZ</arrival_country_code><arrival_country_name>Uzbekistan</arrival_country_name><arrival_city_code>TAS</arrival_city_code><arrival_city_name>Tashkent</arrival_city_name><planes>763</planes><plane_name>Boeing 767-300</plane_name></routes><routes><airline_iata>HY</airline_iata><departure_airport_iata>PRG</departure_airport_iata><departure_name_airport>Prague Vaclav Havel Airport</departure_name_airport><departure_coordinates_lon>14.266638</departure_coordinates_lon><departure_coordinates_lat>50.10619</departure_coordinates_lat><departure_country_code>CZ</departure_country_code><departure_country_name>Czech Republic</departure_country_name><departure_city_code>PRG</departure_city_code><departure_city_name>Prague</departure_city_name><arrival_airport_iata>TAS</arrival_airport_iata><arrival_name_airport>Tashkent International</arrival_name_airport><arrival_coordinates_lon>69.26619</arrival_coordinates_lon><arrival_coordinates_lat>41.262714</arrival_coordinates_lat><arrival_country_code>UZ</arrival_country_code><arrival_country_name>Uzbekistan</arrival_country_name><arrival_city_code>TAS</arrival_city_code><arrival_city_name>Tashkent</arrival_city_name><planes>319</planes><plane_name>Airbus Industrie A319</plane_name></routes><routes><airline_iata>HY</airline_iata><departure_airport_iata>RIX</departure_airport_iata><departure_name_airport>Riga International</departure_name_airport><departure_coordinates_lon>23.979807</departure_coordinates_lon><departure_coordinates_lat>56.92208</departure_coordinates_lat><departure_country_code>LV</departure_country_code><departure_country_name>Latvia</departure_country_name><departure_city_code>RIX</departure_city_code><departure_city_name>Riga</departure_city_name><arrival_airport_iata>TAS</arrival_airport_iata><arrival_name_airport>Tashkent International</arrival_name_airport><arrival_coordinates_lon>69.26619</arrival_coordinates_lon><arrival_coordinates_lat>41.262714</arrival_coordinates_lat><arrival_country_code>UZ</arrival_country_code><arrival_country_name>Uzbekistan</arrival_country_name><arrival_city_code>TAS</arrival_city_code><arrival_city_name>Tashkent</arrival_city_name><planes>763</planes><plane_name>Boeing 767-300</plane_name></routes><routes><airline_iata>HY</airline_iata><departure_airport_iata>RIX</departure_airport_iata><departure_name_airport>Riga International</departure_name_airport><departure_coordinates_lon>23.979807</departure_coordinates_lon><departure_coordinates_lat>56.92208</departure_coordinates_lat><departure_country_code>LV</departure_country_code><departure_country_name>Latvia</departure_country_name><departure_city_code>RIX</departure_city_code><departure_city_name>Riga</departure_city_name><arrival_airport_iata>TAS</arrival_airport_iata><arrival_name_airport>Tashkent International</arrival_name_airport><arrival_coordinates_lon>69.26619</arrival_coordinates_lon><arrival_coordinates_lat>41.262714</arrival_coordinates_lat><arrival_country_code>UZ</arrival_country_code><arrival_country_name>Uzbekistan</arrival_country_name><arrival_city_code>TAS</arrival_city_code><arrival_city_name>Tashkent</arrival_city_name><planes>757</planes><plane_name>Boeing 757</plane_name></routes><routes><airline_iata>HY</airline_iata><departure_airport_iata>ROV</departure_airport_iata><departure_name_airport>Rostov</departure_name_airport><departure_coordinates_lon>39.75</departure_coordinates_lon><departure_coordinates_lat>47.25</departure_coordinates_lat><departure_country_code>RU</departure_country_code><departure_country_name>Russia</departure_country_name><departure_city_code>ROV</departure_city_code><departure_city_name>Rostov</departure_city_name><arrival_airport_iata>TAS</arrival_airport_iata><arrival_name_airport>Tashkent International</arrival_name_airport><arrival_coordinates_lon>69.26619</arrival_coordinates_lon><arrival_coordinates_lat>41.262714</arrival_coordinates_lat><arrival_country_code>UZ</arrival_country_code><arrival_country_name>Uzbekistan</arrival_country_name><arrival_city_code>TAS</arrival_city_code><arrival_city_name>Tashkent</arrival_city_name><planes>752</planes><plane_name>Boeing 757-200</plane_name></routes><routes><airline_iata>HY</airline_iata><departure_airport_iata>SHJ</departure_airport_iata><departure_name_airport>Sharjah</departure_name_airport><departure_coordinates_lon>55.52029</departure_coordinates_lon><departure_coordinates_lat>25.320873</departure_coordinates_lat><departure_country_code>AE</departure_country_code><departure_country_name>United Arab Emirates</departure_country_name><departure_city_code>SHJ</departure_city_code><departure_city_name>Sharjah</departure_city_name><arrival_airport_iata>TAS</arrival_airport_iata><arrival_name_airport>Tashkent International</arrival_name_airport><arrival_coordinates_lon>69.26619</arrival_coordinates_lon><arrival_coordinates_lat>41.262714</arrival_coordinates_lat><arrival_country_code>UZ</arrival_country_code><arrival_country_name>Uzbekistan</arrival_country_name><arrival_city_code>TAS</arrival_city_code><arrival_city_name>Tashkent</arrival_city_name><planes>764</planes><plane_name>Boeing 767-400</plane_name></routes><routes><airline_iata>HY</airline_iata><departure_airport_iata>SIP</departure_airport_iata><departure_name_airport>Simferopol</departure_name_airport><departure_coordinates_lon>33.99819</departure_coordinates_lon><departure_coordinates_lat>45.020657</departure_coordinates_lat><departure_country_code>UA</departure_country_code><departure_country_name>Ukraine</departure_country_name><departure_city_code>SIP</departure_city_code><departure_city_name>Simferopol</departure_city_name><arrival_airport_iata>SKD</arrival_airport_iata><arrival_name_airport>Samarkand</arrival_name_airport><arrival_coordinates_lon>66.99085</arrival_coordinates_lon><arrival_coordinates_lat>39.696217</arrival_coordinates_lat><arrival_country_code>UZ</arrival_country_code><arrival_country_name>Uzbekistan</arrival_country_name><arrival_city_code>SKD</arrival_city_code><arrival_city_name>Samarkand</arrival_city_name><planes>320</planes><plane_name>Airbus Industrie A320</plane_name></routes><routes><airline_iata>HY</airline_iata><departure_airport_iata>SIP</departure_airport_iata><departure_name_airport>Simferopol</departure_name_airport><departure_coordinates_lon>33.99819</departure_coordinates_lon><departure_coordinates_lat>45.020657</departure_coordinates_lat><departure_country_code>UA</departure_country_code><departure_country_name>Ukraine</departure_country_name><departure_city_code>SIP</departure_city_code><departure_city_name>Simferopol</departure_city_name><arrival_airport_iata>TAS</arrival_airport_iata><arrival_name_airport>Tashkent International</arrival_name_airport><arrival_coordinates_lon>69.26619</arrival_coordinates_lon><arrival_coordinates_lat>41.262714</arrival_coordinates_lat><arrival_country_code>UZ</arrival_country_code><arrival_country_name>Uzbekistan</arrival_country_name><arrival_city_code>TAS</arrival_city_code><arrival_city_name>Tashkent</arrival_city_name><planes>320</planes><plane_name>Airbus Industrie A320</plane_name></routes><routes><airline_iata>HY</airline_iata><departure_airport_iata>SKD</departure_airport_iata><departure_name_airport>Samarkand</departure_name_airport><departure_coordinates_lon>66.99085</departure_coordinates_lon><departure_coordinates_lat>39.696217</departure_coordinates_lat><departure_country_code>UZ</departure_country_code><departure_country_name>Uzbekistan</departure_country_name><departure_city_code>SKD</departure_city_code><departure_city_name>Samarkand</departure_city_name><arrival_airport_iata>TAS</arrival_airport_iata><arrival_name_airport>Tashkent International</arrival_name_airport><arrival_coordinates_lon>69.26619</arrival_coordinates_lon><arrival_coordinates_lat>41.262714</arrival_coordinates_lat><arrival_country_code>UZ</arrival_country_code><arrival_country_name>Uzbekistan</arrival_country_name><arrival_city_code>TAS</arrival_city_code><arrival_city_name>Tashkent</arrival_city_name><planes>752</planes><plane_name>Boeing 757-200</plane_name></routes><routes><airline_iata>HY</airline_iata><departure_airport_iata>SVX</departure_airport_iata><departure_name_airport>Koltsovo International</departure_name_airport><departure_coordinates_lon>60.804314</departure_coordinates_lon><departure_coordinates_lat>56.750336</departure_coordinates_lat><departure_country_code>RU</departure_country_code><departure_country_name>Russia</departure_country_name><departure_city_code>SVX</departure_city_code><departure_city_name>Ekaterinburg</departure_city_name><arrival_airport_iata>NMA</arrival_airport_iata><arrival_name_airport>Namangan</arrival_name_airport><arrival_coordinates_lon>71.6</arrival_coordinates_lon><arrival_coordinates_lat>40.983334</arrival_coordinates_lat><arrival_country_code>UZ</arrival_country_code><arrival_country_name>Uzbekistan</arrival_country_name><arrival_city_code>NMA</arrival_city_code><arrival_city_name>Namangan</arrival_city_name><planes>320</planes><plane_name>Airbus Industrie A320</plane_name></routes><routes><airline_iata>HY</airline_iata><departure_airport_iata>SVX</departure_airport_iata><departure_name_airport>Koltsovo International</departure_name_airport><departure_coordinates_lon>60.804314</departure_coordinates_lon><departure_coordinates_lat>56.750336</departure_coordinates_lat><departure_country_code>RU</departure_country_code><departure_country_name>Russia</departure_country_name><departure_city_code>SVX</departure_city_code><departure_city_name>Ekaterinburg</departure_city_name><arrival_airport_iata>TAS</arrival_airport_iata><arrival_name_airport>Tashkent International</arrival_name_airport><arrival_coordinates_lon>69.26619</arrival_coordinates_lon><arrival_coordinates_lat>41.262714</arrival_coordinates_lat><arrival_country_code>UZ</arrival_country_code><arrival_country_name>Uzbekistan</arrival_country_name><arrival_city_code>TAS</arrival_city_code><arrival_city_name>Tashkent</arrival_city_name><planes>752</planes><plane_name>Boeing 757-200</plane_name></routes><routes><airline_iata>HY</airline_iata><departure_airport_iata>TAS</departure_airport_iata><departure_name_airport>Tashkent International</departure_name_airport><departure_coordinates_lon>69.26619</departure_coordinates_lon><departure_coordinates_lat>41.262714</departure_coordinates_lat><departure_country_code>UZ</departure_country_code><departure_country_name>Uzbekistan</departure_country_name><departure_city_code>TAS</departure_city_code><departure_city_name>Tashkent</departure_city_name><arrival_airport_iata>AZN</arrival_airport_iata><arrival_name_airport>Andizhan</arrival_name_airport><arrival_coordinates_lon>72.3</arrival_coordinates_lon><arrival_coordinates_lat>40.733334</arrival_coordinates_lat><arrival_country_code>UZ</arrival_country_code><arrival_country_name>Uzbekistan</arrival_country_name><arrival_city_code>AZN</arrival_city_code><arrival_city_name>Andizhan</arrival_city_name><planes>752</planes><plane_name>Boeing 757-200</plane_name></routes><routes><airline_iata>HY</airline_iata><departure_airport_iata>TAS</departure_airport_iata><departure_name_airport>Tashkent International</departure_name_airport><departure_coordinates_lon>69.26619</departure_coordinates_lon><departure_coordinates_lat>41.262714</departure_coordinates_lat><departure_country_code>UZ</departure_country_code><departure_country_name>Uzbekistan</departure_country_name><departure_city_code>TAS</departure_city_code><departure_city_name>Tashkent</departure_city_name><arrival_airport_iata>BHK</arrival_airport_iata><arrival_name_airport>Bukhara</arrival_name_airport><arrival_coordinates_lon>64.47479</arrival_coordinates_lon><arrival_coordinates_lat>39.76037</arrival_coordinates_lat><arrival_country_code>UZ</arrival_country_code><arrival_country_name>Uzbekistan</arrival_country_name><arrival_city_code>BHK</arrival_city_code><arrival_city_name>Bukhara</arrival_city_name><planes>AR8</planes><plane_name>Avro RJ85 Avroliner</plane_name></routes><routes><airline_iata>HY</airline_iata><departure_airport_iata>TAS</departure_airport_iata><departure_name_airport>Tashkent International</departure_name_airport><departure_coordinates_lon>69.26619</departure_coordinates_lon><departure_coordinates_lat>41.262714</departure_coordinates_lat><departure_country_code>UZ</departure_country_code><departure_country_name>Uzbekistan</departure_country_name><departure_city_code>TAS</departure_city_code><departure_city_name>Tashkent</departure_city_name><arrival_airport_iata>FEG</arrival_airport_iata><arrival_name_airport>Fergana</arrival_name_airport><arrival_coordinates_lon>71.73361</arrival_coordinates_lon><arrival_coordinates_lat>40.350277</arrival_coordinates_lat><arrival_country_code>UZ</arrival_country_code><arrival_country_name>Uzbekistan</arrival_country_name><arrival_city_code>FEG</arrival_city_code><arrival_city_name>Fergana</arrival_city_name><planes>320</planes><plane_name>Airbus Industrie A320</plane_name></routes><routes><airline_iata>HY</airline_iata><departure_airport_iata>TAS</departure_airport_iata><departure_name_airport>Tashkent International</departure_name_airport><departure_coordinates_lon>69.26619</departure_coordinates_lon><departure_coordinates_lat>41.262714</departure_coordinates_lat><departure_country_code>UZ</departure_country_code><departure_country_name>Uzbekistan</departure_country_name><departure_city_code>TAS</departure_city_code><departure_city_name>Tashkent</departure_city_name><arrival_airport_iata>KSQ</arrival_airport_iata><arrival_name_airport>Karshi</arrival_name_airport><arrival_coordinates_lon>65.77531</arrival_coordinates_lon><arrival_coordinates_lat>38.80981</arrival_coordinates_lat><arrival_country_code>UZ</arrival_country_code><arrival_country_name>Uzbekistan</arrival_country_name><arrival_city_code>KSQ</arrival_city_code><arrival_city_name>Karshi</arrival_city_name><planes>I14</planes><plane_name>Ilyushin IL-114</plane_name></routes><routes><airline_iata>HY</airline_iata><departure_airport_iata>TAS</departure_airport_iata><departure_name_airport>Tashkent International</departure_name_airport><departure_coordinates_lon>69.26619</departure_coordinates_lon><departure_coordinates_lat>41.262714</departure_coordinates_lat><departure_country_code>UZ</departure_country_code><departure_country_name>Uzbekistan</departure_country_name><departure_city_code>TAS</departure_city_code><departure_city_name>Tashkent</departure_city_name><arrival_airport_iata>NCU</arrival_airport_iata><arrival_name_airport>Nukus</arrival_name_airport><arrival_coordinates_lon>59.63333</arrival_coordinates_lon><arrival_coordinates_lat>42.483334</arrival_coordinates_lat><arrival_country_code>UZ</arrival_country_code><arrival_country_name>Uzbekistan</arrival_country_name><arrival_city_code>NCU</arrival_city_code><arrival_city_name>Nukus</arrival_city_name><planes>320</planes><plane_name>Airbus Industrie A320</plane_name></routes><routes><airline_iata>HY</airline_iata><departure_airport_iata>TAS</departure_airport_iata><departure_name_airport>Tashkent International</departure_name_airport><departure_coordinates_lon>69.26619</departure_coordinates_lon><departure_coordinates_lat>41.262714</departure_coordinates_lat><departure_country_code>UZ</departure_country_code><departure_country_name>Uzbekistan</departure_country_name><departure_city_code>TAS</departure_city_code><departure_city_name>Tashkent</departure_city_name><arrival_airport_iata>NMA</arrival_airport_iata><arrival_name_airport>Namangan</arrival_name_airport><arrival_coordinates_lon>71.6</arrival_coordinates_lon><arrival_coordinates_lat>40.983334</arrival_coordinates_lat><arrival_country_code>UZ</arrival_country_code><arrival_country_name>Uzbekistan</arrival_country_name><arrival_city_code>NMA</arrival_city_code><arrival_city_name>Namangan</arrival_city_name><planes>320</planes><plane_name>Airbus Industrie A320</plane_name></routes><routes><airline_iata>HY</airline_iata><departure_airport_iata>TAS</departure_airport_iata><departure_name_airport>Tashkent International</departure_name_airport><departure_coordinates_lon>69.26619</departure_coordinates_lon><departure_coordinates_lat>41.262714</departure_coordinates_lat><departure_country_code>UZ</departure_country_code><departure_country_name>Uzbekistan</departure_country_name><departure_city_code>TAS</departure_city_code><departure_city_name>Tashkent</departure_city_name><arrival_airport_iata>NVI</arrival_airport_iata><arrival_name_airport>Navoi International Airport</arrival_name_airport><arrival_coordinates_lon>65.159164</arrival_coordinates_lon><arrival_coordinates_lat>40.115</arrival_coordinates_lat><arrival_country_code>UZ</arrival_country_code><arrival_country_name>Uzbekistan</arrival_country_name><arrival_city_code>NVI</arrival_city_code><arrival_city_name>Navoi</arrival_city_name><planes>I14</planes><plane_name>Ilyushin IL-114</plane_name></routes><routes><airline_iata>HY</airline_iata><departure_airport_iata>TAS</departure_airport_iata><departure_name_airport>Tashkent International</departure_name_airport><departure_coordinates_lon>69.26619</departure_coordinates_lon><departure_coordinates_lat>41.262714</departure_coordinates_lat><departure_country_code>UZ</departure_country_code><departure_country_name>Uzbekistan</departure_country_name><departure_city_code>TAS</departure_city_code><departure_city_name>Tashkent</departure_city_name><arrival_airport_iata>SKD</arrival_airport_iata><arrival_name_airport>Samarkand</arrival_name_airport><arrival_coordinates_lon>66.99085</arrival_coordinates_lon><arrival_coordinates_lat>39.696217</arrival_coordinates_lat><arrival_country_code>UZ</arrival_country_code><arrival_country_name>Uzbekistan</arrival_country_name><arrival_city_code>SKD</arrival_city_code><arrival_city_name>Samarkand</arrival_city_name><planes>752</planes><plane_name>Boeing 757-200</plane_name></routes><routes><airline_iata>HY</airline_iata><departure_airport_iata>TAS</departure_airport_iata><departure_name_airport>Tashkent International</departure_name_airport><departure_coordinates_lon>69.26619</departure_coordinates_lon><departure_coordinates_lat>41.262714</departure_coordinates_lat><departure_country_code>UZ</departure_country_code><departure_country_name>Uzbekistan</departure_country_name><departure_city_code>TAS</departure_city_code><departure_city_name>Tashkent</departure_city_name><arrival_airport_iata>TMJ</arrival_airport_iata><arrival_name_airport>Termez</arrival_name_airport><arrival_coordinates_lon>67.318954</arrival_coordinates_lon><arrival_coordinates_lat>37.280502</arrival_coordinates_lat><arrival_country_code>UZ</arrival_country_code><arrival_country_name>Uzbekistan</arrival_country_name><arrival_city_code>TMJ</arrival_city_code><arrival_city_name>Termez</arrival_city_name><planes>I14</planes><plane_name>Ilyushin IL-114</plane_name></routes><routes><airline_iata>HY</airline_iata><departure_airport_iata>TAS</departure_airport_iata><departure_name_airport>Tashkent International</departure_name_airport><departure_coordinates_lon>69.26619</departure_coordinates_lon><departure_coordinates_lat>41.262714</departure_coordinates_lat><departure_country_code>UZ</departure_country_code><departure_country_name>Uzbekistan</departure_country_name><departure_city_code>TAS</departure_city_code><departure_city_name>Tashkent</departure_city_name><arrival_airport_iata>UGC</arrival_airport_iata><arrival_name_airport>Urgench</arrival_name_airport><arrival_coordinates_lon>60.63303</arrival_coordinates_lon><arrival_coordinates_lat>41.584835</arrival_coordinates_lat><arrival_country_code>UZ</arrival_country_code><arrival_country_name>Uzbekistan</arrival_country_name><arrival_city_code>UGC</arrival_city_code><arrival_city_name>Urgench</arrival_city_name><planes>I14</planes><plane_name>Ilyushin IL-114</plane_name></routes><routes><airline_iata>HY</airline_iata><departure_airport_iata>TJM</departure_airport_iata><departure_name_airport>Roschino</departure_name_airport><departure_coordinates_lon>65.35024</departure_coordinates_lon><departure_coordinates_lat>57.181828</departure_coordinates_lat><departure_country_code>RU</departure_country_code><departure_country_name>Russia</departure_country_name><departure_city_code>TJM</departure_city_code><departure_city_name>Tyumen</departure_city_name><arrival_airport_iata>TAS</arrival_airport_iata><arrival_name_airport>Tashkent International</arrival_name_airport><arrival_coordinates_lon>69.26619</arrival_coordinates_lon><arrival_coordinates_lat>41.262714</arrival_coordinates_lat><arrival_country_code>UZ</arrival_country_code><arrival_country_name>Uzbekistan</arrival_country_name><arrival_city_code>TAS</arrival_city_code><arrival_city_name>Tashkent</arrival_city_name><planes>752</planes><plane_name>Boeing 757-200</plane_name></routes><routes><airline_iata>HY</airline_iata><departure_airport_iata>TLV</departure_airport_iata><departure_name_airport>Ben Gurion International</departure_name_airport><departure_coordinates_lon>34.870743</departure_coordinates_lon><departure_coordinates_lat>32.000454</departure_coordinates_lat><departure_country_code>IL</departure_country_code><departure_country_name>Israel</departure_country_name><departure_city_code>TLV</departure_city_code><departure_city_name>Tel Aviv Yafo</departure_city_name><arrival_airport_iata>TAS</arrival_airport_iata><arrival_name_airport>Tashkent International</arrival_name_airport><arrival_coordinates_lon>69.26619</arrival_coordinates_lon><arrival_coordinates_lat>41.262714</arrival_coordinates_lat><arrival_country_code>UZ</arrival_country_code><arrival_country_name>Uzbekistan</arrival_country_name><arrival_city_code>TAS</arrival_city_code><arrival_city_name>Tashkent</arrival_city_name><planes>764</planes><plane_name>Boeing 767-400</plane_name></routes><routes><airline_iata>HY</airline_iata><departure_airport_iata>TMJ</departure_airport_iata><departure_name_airport>Termez</departure_name_airport><departure_coordinates_lon>67.318954</departure_coordinates_lon><departure_coordinates_lat>37.280502</departure_coordinates_lat><departure_country_code>UZ</departure_country_code><departure_country_name>Uzbekistan</departure_country_name><departure_city_code>TMJ</departure_city_code><departure_city_name>Termez</departure_city_name><arrival_airport_iata>TAS</arrival_airport_iata><arrival_name_airport>Tashkent International</arrival_name_airport><arrival_coordinates_lon>69.26619</arrival_coordinates_lon><arrival_coordinates_lat>41.262714</arrival_coordinates_lat><arrival_country_code>UZ</arrival_country_code><arrival_country_name>Uzbekistan</arrival_country_name><arrival_city_code>TAS</arrival_city_code><arrival_city_name>Tashkent</arrival_city_name><planes>752</planes><plane_name>Boeing 757-200</plane_name></routes><routes><airline_iata>HY</airline_iata><departure_airport_iata>TSE</departure_airport_iata><departure_name_airport>Astana</departure_name_airport><departure_coordinates_lon>71.4612</departure_coordinates_lon><departure_coordinates_lat>51.02781</departure_coordinates_lat><departure_country_code>KZ</departure_country_code><departure_country_name>Kazakhstan</departure_country_name><departure_city_code>TSE</departure_city_code><departure_city_name>Astana</departure_city_name><arrival_airport_iata>TAS</arrival_airport_iata><arrival_name_airport>Tashkent International</arrival_name_airport><arrival_coordinates_lon>69.26619</arrival_coordinates_lon><arrival_coordinates_lat>41.262714</arrival_coordinates_lat><arrival_country_code>UZ</arrival_country_code><arrival_country_name>Uzbekistan</arrival_country_name><arrival_city_code>TAS</arrival_city_code><arrival_city_name>Tashkent</arrival_city_name><planes>320</planes><plane_name>Airbus Industrie A320</plane_name></routes><routes><airline_iata>HY</airline_iata><departure_airport_iata>UFA</departure_airport_iata><departure_name_airport>Ufa International Airport</departure_name_airport><departure_coordinates_lon>55.884544</departure_coordinates_lon><departure_coordinates_lat>54.565403</departure_coordinates_lat><departure_country_code>RU</departure_country_code><departure_country_name>Russia</departure_country_name><departure_city_code>UFA</departure_city_code><departure_city_name>Ufa</departure_city_name><arrival_airport_iata>TAS</arrival_airport_iata><arrival_name_airport>Tashkent International</arrival_name_airport><arrival_coordinates_lon>69.26619</arrival_coordinates_lon><arrival_coordinates_lat>41.262714</arrival_coordinates_lat><arrival_country_code>UZ</arrival_country_code><arrival_country_name>Uzbekistan</arrival_country_name><arrival_city_code>TAS</arrival_city_code><arrival_city_name>Tashkent</arrival_city_name><planes>320</planes><plane_name>Airbus Industrie A320</plane_name></routes><routes><airline_iata>HY</airline_iata><departure_airport_iata>UGC</departure_airport_iata><departure_name_airport>Urgench</departure_name_airport><departure_coordinates_lon>60.63303</departure_coordinates_lon><departure_coordinates_lat>41.584835</departure_coordinates_lat><departure_country_code>UZ</departure_country_code><departure_country_name>Uzbekistan</departure_country_name><departure_city_code>UGC</departure_city_code><departure_city_name>Urgench</departure_city_name><arrival_airport_iata>BHK</arrival_airport_iata><arrival_name_airport>Bukhara</arrival_name_airport><arrival_coordinates_lon>64.47479</arrival_coordinates_lon><arrival_coordinates_lat>39.76037</arrival_coordinates_lat><arrival_country_code>UZ</arrival_country_code><arrival_country_name>Uzbekistan</arrival_country_name><arrival_city_code>BHK</arrival_city_code><arrival_city_name>Bukhara</arrival_city_name><planes>320</planes><plane_name>Airbus Industrie A320</plane_name></routes><routes><airline_iata>HY</airline_iata><departure_airport_iata>UGC</departure_airport_iata><departure_name_airport>Urgench</departure_name_airport><departure_coordinates_lon>60.63303</departure_coordinates_lon><departure_coordinates_lat>41.584835</departure_coordinates_lat><departure_country_code>UZ</departure_country_code><departure_country_name>Uzbekistan</departure_count